{"timestamp": "2026-01-07T16:25:46.958434Z", "telemetry": {"lat": 28.7531704, "lon": 77.1177398, "satellites": 7, "altitude_gps_m": 263.1300048828125, "groundspeed_mps": 0.010985059663653374}, "flight": {"mode": null, "armed": null}, "ekf": {"attitude": {"roll": 0.01862119883298874, "pitch": -0.03254230320453644, "yaw": -1.586685299873352}, "local_position": {"x": null, "y": null, "z": null}, "status": {"flags": 135, "velocity_variance": 0.0, "pos_horiz_variance": 0.0031656092032790184, "pos_vert_variance": 0.0640498697757721}}, "errors": []}
{"timestamp": "2026-01-07T16:25:47.926059Z", "telemetry": {"lat": 28.753184, "lon": 77.1177405, "satellites": 7, "altitude_gps_m": 261.5899963378906, "groundspeed_mps": 0.012294703163206577}, "flight": {"mode": "STABILIZE", "armed": false}, "ekf": {"attitude": {"roll": 0.01863829605281353, "pitch": -0.03263774514198303, "yaw": -1.586693525314331}, "local_position": {"x": null, "y": null, "z": null}, "status": {"flags": 135, "velocity_variance": 0.0, "pos_horiz_variance": 0.0030477617401629686, "pos_vert_variance": 0.013504109345376492}}, "errors": ["PreArm: Hardware safety switch"]}
{"timestamp": "2026-01-07T16:25:48.925704Z", "telemetry": {"lat": 28.7531922, "lon": 77.1177427, "satellites": 6, "altitude_gps_m": 260.41998291015625, "groundspeed_mps": 0.012790142558515072}, "flight": {"mode": "STABILIZE", "armed": false}, "ekf": {"attitude": {"roll": 0.018350139260292053, "pitch": -0.03275629132986069, "yaw": -1.586801528930664}, "local_position": {"x": null, "y": null, "z": null}, "status": {"flags": 135, "velocity_variance": 0.0, "pos_horiz_variance": 0.003098775167018175, "pos_vert_variance": 0.02120834030210972}}, "errors": ["PreArm: Hardware safety switch"]}
{"timestamp": "2026-01-07T16:25:49.929998Z", "telemetry": {"lat": 28.7531971, "lon": 77.1177459, "satellites": 6, "altitude_gps_m": 259.7200012207031, "groundspeed_mps": 0.013784067705273628}, "flight": {"mode": "STABILIZE", "armed": false}, "ekf": {"attitude": {"roll": 0.01845611073076725, "pitch": -0.03271406888961792, "yaw": -1.5869616270065308}, "local_position": {"x": null, "y": null, "z": null}, "status": {"flags": 135, "velocity_variance": 0.0, "pos_horiz_variance": 0.0034355090465396643, "pos_vert_variance": 0.0223972387611866}}, "errors": ["PreArm: Hardware safety switch"]}
{"timestamp": "2026-01-07T16:25:50.928499Z", "telemetry": {"lat": 28.7531998, "lon": 77.1177471, "satellites": 6, "altitude_gps_m": 258.2099914550781, "groundspeed_mps": 0.014470365829765797}, "flight": {"mode": "STABILIZE", "armed": false}, "ekf": {"attitude": {"roll": 0.018557028844952583, "pitch": -0.03278045728802681, "yaw": -1.5867564678192139}, "local_position": {"x": null, "y": null, "z": null}, "status": {"flags": 135, "velocity_variance": 0.0, "pos_horiz_variance": 0.003713191719725728, "pos_vert_variance": 0.008332143537700176}}, "errors": ["PreArm: Hardware safety switch"]}
{"timestamp": "2026-01-07T16:25:51.928544Z", "telemetry": {"lat": 28.7531934, "lon": 77.1177475, "satellites": 6, "altitude_gps_m": 259.2699890136719, "groundspeed_mps": 0.010760597884654999}, "flight": {"mode": "STABILIZE", "armed": false}, "ekf": {"attitude": {"roll": 0.018441662192344666, "pitch": -0.032720454037189484, "yaw": -1.5868650674819946}, "local_position": {"x": null, "y": null, "z": null}, "status": {"flags": 135, "velocity_variance": 0.0, "pos_horiz_variance": 0.003497632686048746, "pos_vert_variance": 0.014335011132061481}}, "errors": ["PreArm: Hardware safety switch"]}
{"timestamp": "2026-01-07T16:25:52.928331Z", "telemetry": {"lat": 28.7531949, "lon": 77.117756, "satellites": 6, "altitude_gps_m": 257.9700012207031, "groundspeed_mps": 0.009896949864923954}, "flight": {"mode": "STABILIZE", "armed": false}, "ekf": {"attitude": {"roll": 0.01860622875392437, "pitch": -0.032864250242710114, "yaw": -1.5868399143218994}, "local_position": {"x": null, "y": null, "z": null}, "status": {"flags": 135, "velocity_variance": 0.0, "pos_horiz_variance": 0.0028652295004576445, "pos_vert_variance": 0.01457847747951746}}, "errors": ["PreArm: Hardware safety switch"]}
{"timestamp": "2026-01-07T16:25:53.932432Z", "telemetry": {"lat": 28.7531941, "lon": 77.1177528, "satellites": 6, "altitude_gps_m": 257.91998291015625, "groundspeed_mps": 0.010565224103629589}, "flight": {"mode": "STABILIZE", "armed": false}, "ekf": {"attitude": {"roll": 0.01809430681169033, "pitch": -0.03343505412340164, "yaw": -1.5873163938522339}, "local_position": {"x": null, "y": null, "z": null}, "status": {"flags": 135, "velocity_variance": 0.0, "pos_horiz_variance": 0.0026305513456463814, "pos_vert_variance": 0.05303293466567993}}, "errors": ["PreArm: Hardware safety switch"]}
{"timestamp": "2026-01-07T16:25:54.932630Z", "telemetry": {"lat": 28.7531947, "lon": 77.1177448, "satellites": 6, "altitude_gps_m": 258.67999267578125, "groundspeed_mps": 0.009913749992847443}, "flight": {"mode": "STABILIZE", "armed": false}, "ekf": {"attitude": {"roll": 0.017813850194215775, "pitch": -0.033659737557172775, "yaw": -1.5874197483062744}, "local_position": {"x": null, "y": null, "z": null}, "status": {"flags": 135, "velocity_variance": 0.0, "pos_horiz_variance": 0.0025437255389988422, "pos_vert_variance": 0.058230217546224594}}, "errors": ["PreArm: Hardware safety switch"]}
{"timestamp": "2026-01-07T16:25:55.901952Z", "telemetry": {"lat": 28.7532101, "lon": 77.1177514, "satellites": 6, "altitude_gps_m": 255.6899871826172, "groundspeed_mps": 0.008125370368361473}, "flight": {"mode": "STABILIZE", "armed": false}, "ekf": {"attitude": {"roll": 0.018140463158488274, "pitch": -0.0334484726190567, "yaw": -1.5874263048171997}, "local_position": {"x": null, "y": null, "z": null}, "status": {"flags": 135, "velocity_variance": 0.0, "pos_horiz_variance": 0.002555598970502615, "pos_vert_variance": 0.015871480107307434}}, "errors": ["PreArm: Hardware safety switch"]}
{"timestamp": "2026-01-07T16:25:56.931984Z", "telemetry": {"lat": 28.7532101, "lon": 77.1177547, "satellites": 6, "altitude_gps_m": 256.0400085449219, "groundspeed_mps": 0.006642418913543224}, "flight": {"mode": "STABILIZE", "armed": false}, "ekf": {"attitude": {"roll": 0.018909268081188202, "pitch": -0.03299975022673607, "yaw": -1.5864777565002441}, "local_position": {"x": null, "y": null, "z": null}, "status": {"flags": 135, "velocity_variance": 0.0, "pos_horiz_variance": 0.002299098763614893, "pos_vert_variance": 0.068791463971138}}, "errors": ["PreArm: Hardware safety switch"]}
{"timestamp": "2026-01-07T16:25:57.935884Z", "telemetry": {"lat": 28.7532085, "lon": 77.1177515, "satellites": 6, "altitude_gps_m": 258.0400085449219, "groundspeed_mps": 0.015390859916806221}, "flight": {"mode": "STABILIZE", "armed": false}, "ekf": {"attitude": {"roll": 0.017304452136158943, "pitch": -0.034095924347639084, "yaw": -1.5871115922927856}, "local_position": {"x": null, "y": null, "z": null}, "status": {"flags": 135, "velocity_variance": 0.0, "pos_horiz_variance": 0.0017433094326406717, "pos_vert_variance": 0.0202544704079628}}, "errors": ["PreArm: Hardware safety switch"]}
{"timestamp": "2026-01-07T16:25:58.935883Z", "telemetry": {"lat": 28.7531859, "lon": 77.1177645, "satellites": 6, "altitude_gps_m": 255.50999450683594, "groundspeed_mps": 0.0025533903390169144}, "flight": {"mode": "STABILIZE", "armed": false}, "ekf": {"attitude": {"roll": 0.018116066232323647, "pitch": -0.03367427736520767, "yaw": -1.5868374109268188}, "local_position": {"x": null, "y": null, "z": null}, "status": {"flags": 135, "velocity_variance": 0.0, "pos_horiz_variance": 0.0013119569048285484, "pos_vert_variance": 0.041391521692276}}, "errors": ["PreArm: Hardware safety switch"]}
{"timestamp": "2026-01-07T16:25:59.935701Z", "telemetry": {"lat": 28.7531867, "lon": 77.117763, "satellites": 6, "altitude_gps_m": 257.0099792480469, "groundspeed_mps": 0.003177464473992586}, "flight": {"mode": "STABILIZE", "armed": false}, "ekf": {"attitude": {"roll": 0.01717032678425312, "pitch": -0.034340087324380875, "yaw": -1.5869064331054688}, "local_position": {"x": null, "y": null, "z": null}, "status": {"flags": 135, "velocity_variance": 0.0, "pos_horiz_variance": 0.0007255127420648932, "pos_vert_variance": 0.04652489721775055}}, "errors": ["PreArm: Hardware safety switch"]}
{"timestamp": "2026-01-07T16:26:00.906579Z", "telemetry": {"lat": 28.753173, "lon": 77.1177701, "satellites": 6, "altitude_gps_m": 259.6199951171875, "groundspeed_mps": 0.005050130188465118}, "flight": {"mode": "STABILIZE", "armed": false}, "ekf": {"attitude": {"roll": 0.017444804310798645, "pitch": -0.03397810831665993, "yaw": -1.5870953798294067}, "local_position": {"x": null, "y": null, "z": null}, "status": {"flags": 135, "velocity_variance": 0.0, "pos_horiz_variance": 0.0010185879655182362, "pos_vert_variance": 0.02738727070391178}}, "errors": ["PreArm: Hardware safety switch"]}
{"timestamp": "2026-01-07T16:26:01.907249Z", "telemetry": {"lat": 28.7531826, "lon": 77.1177676, "satellites": 7, "altitude_gps_m": 258.8800048828125, "groundspeed_mps": 0.004790838807821274}, "flight": {"mode": "STABILIZE", "armed": false}, "ekf": {"attitude": {"roll": 0.01657148264348507, "pitch": -0.034441545605659485, "yaw": -1.5873931646347046}, "local_position": {"x": null, "y": null, "z": null}, "status": {"flags": 135, "velocity_variance": 0.0, "pos_horiz_variance": 0.001268664258532226, "pos_vert_variance": 0.04445871338248253}}, "errors": ["PreArm: Hardware safety switch"]}
{"timestamp": "2026-01-07T16:26:02.914224Z", "telemetry": {"lat": 28.753188, "lon": 77.117767, "satellites": 7, "altitude_gps_m": 259.5199890136719, "groundspeed_mps": 0.00891209952533245}, "flight": {"mode": "STABILIZE", "armed": false}, "ekf": {"attitude": {"roll": 0.016810456290841103, "pitch": -0.03415065258741379, "yaw": -1.5876942873001099}, "local_position": {"x": null, "y": null, "z": null}, "status": {"flags": 135, "velocity_variance": 0.0, "pos_horiz_variance": 0.0016930997371673584, "pos_vert_variance": 0.03246321529150009}}, "errors": ["PreArm: Hardware safety switch"]}
{"timestamp": "2026-01-07T16:26:03.913004Z", "telemetry": {"lat": 28.7531873, "lon": 77.1177648, "satellites": 7, "altitude_gps_m": 258.8999938964844, "groundspeed_mps": 0.013656053692102432}, "flight": {"mode": "STABILIZE", "armed": false}, "ekf": {"attitude": {"roll": 0.01677902601659298, "pitch": -0.034212108701467514, "yaw": -1.5875064134597778}, "local_position": {"x": null, "y": null, "z": null}, "status": {"flags": 135, "velocity_variance": 0.0, "pos_horiz_variance": 0.0022753889206796885, "pos_vert_variance": 0.013528935611248016}}, "errors": ["PreArm: Hardware safety switch"]}
{"timestamp": "2026-01-07T16:26:04.944235Z", "telemetry": {"lat": 28.7531828, "lon": 77.1177614, "satellites": 7, "altitude_gps_m": 259.1999816894531, "groundspeed_mps": 0.011395354755222797}, "flight": {"mode": "STABILIZE", "armed": false}, "ekf": {"attitude": {"roll": 0.016888756304979324, "pitch": -0.03459134325385094, "yaw": -1.5874618291854858}, "local_position": {"x": null, "y": null, "z": null}, "status": {"flags": 135, "velocity_variance": 0.0, "pos_horiz_variance": 0.002566250739619136, "pos_vert_variance": 0.05162632092833519}}, "errors": ["PreArm: Hardware safety switch"]}
{"timestamp": "2026-01-07T16:26:05.949563Z", "telemetry": {"lat": 28.7531749, "lon": 77.1177612, "satellites": 7, "altitude_gps_m": 256.8599853515625, "groundspeed_mps": 0.016992904245853424}, "flight": {"mode": "STABILIZE", "armed": false}, "ekf": {"attitude": {"roll": 0.016784105449914932, "pitch": -0.03465975448489189, "yaw": -1.5874481201171875}, "local_position": {"x": null, "y": null, "z": null}, "status": {"flags": 135, "velocity_variance": 0.0, "pos_horiz_variance": 0.002557147294282913, "pos_vert_variance": 0.0010369509691372514}}, "errors": ["PreArm: Hardware safety switch"]}
{"timestamp": "2026-01-07T16:26:06.950869Z", "telemetry": {"lat": 28.753189, "lon": 77.1177634, "satellites": 7, "altitude_gps_m": 254.63999938964844, "groundspeed_mps": 0.005565166007727385}, "flight": {"mode": "STABILIZE", "armed": false}, "ekf": {"attitude": {"roll": 0.016965188086032867, "pitch": -0.03446880355477333, "yaw": -1.5874662399291992}, "local_position": {"x": null, "y": null, "z": null}, "status": {"flags": 135, "velocity_variance": 0.0, "pos_horiz_variance": 0.002529627177864313, "pos_vert_variance": 0.003441022476181388}}, "errors": ["PreArm: Hardware safety switch"]}
{"timestamp": "2026-01-07T16:26:07.921705Z", "telemetry": {"lat": 28.7532049, "lon": 77.1177651, "satellites": 6, "altitude_gps_m": 251.6199951171875, "groundspeed_mps": 0.010128878057003021}, "flight": {"mode": "STABILIZE", "armed": false}, "ekf": {"attitude": {"roll": 0.017386876046657562, "pitch": -0.03437122330069542, "yaw": -1.587604284286499}, "local_position": {"x": null, "y": null, "z": null}, "status": {"flags": 135, "velocity_variance": 0.0, "pos_horiz_variance": 0.0018989238888025284, "pos_vert_variance": 0.007746756076812744}}, "errors": ["PreArm: Hardware safety switch"]}
{"timestamp": "2026-01-07T16:26:08.923451Z", "telemetry": {"lat": 28.7532168, "lon": 77.1177624, "satellites": 6, "altitude_gps_m": 249.8699951171875, "groundspeed_mps": 0.0021182727068662643}, "flight": {"mode": "STABILIZE", "armed": false}, "ekf": {"attitude": {"roll": 0.017476195469498634, "pitch": -0.03432123735547066, "yaw": -1.5876792669296265}, "local_position": {"x": null, "y": null, "z": null}, "status": {"flags": 135, "velocity_variance": 0.0, "pos_horiz_variance": 0.0018219087505713105, "pos_vert_variance": 0.012589307501912117}}, "errors": ["PreArm: Hardware safety switch"]}
{"timestamp": "2026-01-07T16:26:09.923879Z", "telemetry": {"lat": 28.7532156, "lon": 77.1177585, "satellites": 6, "altitude_gps_m": 251.08999633789062, "groundspeed_mps": 0.0021574064157903194}, "flight": {"mode": "STABILIZE", "armed": false}, "ekf": {"attitude": {"roll": 0.017388205975294113, "pitch": -0.034543342888355255, "yaw": -1.5877220630645752}, "local_position": {"x": null, "y": null, "z": null}, "status": {"flags": 135, "velocity_variance": 0.0, "pos_horiz_variance": 0.0009912758832797408, "pos_vert_variance": 0.01930372230708599}}, "errors": ["PreArm: Hardware safety switch"]}
{"timestamp": "2026-01-07T16:26:10.929586Z", "telemetry": {"lat": 28.7531959, "lon": 77.1177584, "satellites": 5, "altitude_gps_m": 253.9399871826172, "groundspeed_mps": 0.006024274975061417}, "flight": {"mode": "STABILIZE", "armed": false}, "ekf": {"attitude": {"roll": 0.01746257208287716, "pitch": -0.03489821404218674, "yaw": -1.5879037380218506}, "local_position": {"x": null, "y": null, "z": null}, "status": {"flags": 135, "velocity_variance": 0.0, "pos_horiz_variance": 0.00046400781138800085, "pos_vert_variance": 0.036772869527339935}}, "errors": ["PreArm: Hardware safety switch"]}
{"timestamp": "2026-01-07T16:26:11.929945Z", "telemetry": {"lat": 28.7531304, "lon": 77.1177465, "satellites": 6, "altitude_gps_m": 260.8899841308594, "groundspeed_mps": 0.005969603080302477}, "flight": {"mode": "STABILIZE", "armed": false}, "ekf": {"attitude": {"roll": 0.01718961074948311, "pitch": -0.034894298762083054, "yaw": -1.5877888202667236}, "local_position": {"x": null, "y": null, "z": null}, "status": {"flags": 135, "velocity_variance": 0.0, "pos_horiz_variance": 0.0006129543180577457, "pos_vert_variance": 0.08755160123109818}}, "errors": ["PreArm: Hardware safety switch"]}
{"timestamp": "2026-01-07T16:26:12.929669Z", "telemetry": {"lat": 28.7530833, "lon": 77.1177378, "satellites": 5, "altitude_gps_m": 260.989990234375, "groundspeed_mps": 0.00818259920924902}, "flight": {"mode": "STABILIZE", "armed": false}, "ekf": {"attitude": {"roll": 0.017419856041669846, "pitch": -0.034712065011262894, "yaw": -1.587782859802246}, "local_position": {"x": null, "y": null, "z": null}, "status": {"flags": 135, "velocity_variance": 0.0, "pos_horiz_variance": 0.0010819404851645231, "pos_vert_variance": 0.08849567174911499}}, "errors": ["PreArm: Hardware safety switch"]}
{"timestamp": "2026-01-07T16:26:13.930970Z", "telemetry": {"lat": 28.7530558, "lon": 77.1177328, "satellites": 6, "altitude_gps_m": 262.16998291015625, "groundspeed_mps": 0.010202939622104168}, "flight": {"mode": "STABILIZE", "armed": false}, "ekf": {"attitude": {"roll": 0.01720798760652542, "pitch": -0.03499735891819, "yaw": -1.587673306465149}, "local_position": {"x": null, "y": null, "z": null}, "status": {"flags": 135, "velocity_variance": 0.0, "pos_horiz_variance": 0.0018186059314757586, "pos_vert_variance": 0.0439937487244606}}, "errors": ["PreArm: Hardware safety switch"]}
{"timestamp": "2026-01-07T16:26:14.935939Z", "telemetry": {"lat": 28.7530012, "lon": 77.1177304, "satellites": 6, "altitude_gps_m": 270.3800048828125, "groundspeed_mps": 0.010722757317125797}, "flight": {"mode": "STABILIZE", "armed": false}, "ekf": {"attitude": {"roll": 0.01679271087050438, "pitch": -0.03536038100719452, "yaw": -1.588270664215088}, "local_position": {"x": null, "y": null, "z": null}, "status": {"flags": 135, "velocity_variance": 0.0, "pos_horiz_variance": 0.0022129241842776537, "pos_vert_variance": 0.09646052867174149}}, "errors": ["PreArm: Hardware safety switch"]}
{"timestamp": "2026-01-07T16:26:15.937220Z", "telemetry": {"lat": 28.7529913, "lon": 77.1177499, "satellites": 6, "altitude_gps_m": 267.2200012207031, "groundspeed_mps": 0.008182818070054054}, "flight": {"mode": "STABILIZE", "armed": false}, "ekf": {"attitude": {"roll": 0.01693066768348217, "pitch": -0.03520265966653824, "yaw": -1.5880472660064697}, "local_position": {"x": null, "y": null, "z": null}, "status": {"flags": 135, "velocity_variance": 0.0, "pos_horiz_variance": 0.0021512391977012157, "pos_vert_variance": 0.0038132183253765106}}, "errors": ["PreArm: Hardware safety switch"]}
{"timestamp": "2026-01-07T16:26:16.938272Z", "telemetry": {"lat": 28.753072, "lon": 77.1178319, "satellites": 6, "altitude_gps_m": 253.0, "groundspeed_mps": 0.011831902898848057}, "flight": {"mode": "STABILIZE", "armed": false}, "ekf": {"attitude": {"roll": 0.017023444175720215, "pitch": -0.035040806978940964, "yaw": -1.5881518125534058}, "local_position": {"x": null, "y": null, "z": null}, "status": {"flags": 135, "velocity_variance": 0.0, "pos_horiz_variance": 0.0022290879860520363, "pos_vert_variance": 0.06217698007822037}}, "errors": ["PreArm: Hardware safety switch"]}
{"timestamp": "2026-01-07T16:26:17.910156Z", "telemetry": {"lat": 28.7531846, "lon": 77.1179285, "satellites": 6, "altitude_gps_m": 222.95999145507812, "groundspeed_mps": 0.011354463174939156}, "flight": {"mode": "STABILIZE", "armed": false}, "ekf": {"attitude": {"roll": 0.01701880432665348, "pitch": -0.035087961703538895, "yaw": -1.5879968404769897}, "local_position": {"x": null, "y": null, "z": null}, "status": {"flags": 135, "velocity_variance": 0.0, "pos_horiz_variance": 0.0025088810361921787, "pos_vert_variance": 0.02235892042517662}}, "errors": ["PreArm: Hardware safety switch"]}
{"timestamp": "2026-01-07T16:26:18.910742Z", "telemetry": {"lat": 28.7532906, "lon": 77.1179965, "satellites": 5, "altitude_gps_m": 214.1599884033203, "groundspeed_mps": 0.01020883210003376}, "flight": {"mode": "STABILIZE", "armed": false}, "ekf": {"attitude": {"roll": 0.016840893775224686, "pitch": -0.03521132096648216, "yaw": -1.58797025680542}, "local_position": {"x": null, "y": null, "z": null}, "status": {"flags": 135, "velocity_variance": 0.0, "pos_horiz_variance": 0.0027174288406968117, "pos_vert_variance": 0.021995093673467636}}, "errors": ["PreArm: Hardware safety switch", "PreArm: Hardware safety switch"]}
{"timestamp": "2026-01-07T16:26:19.910936Z", "telemetry": {"lat": 28.7533189, "lon": 77.1180047, "satellites": 5, "altitude_gps_m": 205.94000244140625, "groundspeed_mps": 0.0065122139640152454}, "flight": {"mode": "STABILIZE", "armed": false}, "ekf": {"attitude": {"roll": 0.016790999099612236, "pitch": -0.034979596734046936, "yaw": -1.5881479978561401}, "local_position": {"x": null, "y": null, "z": null}, "status": {"flags": 135, "velocity_variance": 0.0, "pos_horiz_variance": 0.002997864503413439, "pos_vert_variance": 0.00048662826884537935}}, "errors": ["PreArm: Hardware safety switch", "PreArm: Hardware safety switch"]}
{"timestamp": "2026-01-07T16:26:20.917066Z", "telemetry": {"lat": 28.7533348, "lon": 77.1180042, "satellites": 5, "altitude_gps_m": 199.8699951171875, "groundspeed_mps": 0.017877468839287758}, "flight": {"mode": "STABILIZE", "armed": false}, "ekf": {"attitude": {"roll": 0.016861064359545708, "pitch": -0.03492790833115578, "yaw": -1.588128685951233}, "local_position": {"x": null, "y": null, "z": null}, "status": {"flags": 135, "velocity_variance": 0.0, "pos_horiz_variance": 0.0033030284103006124, "pos_vert_variance": 0.004872909281402826}}, "errors": ["PreArm: Hardware safety switch", "PreArm: Hardware safety switch"]}
{"timestamp": "2026-01-07T16:26:21.947980Z", "telemetry": {"lat": 28.7532909, "lon": 77.1179884, "satellites": 7, "altitude_gps_m": 206.75, "groundspeed_mps": 0.006999723147600889}, "flight": {"mode": "STABILIZE", "armed": false}, "ekf": {"attitude": {"roll": 0.01719619333744049, "pitch": -0.035132113844156265, "yaw": -1.5877971649169922}, "local_position": {"x": null, "y": null, "z": null}, "status": {"flags": 135, "velocity_variance": 0.0, "pos_horiz_variance": 0.003468117443844676, "pos_vert_variance": 0.042113129049539566}}, "errors": ["PreArm: Hardware safety switch", "PreArm: Hardware safety switch"]}
{"timestamp": "2026-01-07T16:26:22.952832Z", "telemetry": {"lat": 28.753267, "lon": 77.117978, "satellites": 7, "altitude_gps_m": 209.76998901367188, "groundspeed_mps": 0.014335195533931255}, "flight": {"mode": "STABILIZE", "armed": false}, "ekf": {"attitude": {"roll": 0.017083244398236275, "pitch": -0.034941643476486206, "yaw": -1.5884052515029907}, "local_position": {"x": null, "y": null, "z": null}, "status": {"flags": 135, "velocity_variance": 0.0, "pos_horiz_variance": 0.0030289760325104, "pos_vert_variance": 0.08568345010280609}}, "errors": ["PreArm: Hardware safety switch", "PreArm: Hardware safety switch"]}
{"timestamp": "2026-01-07T16:26:23.920894Z", "telemetry": {"lat": 28.7532563, "lon": 77.1179653, "satellites": 7, "altitude_gps_m": 211.9499969482422, "groundspeed_mps": 0.010948975570499897}, "flight": {"mode": "STABILIZE", "armed": false}, "ekf": {"attitude": {"roll": 0.01873275451362133, "pitch": -0.033163826912641525, "yaw": -1.5879780054092407}, "local_position": {"x": null, "y": null, "z": null}, "status": {"flags": 135, "velocity_variance": 0.0, "pos_horiz_variance": 0.0026595580857247114, "pos_vert_variance": 0.04396528750658035}}, "errors": ["PreArm: Hardware safety switch", "PreArm: Hardware safety switch"]}
{"timestamp": "2026-01-07T16:26:24.925452Z", "telemetry": {"lat": 28.753264, "lon": 77.1179582, "satellites": 7, "altitude_gps_m": 211.6699981689453, "groundspeed_mps": 0.008597423322498798}, "flight": {"mode": "STABILIZE", "armed": false}, "ekf": {"attitude": {"roll": 0.01796814054250717, "pitch": -0.03429444879293442, "yaw": -1.5878006219863892}, "local_position": {"x": null, "y": null, "z": null}, "status": {"flags": 135, "velocity_variance": 0.0, "pos_horiz_variance": 0.002425581216812134, "pos_vert_variance": 0.06093732640147209}}, "errors": ["PreArm: Hardware safety switch", "PreArm: Hardware safety switch"]}
{"timestamp": "2026-01-07T16:26:25.925792Z", "telemetry": {"lat": 28.7532568, "lon": 77.1179526, "satellites": 7, "altitude_gps_m": 214.61000061035156, "groundspeed_mps": 0.009582594968378544}, "flight": {"mode": "STABILIZE", "armed": false}, "ekf": {"attitude": {"roll": 0.017185593023896217, "pitch": -0.03467908501625061, "yaw": -1.588188648223877}, "local_position": {"x": null, "y": null, "z": null}, "status": {"flags": 135, "velocity_variance": 0.0, "pos_horiz_variance": 0.002570396987721324, "pos_vert_variance": 0.007526444736868143}}, "errors": ["PreArm: Hardware safety switch", "PreArm: Hardware safety switch"]}
{"timestamp": "2026-01-07T16:26:26.926696Z", "telemetry": {"lat": 28.7532518, "lon": 77.1179511, "satellites": 7, "altitude_gps_m": 215.25, "groundspeed_mps": 0.006068426184356213}, "flight": {"mode": "STABILIZE", "armed": false}, "ekf": {"attitude": {"roll": 0.019178317859768867, "pitch": -0.03346281126141548, "yaw": -1.5867701768875122}, "local_position": {"x": null, "y": null, "z": null}, "status": {"flags": 135, "velocity_variance": 0.0, "pos_horiz_variance": 0.002755617257207632, "pos_vert_variance": 0.013972707092761993}}, "errors": ["PreArm: Hardware safety switch", "PreArm: Hardware safety switch"]}
{"timestamp": "2026-01-07T16:26:27.927771Z", "telemetry": {"lat": 28.7532506, "lon": 77.1179607, "satellites": 7, "altitude_gps_m": 214.77999877929688, "groundspeed_mps": 0.006926387082785368}, "flight": {"mode": "STABILIZE", "armed": false}, "ekf": {"attitude": {"roll": 0.017143914476037025, "pitch": -0.03424268588423729, "yaw": -1.5879393815994263}, "local_position": {"x": null, "y": null, "z": null}, "status": {"flags": 135, "velocity_variance": 0.0, "pos_horiz_variance": 0.0024380639661103487, "pos_vert_variance": 0.023989899083971977}}, "errors": ["PreArm: Hardware safety switch", "PreArm: Hardware safety switch"]}
{"timestamp": "2026-01-07T16:26:28.932677Z", "telemetry": {"lat": 28.7532556, "lon": 77.1179723, "satellites": 7, "altitude_gps_m": 213.3300018310547, "groundspeed_mps": 0.010027419775724411}, "flight": {"mode": "STABILIZE", "armed": false}, "ekf": {"attitude": {"roll": 0.018716180697083473, "pitch": -0.032962650060653687, "yaw": -1.5873651504516602}, "local_position": {"x": null, "y": null, "z": null}, "status": {"flags": 135, "velocity_variance": 0.0, "pos_horiz_variance": 0.0015721949748694897, "pos_vert_variance": 0.059645529836416245}}, "errors": ["PreArm: Hardware safety switch", "PreArm: Hardware safety switch"]}
{"timestamp": "2026-01-07T16:26:29.932053Z", "telemetry": {"lat": 28.753262, "lon": 77.1179713, "satellites": 7, "altitude_gps_m": 213.75, "groundspeed_mps": 0.00484059751033783}, "flight": {"mode": "STABILIZE", "armed": false}, "ekf": {"attitude": {"roll": 0.017281411215662956, "pitch": -0.03423440828919411, "yaw": -1.5879325866699219}, "local_position": {"x": null, "y": null, "z": null}, "status": {"flags": 135, "velocity_variance": 0.0, "pos_horiz_variance": 0.0009601733181625605, "pos_vert_variance": 0.027235247194767}}, "errors": ["PreArm: Hardware safety switch", "PreArm: Hardware safety switch"]}
{"timestamp": "2026-01-07T16:26:30.902207Z", "telemetry": {"lat": 28.7532478, "lon": 77.1179482, "satellites": 6, "altitude_gps_m": 218.4499969482422, "groundspeed_mps": 0.00841551274061203}, "flight": {"mode": "STABILIZE", "armed": false}, "ekf": {"attitude": {"roll": 0.017530331388115883, "pitch": -0.03417184576392174, "yaw": -1.5877530574798584}, "local_position": {"x": null, "y": null, "z": null}, "status": {"flags": 135, "velocity_variance": 0.0, "pos_horiz_variance": 0.001193669973872602, "pos_vert_variance": 0.03285083919763565}}, "errors": ["PreArm: Hardware safety switch", "PreArm: Hardware safety switch"]}
{"timestamp": "2026-01-07T16:26:31.934135Z", "telemetry": {"lat": 28.7532216, "lon": 77.1179285, "satellites": 6, "altitude_gps_m": 223.1599884033203, "groundspeed_mps": 0.0051018730737268925}, "flight": {"mode": "STABILIZE", "armed": false}, "ekf": {"attitude": {"roll": 0.017037076875567436, "pitch": -0.034504227340221405, "yaw": -1.5878263711929321}, "local_position": {"x": null, "y": null, "z": null}, "status": {"flags": 135, "velocity_variance": 0.0, "pos_horiz_variance": 0.00145381735637784, "pos_vert_variance": 0.0002487454330548644}}, "errors": ["PreArm: Hardware safety switch", "PreArm: Hardware safety switch"]}
{"timestamp": "2026-01-07T16:26:32.939105Z", "telemetry": {"lat": 28.7531858, "lon": 77.117907, "satellites": 7, "altitude_gps_m": 228.70999145507812, "groundspeed_mps": 0.0042378269135952}, "flight": {"mode": "STABILIZE", "armed": false}, "ekf": {"attitude": {"roll": 0.01782827265560627, "pitch": -0.03405112028121948, "yaw": -1.587615728378296}, "local_position": {"x": null, "y": null, "z": null}, "status": {"flags": 135, "velocity_variance": 0.0, "pos_horiz_variance": 0.0013748492347076535, "pos_vert_variance": 0.06770560145378113}}, "errors": ["PreArm: Hardware safety switch", "PreArm: Hardware safety switch"]}
{"timestamp": "2026-01-07T16:26:33.940053Z", "telemetry": {"lat": 28.753156, "lon": 77.1178877, "satellites": 7, "altitude_gps_m": 232.63999938964844, "groundspeed_mps": 0.002721331547945738}, "flight": {"mode": "STABILIZE", "armed": false}, "ekf": {"attitude": {"roll": 0.0177833903580904, "pitch": -0.03418111056089401, "yaw": -1.587605357170105}, "local_position": {"x": null, "y": null, "z": null}, "status": {"flags": 135, "velocity_variance": 0.0, "pos_horiz_variance": 0.0010135669726878405, "pos_vert_variance": 0.012669969350099564}}, "errors": ["PreArm: Hardware safety switch", "PreArm: Hardware safety switch"]}
{"timestamp": "2026-01-07T16:26:34.940966Z", "telemetry": {"lat": 28.7531316, "lon": 77.117872, "satellites": 6, "altitude_gps_m": 235.67999267578125, "groundspeed_mps": 0.007381287403404713}, "flight": {"mode": "STABILIZE", "armed": false}, "ekf": {"attitude": {"roll": 0.016766633838415146, "pitch": -0.034852009266614914, "yaw": -1.5876094102859497}, "local_position": {"x": null, "y": null, "z": null}, "status": {"flags": 135, "velocity_variance": 0.0, "pos_horiz_variance": 0.00033375510247424245, "pos_vert_variance": 0.010153100825846195}}, "errors": ["PreArm: Hardware safety switch", "PreArm: Hardware safety switch"]}
{"timestamp": "2026-01-07T16:26:35.912507Z", "telemetry": {"lat": 28.753113, "lon": 77.1178594, "satellites": 6, "altitude_gps_m": 239.52999877929688, "groundspeed_mps": 0.00932315830141306}, "flight": {"mode": "STABILIZE", "armed": false}, "ekf": {"attitude": {"roll": 0.016998376697301865, "pitch": -0.034628164023160934, "yaw": -1.587486982345581}, "local_position": {"x": null, "y": null, "z": null}, "status": {"flags": 135, "velocity_variance": 0.0, "pos_horiz_variance": 0.0010870859259739518, "pos_vert_variance": 0.011115972883999348}}, "errors": ["PreArm: Hardware safety switch", "PreArm: Hardware safety switch"]}
{"timestamp": "2026-01-07T16:26:36.913198Z", "telemetry": {"lat": 28.7530977, "lon": 77.1178448, "satellites": 7, "altitude_gps_m": 239.25999450683594, "groundspeed_mps": 0.011240251362323761}, "flight": {"mode": "STABILIZE", "armed": false}, "ekf": {"attitude": {"roll": 0.016871735453605652, "pitch": -0.03481408953666687, "yaw": -1.5874559879302979}, "local_position": {"x": null, "y": null, "z": null}, "status": {"flags": 135, "velocity_variance": 0.0, "pos_horiz_variance": 0.0017689154483377934, "pos_vert_variance": 0.019515549764037132}}, "errors": ["PreArm: Hardware safety switch", "PreArm: Hardware safety switch"]}
{"timestamp": "2026-01-07T16:26:37.917687Z", "telemetry": {"lat": 28.7530805, "lon": 77.1178356, "satellites": 7, "altitude_gps_m": 239.14999389648438, "groundspeed_mps": 0.009440223686397076}, "flight": {"mode": "STABILIZE", "armed": false}, "ekf": {"attitude": {"roll": 0.016941288486123085, "pitch": -0.03492961451411247, "yaw": -1.5878735780715942}, "local_position": {"x": null, "y": null, "z": null}, "status": {"flags": 135, "velocity_variance": 0.0, "pos_horiz_variance": 0.002243951428681612, "pos_vert_variance": 0.06938372552394867}}, "errors": ["PreArm: Hardware safety switch", "PreArm: Hardware safety switch"]}
{"timestamp": "2026-01-07T16:26:38.918370Z", "telemetry": {"lat": 28.7530759, "lon": 77.1178248, "satellites": 6, "altitude_gps_m": 238.6899871826172, "groundspeed_mps": 0.01728331856429577}, "flight": {"mode": "STABILIZE", "armed": false}, "ekf": {"attitude": {"roll": 0.017710741609334946, "pitch": -0.03432583063840866, "yaw": -1.5877671241760254}, "local_position": {"x": null, "y": null, "z": null}, "status": {"flags": 135, "velocity_variance": 0.0, "pos_horiz_variance": 0.0028880068566650152, "pos_vert_variance": 0.06609498709440231}}, "errors": ["PreArm: Hardware safety switch", "PreArm: Hardware safety switch"]}
{"timestamp": "2026-01-07T16:26:39.919740Z", "telemetry": {"lat": 28.7530728, "lon": 77.117818, "satellites": 6, "altitude_gps_m": 237.4399871826172, "groundspeed_mps": 0.015685686841607094}, "flight": {"mode": "STABILIZE", "armed": false}, "ekf": {"attitude": {"roll": 0.017570743337273598, "pitch": -0.03451190143823624, "yaw": -1.5875836610794067}, "local_position": {"x": null, "y": null, "z": null}, "status": {"flags": 135, "velocity_variance": 0.0, "pos_horiz_variance": 0.0034948645625263453, "pos_vert_variance": 0.008866961114108562}}, "errors": ["PreArm: Hardware safety switch", "PreArm: Hardware safety switch"]}
{"timestamp": "2026-01-07T16:26:40.954825Z", "telemetry": {"lat": 28.7530677, "lon": 77.1178077, "satellites": 6, "altitude_gps_m": 236.36000061035156, "groundspeed_mps": 0.011986537836492062}, "flight": {"mode": "STABILIZE", "armed": false}, "ekf": {"attitude": {"roll": 0.017657699063420296, "pitch": -0.034582268446683884, "yaw": -1.5875205993652344}, "local_position": {"x": null, "y": null, "z": null}, "status": {"flags": 135, "velocity_variance": 0.0, "pos_horiz_variance": 0.0037207999266684055, "pos_vert_variance": 0.0394655242562294}}, "errors": ["PreArm: Hardware safety switch", "PreArm: Hardware safety switch"]}
{"timestamp": "2026-01-07T16:26:41.955607Z", "telemetry": {"lat": 28.7530788, "lon": 77.1178074, "satellites": 6, "altitude_gps_m": 235.0800018310547, "groundspeed_mps": 0.009265395812690258}, "flight": {"mode": "STABILIZE", "armed": false}, "ekf": {"attitude": {"roll": 0.017766401171684265, "pitch": -0.03447704017162323, "yaw": -1.5875271558761597}, "local_position": {"x": null, "y": null, "z": null}, "status": {"flags": 135, "velocity_variance": 0.0, "pos_horiz_variance": 0.0033931585494428873, "pos_vert_variance": 0.033582281321287155}}, "errors": ["PreArm: Hardware safety switch", "PreArm: Hardware safety switch"]}
{"timestamp": "2026-01-07T16:26:42.926742Z", "telemetry": {"lat": 28.7530781, "lon": 77.117804, "satellites": 6, "altitude_gps_m": 233.489990234375, "groundspeed_mps": 0.010414494201540947}, "flight": {"mode": "STABILIZE", "armed": false}, "ekf": {"attitude": {"roll": 0.017790380865335464, "pitch": -0.03440294414758682, "yaw": -1.5876978635787964}, "local_position": {"x": null, "y": null, "z": null}, "status": {"flags": 135, "velocity_variance": 0.0, "pos_horiz_variance": 0.002983002457767725, "pos_vert_variance": 0.028227217495441437}}, "errors": ["PreArm: Hardware safety switch", "PreArm: Hardware safety switch"]}
{"timestamp": "2026-01-07T16:26:43.926933Z", "telemetry": {"lat": 28.7530742, "lon": 77.1178039, "satellites": 7, "altitude_gps_m": 232.9499969482422, "groundspeed_mps": 0.010266889818012714}, "flight": {"mode": "STABILIZE", "armed": false}, "ekf": {"attitude": {"roll": 0.01780221238732338, "pitch": -0.034385163336992264, "yaw": -1.5877569913864136}, "local_position": {"x": null, "y": null, "z": null}, "status": {"flags": 135, "velocity_variance": 0.0, "pos_horiz_variance": 0.002862776629626751, "pos_vert_variance": 0.0257487241178751}}, "errors": ["PreArm: Hardware safety switch", "PreArm: Hardware safety switch"]}
{"timestamp": "2026-01-07T16:26:44.927688Z", "telemetry": {"lat": 28.7530748, "lon": 77.1178006, "satellites": 7, "altitude_gps_m": 232.45999145507812, "groundspeed_mps": 0.004300199449062347}, "flight": {"mode": "STABILIZE", "armed": false}, "ekf": {"attitude": {"roll": 0.017811816185712814, "pitch": -0.03439490124583244, "yaw": -1.5876812934875488}, "local_position": {"x": null, "y": null, "z": null}, "status": {"flags": 135, "velocity_variance": 0.0, "pos_horiz_variance": 0.0025402791798114777, "pos_vert_variance": 0.07605820149183273}}, "errors": ["PreArm: Hardware safety switch", "PreArm: Hardware safety switch"]}
{"timestamp": "2026-01-07T16:26:45.931109Z", "telemetry": {"lat": 28.7530734, "lon": 77.1177976, "satellites": 7, "altitude_gps_m": 231.3199920654297, "groundspeed_mps": 0.004674331285059452}, "flight": {"mode": "STABILIZE", "armed": false}, "ekf": {"attitude": {"roll": 0.01778235286474228, "pitch": -0.03448433801531792, "yaw": -1.5877439975738525}, "local_position": {"x": null, "y": null, "z": null}, "status": {"flags": 135, "velocity_variance": 0.0, "pos_horiz_variance": 0.0018604547949507833, "pos_vert_variance": 0.005944638047367334}}, "errors": ["PreArm: Hardware safety switch", "PreArm: Hardware safety switch"]}
{"timestamp": "2026-01-07T16:26:46.932076Z", "telemetry": {"lat": 28.7530772, "lon": 77.1177928, "satellites": 7, "altitude_gps_m": 230.4099884033203, "groundspeed_mps": 0.007504420354962349}, "flight": {"mode": "STABILIZE", "armed": false}, "ekf": {"attitude": {"roll": 0.017748640850186348, "pitch": -0.03459959849715233, "yaw": -1.5877394676208496}, "local_position": {"x": null, "y": null, "z": null}, "status": {"flags": 135, "velocity_variance": 0.0, "pos_horiz_variance": 0.0017561308341100812, "pos_vert_variance": 0.03344295173883438}}, "errors": ["PreArm: Hardware safety switch", "PreArm: Hardware safety switch"]}
{"timestamp": "2026-01-07T16:26:47.933892Z", "telemetry": {"lat": 28.7530764, "lon": 77.1177936, "satellites": 7, "altitude_gps_m": 230.09999084472656, "groundspeed_mps": 0.010627510957419872}, "flight": {"mode": "STABILIZE", "armed": false}, "ekf": {"attitude": {"roll": 0.017841750755906105, "pitch": -0.03463372215628624, "yaw": -1.5876376628875732}, "local_position": {"x": null, "y": null, "z": null}, "status": {"flags": 135, "velocity_variance": 0.0, "pos_horiz_variance": 0.002055775374174118, "pos_vert_variance": 0.06929374486207962}}, "errors": ["PreArm: Hardware safety switch", "PreArm: Hardware safety switch"]}
{"timestamp": "2026-01-07T16:26:48.903375Z", "telemetry": {"lat": 28.7530728, "lon": 77.1177877, "satellites": 7, "altitude_gps_m": 230.54998779296875, "groundspeed_mps": 0.011311614885926247}, "flight": {"mode": "STABILIZE", "armed": false}, "ekf": {"attitude": {"roll": 0.017819073051214218, "pitch": -0.03446032851934433, "yaw": -1.587465763092041}, "local_position": {"x": null, "y": null, "z": null}, "status": {"flags": 135, "velocity_variance": 0.0, "pos_horiz_variance": 0.0026345138903707266, "pos_vert_variance": 0.08094269037246704}}, "errors": ["PreArm: Hardware safety switch", "PreArm: Hardware safety switch"]}
{"timestamp": "2026-01-07T16:26:49.904506Z", "telemetry": {"lat": 28.7530779, "lon": 77.1177862, "satellites": 7, "altitude_gps_m": 228.09999084472656, "groundspeed_mps": 0.01005970872938633}, "flight": {"mode": "STABILIZE", "armed": false}, "ekf": {"attitude": {"roll": 0.017834758386015892, "pitch": -0.03425052389502525, "yaw": -1.5875004529953003}, "local_position": {"x": null, "y": null, "z": null}, "status": {"flags": 135, "velocity_variance": 0.0, "pos_horiz_variance": 0.002854962134733796, "pos_vert_variance": 0.05980275571346283}}, "errors": ["PreArm: Hardware safety switch", "PreArm: Hardware safety switch", "PreArm: Hardware safety switch"]}
{"timestamp": "2026-01-07T16:26:50.939387Z", "telemetry": {"lat": 28.7530833, "lon": 77.117788, "satellites": 7, "altitude_gps_m": 226.2899932861328, "groundspeed_mps": 0.006935249548405409}, "flight": {"mode": "STABILIZE", "armed": false}, "ekf": {"attitude": {"roll": 0.017891839146614075, "pitch": -0.034144628793001175, "yaw": -1.5872985124588013}, "local_position": {"x": null, "y": null, "z": null}, "status": {"flags": 135, "velocity_variance": 0.0, "pos_horiz_variance": 0.002500345231965184, "pos_vert_variance": 0.06521089375019073}}, "errors": ["PreArm: Hardware safety switch", "PreArm: Hardware safety switch", "PreArm: Hardware safety switch"]}
