{"timestamp": "2026-01-15T12:49:21.814214Z", "telemetry": {"lat": 28.7531086, "lon": 77.1179148, "satellites": 9, "altitude_gps_m": 229.13999938964844, "groundspeed_mps": 0.3131052255630493}, "flight": {"mode": "STABILIZE", "armed": false}, "ekf": {"attitude": {"roll": 0.054345712065696716, "pitch": -0.007013659458607435, "yaw": -2.022228240966797}, "local_position": {"x": 1.736217975616455, "y": 3.784320831298828, "z": -16.810508728027344}, "status": {"flags": 33599, "velocity_variance": 0.2246875911951065, "pos_horiz_variance": 0.021342236548662186, "pos_vert_variance": 0.06633436679840088}}, "errors": []}
{"timestamp": "2026-01-15T12:49:22.880311Z", "telemetry": {"lat": 28.7531114, "lon": 77.1179102, "satellites": 9, "altitude_gps_m": 229.09999084472656, "groundspeed_mps": 0.48788896203041077}, "flight": {"mode": "STABILIZE", "armed": false}, "ekf": {"attitude": {"roll": 0.055828437209129333, "pitch": -0.007937055081129074, "yaw": -2.022202968597412}, "local_position": {"x": 2.306942939758301, "y": 3.118302345275879, "z": -16.773296356201172}, "status": {"flags": 33599, "velocity_variance": 0.08566586673259735, "pos_horiz_variance": 0.01744910143315792, "pos_vert_variance": 0.030376728624105453}}, "errors": []}
{"timestamp": "2026-01-15T12:49:23.943977Z", "telemetry": {"lat": 28.7531135, "lon": 77.1179107, "satellites": 8, "altitude_gps_m": 229.0800018310547, "groundspeed_mps": 0.5275429487228394}, "flight": {"mode": "STABILIZE", "armed": false}, "ekf": {"attitude": {"roll": 0.05583896487951279, "pitch": -0.007898630574345589, "yaw": -2.022188663482666}, "local_position": {"x": 2.611555337905884, "y": 2.7798612117767334, "z": -16.754680633544922}, "status": {"flags": 33599, "velocity_variance": 0.34473490715026855, "pos_horiz_variance": 0.010019268840551376, "pos_vert_variance": 0.03206418454647064}}, "errors": []}
{"timestamp": "2026-01-15T12:49:24.984947Z", "telemetry": {"lat": 28.753112, "lon": 77.1179114, "satellites": 8, "altitude_gps_m": 229.09999084472656, "groundspeed_mps": 0.5496333241462708}, "flight": {"mode": "STABILIZE", "armed": false}, "ekf": {"attitude": {"roll": 0.05550951138138771, "pitch": -0.008012907579541206, "yaw": -2.0221190452575684}, "local_position": {"x": 2.843925952911377, "y": 2.494837760925293, "z": -16.777027130126953}, "status": {"flags": 33599, "velocity_variance": 0.12641453742980957, "pos_horiz_variance": 0.005367400590330362, "pos_vert_variance": 0.10524486750364304}}, "errors": []}
{"timestamp": "2026-01-15T12:49:26.003782Z", "telemetry": {"lat": 28.7531108, "lon": 77.1179155, "satellites": 8, "altitude_gps_m": 229.11000061035156, "groundspeed_mps": 0.4799749255180359}, "flight": {"mode": "STABILIZE", "armed": false}, "ekf": {"attitude": {"roll": 0.05393138527870178, "pitch": -0.00788787193596363, "yaw": -2.0223073959350586}, "local_position": {"x": 2.977294445037842, "y": 2.1677074432373047, "z": -16.7883358001709}, "status": {"flags": 33599, "velocity_variance": 0.16810382902622223, "pos_horiz_variance": 0.019676165655255318, "pos_vert_variance": 0.007027863524854183}}, "errors": []}
{"timestamp": "2026-01-15T12:49:27.007488Z", "telemetry": {"lat": 28.7531049, "lon": 77.117922, "satellites": 8, "altitude_gps_m": 229.09999084472656, "groundspeed_mps": 0.3209572732448578}, "flight": {"mode": "STABILIZE", "armed": false}, "ekf": {"attitude": {"roll": 0.051293499767780304, "pitch": -0.007236310746520758, "yaw": -2.0222554206848145}, "local_position": {"x": 2.6577811241149902, "y": 2.380615234375, "z": -16.777267456054688}, "status": {"flags": 33599, "velocity_variance": 0.23260055482387543, "pos_horiz_variance": 0.030675379559397697, "pos_vert_variance": 0.017811058089137077}}, "errors": []}
{"timestamp": "2026-01-15T12:49:28.007532Z", "telemetry": {"lat": 28.7531001, "lon": 77.1179257, "satellites": 8, "altitude_gps_m": 229.1199951171875, "groundspeed_mps": 0.1828138381242752}, "flight": {"mode": "STABILIZE", "armed": false}, "ekf": {"attitude": {"roll": 0.04956276714801788, "pitch": -0.006674739066511393, "yaw": -2.0223278999328613}, "local_position": {"x": 2.331871271133423, "y": 2.686715602874756, "z": -16.79340934753418}, "status": {"flags": 33599, "velocity_variance": 0.3151858448982239, "pos_horiz_variance": 0.036043763160705566, "pos_vert_variance": 0.04478149488568306}}, "errors": []}
{"timestamp": "2026-01-15T12:49:28.980505Z", "telemetry": {"lat": 28.7530953, "lon": 77.1179276, "satellites": 8, "altitude_gps_m": 229.12998962402344, "groundspeed_mps": 0.09274337440729141}, "flight": {"mode": "STABILIZE", "armed": false}, "ekf": {"attitude": {"roll": 0.04747616872191429, "pitch": -0.005929493810981512, "yaw": -2.0223405361175537}, "local_position": {"x": 1.797409176826477, "y": 3.1449735164642334, "z": -16.807710647583008}, "status": {"flags": 33599, "velocity_variance": 0.11727937310934067, "pos_horiz_variance": 0.034420572221279144, "pos_vert_variance": 0.0393325500190258}}, "errors": []}
{"timestamp": "2026-01-15T12:49:29.981154Z", "telemetry": {"lat": 28.7530902, "lon": 77.1179292, "satellites": 8, "altitude_gps_m": 229.11000061035156, "groundspeed_mps": 0.24069663882255554}, "flight": {"mode": "STABILIZE", "armed": false}, "ekf": {"attitude": {"roll": 0.04634421318769455, "pitch": -0.0058281864039599895, "yaw": -2.0222082138061523}, "local_position": {"x": 1.042400598526001, "y": 3.4544568061828613, "z": -16.789325714111328}, "status": {"flags": 33599, "velocity_variance": 0.050892386585474014, "pos_horiz_variance": 0.02875555120408535, "pos_vert_variance": 0.02432378940284252}}, "errors": []}
{"timestamp": "2026-01-15T12:49:30.984851Z", "telemetry": {"lat": 28.7530856, "lon": 77.1179348, "satellites": 8, "altitude_gps_m": 229.12998962402344, "groundspeed_mps": 0.3424447774887085}, "flight": {"mode": "STABILIZE", "armed": false}, "ekf": {"attitude": {"roll": 0.04546245187520981, "pitch": -0.005529080051928759, "yaw": -2.022177219390869}, "local_position": {"x": 0.6202839016914368, "y": 3.7208826541900635, "z": -16.804920196533203}, "status": {"flags": 33599, "velocity_variance": 0.08738246560096741, "pos_horiz_variance": 0.026226554065942764, "pos_vert_variance": 0.04230915755033493}}, "errors": []}
{"timestamp": "2026-01-15T12:49:32.011517Z", "telemetry": {"lat": 28.7530812, "lon": 77.1179471, "satellites": 8, "altitude_gps_m": 229.08999633789062, "groundspeed_mps": 0.5328684449195862}, "flight": {"mode": "STABILIZE", "armed": false}, "ekf": {"attitude": {"roll": 0.04354303702712059, "pitch": -0.003854454029351473, "yaw": -2.022125244140625}, "local_position": {"x": -0.030156686902046204, "y": 4.423277378082275, "z": -16.768268585205078}, "status": {"flags": 33599, "velocity_variance": 0.19519466161727905, "pos_horiz_variance": 0.03880216181278229, "pos_vert_variance": 0.023755265399813652}}, "errors": []}
{"timestamp": "2026-01-15T12:49:33.011270Z", "telemetry": {"lat": 28.7530819, "lon": 77.1179514, "satellites": 8, "altitude_gps_m": 229.0800018310547, "groundspeed_mps": 0.6134678721427917}, "flight": {"mode": "STABILIZE", "armed": false}, "ekf": {"attitude": {"roll": 0.04399542883038521, "pitch": -0.0032073655165731907, "yaw": -2.021904230117798}, "local_position": {"x": -0.5621111392974854, "y": 5.28015661239624, "z": -16.752580642700195}, "status": {"flags": 33599, "velocity_variance": 0.3242788016796112, "pos_horiz_variance": 0.028386205434799194, "pos_vert_variance": 0.0055314963683485985}}, "errors": []}
{"timestamp": "2026-01-15T12:49:33.986673Z", "telemetry": {"lat": 28.7530852, "lon": 77.1179531, "satellites": 9, "altitude_gps_m": 229.12998962402344, "groundspeed_mps": 0.6115020513534546}, "flight": {"mode": "STABILIZE", "armed": false}, "ekf": {"attitude": {"roll": 0.04517272487282753, "pitch": -0.0024174991995096207, "yaw": -2.0217018127441406}, "local_position": {"x": -0.6596106290817261, "y": 5.85692834854126, "z": -16.80392074584961}, "status": {"flags": 33599, "velocity_variance": 0.36624088883399963, "pos_horiz_variance": 0.018128573894500732, "pos_vert_variance": 0.04664310812950134}}, "errors": []}
{"timestamp": "2026-01-15T12:49:34.987274Z", "telemetry": {"lat": 28.753086, "lon": 77.1179502, "satellites": 9, "altitude_gps_m": 229.1999969482422, "groundspeed_mps": 0.517049252986908}, "flight": {"mode": "STABILIZE", "armed": false}, "ekf": {"attitude": {"roll": 0.046649590134620667, "pitch": -0.002404209692031145, "yaw": -2.0217690467834473}, "local_position": {"x": -0.5334776639938354, "y": 6.078620433807373, "z": -16.876405715942383}, "status": {"flags": 33599, "velocity_variance": 0.12134888768196106, "pos_horiz_variance": 0.00782136619091034, "pos_vert_variance": 0.01557182613760233}}, "errors": []}
{"timestamp": "2026-01-15T12:49:35.991178Z", "telemetry": {"lat": 28.7530852, "lon": 77.1179535, "satellites": 9, "altitude_gps_m": 229.19000244140625, "groundspeed_mps": 0.5210859775543213}, "flight": {"mode": "STABILIZE", "armed": false}, "ekf": {"attitude": {"roll": 0.047064799815416336, "pitch": -0.0023081181570887566, "yaw": -2.021636962890625}, "local_position": {"x": -0.675977349281311, "y": 6.444745063781738, "z": -16.866052627563477}, "status": {"flags": 33599, "velocity_variance": 0.06274387985467911, "pos_horiz_variance": 0.007370736449956894, "pos_vert_variance": 0.01271570660173893}}, "errors": []}
{"timestamp": "2026-01-15T12:49:36.994940Z", "telemetry": {"lat": 28.7530862, "lon": 77.1179469, "satellites": 9, "altitude_gps_m": 229.22000122070312, "groundspeed_mps": 0.39900171756744385}, "flight": {"mode": "STABILIZE", "armed": false}, "ekf": {"attitude": {"roll": 0.049128975719213486, "pitch": -0.0033898516558110714, "yaw": -2.021561622619629}, "local_position": {"x": -0.6449993252754211, "y": 6.531813144683838, "z": -16.883525848388672}, "status": {"flags": 33599, "velocity_variance": 0.1476745456457138, "pos_horiz_variance": 0.01009054109454155, "pos_vert_variance": 0.0687229111790657}}, "errors": []}
{"timestamp": "2026-01-15T12:49:37.989916Z", "telemetry": {"lat": 28.7530869, "lon": 77.1179416, "satellites": 9, "altitude_gps_m": 229.25, "groundspeed_mps": 0.3181353211402893}, "flight": {"mode": "STABILIZE", "armed": false}, "ekf": {"attitude": {"roll": 0.0501103401184082, "pitch": -0.004109641071408987, "yaw": -2.0214881896972656}, "local_position": {"x": -0.586113691329956, "y": 6.382123947143555, "z": -16.921737670898438}, "status": {"flags": 33599, "velocity_variance": 0.1431652158498764, "pos_horiz_variance": 0.01878369227051735, "pos_vert_variance": 0.010762571357190609}}, "errors": []}
{"timestamp": "2026-01-15T12:49:38.993195Z", "telemetry": {"lat": 28.7530857, "lon": 77.1179418, "satellites": 9, "altitude_gps_m": 229.1599884033203, "groundspeed_mps": 0.25063711404800415}, "flight": {"mode": "STABILIZE", "armed": false}, "ekf": {"attitude": {"roll": 0.050628453493118286, "pitch": -0.004788768012076616, "yaw": -2.021390914916992}, "local_position": {"x": -0.6855360865592957, "y": 6.240421295166016, "z": -16.838119506835938}, "status": {"flags": 33599, "velocity_variance": 0.034146998077631, "pos_horiz_variance": 0.01670687459409237, "pos_vert_variance": 0.08488737046718597}}, "errors": []}
{"timestamp": "2026-01-15T12:49:39.991114Z", "telemetry": {"lat": 28.7530861, "lon": 77.1179405, "satellites": 9, "altitude_gps_m": 229.1199951171875, "groundspeed_mps": 0.16903457045555115}, "flight": {"mode": "STABILIZE", "armed": false}, "ekf": {"attitude": {"roll": 0.051783572882413864, "pitch": -0.005172442179173231, "yaw": -2.0213537216186523}, "local_position": {"x": -0.67462557554245, "y": 6.130263328552246, "z": -16.806804656982422}, "status": {"flags": 33599, "velocity_variance": 0.0912366658449173, "pos_horiz_variance": 0.01710679568350315, "pos_vert_variance": 0.00819425005465746}}, "errors": []}
{"timestamp": "2026-01-15T12:49:41.018769Z", "telemetry": {"lat": 28.7530853, "lon": 77.1179437, "satellites": 9, "altitude_gps_m": 229.1199951171875, "groundspeed_mps": 0.17526985704898834}, "flight": {"mode": "STABILIZE", "armed": false}, "ekf": {"attitude": {"roll": 0.051753684878349304, "pitch": -0.005038065370172262, "yaw": -2.0213804244995117}, "local_position": {"x": -0.7233169078826904, "y": 6.253424644470215, "z": -16.794275283813477}, "status": {"flags": 33599, "velocity_variance": 0.07577474415302277, "pos_horiz_variance": 0.013588080182671547, "pos_vert_variance": 0.08500044047832489}}, "errors": []}
{"timestamp": "2026-01-15T12:49:41.994279Z", "telemetry": {"lat": 28.7530877, "lon": 77.117939, "satellites": 9, "altitude_gps_m": 229.11000061035156, "groundspeed_mps": 0.057387158274650574}, "flight": {"mode": "STABILIZE", "armed": false}, "ekf": {"attitude": {"roll": 0.05338791385293007, "pitch": -0.005990545731037855, "yaw": -2.021423816680908}, "local_position": {"x": -0.6393141746520996, "y": 5.9707441329956055, "z": -16.786195755004883}, "status": {"flags": 33599, "velocity_variance": 0.25981447100639343, "pos_horiz_variance": 0.019015099853277206, "pos_vert_variance": 0.012267657555639744}}, "errors": []}
{"timestamp": "2026-01-15T12:49:42.992909Z", "telemetry": {"lat": 28.753089, "lon": 77.1179347, "satellites": 9, "altitude_gps_m": 229.12998962402344, "groundspeed_mps": 0.09061367064714432}, "flight": {"mode": "STABILIZE", "armed": false}, "ekf": {"attitude": {"roll": 0.054068949073553085, "pitch": -0.007015446666628122, "yaw": -2.021475315093994}, "local_position": {"x": -0.36931002140045166, "y": 5.572275638580322, "z": -16.80139923095703}, "status": {"flags": 33599, "velocity_variance": 0.19888074696063995, "pos_horiz_variance": 0.01896623522043228, "pos_vert_variance": 0.035555195063352585}}, "errors": []}
{"timestamp": "2026-01-15T12:49:43.995432Z", "telemetry": {"lat": 28.7530874, "lon": 77.1179304, "satellites": 9, "altitude_gps_m": 229.14999389648438, "groundspeed_mps": 0.17079973220825195}, "flight": {"mode": "STABILIZE", "armed": false}, "ekf": {"attitude": {"roll": 0.05433115363121033, "pitch": -0.007830068469047546, "yaw": -2.021550178527832}, "local_position": {"x": -0.46783164143562317, "y": 5.176011085510254, "z": -16.823055267333984}, "status": {"flags": 33599, "velocity_variance": 0.07039178907871246, "pos_horiz_variance": 0.019788123667240143, "pos_vert_variance": 0.040565572679042816}}, "errors": []}
{"timestamp": "2026-01-15T12:49:44.997732Z", "telemetry": {"lat": 28.7530862, "lon": 77.1179335, "satellites": 9, "altitude_gps_m": 229.13999938964844, "groundspeed_mps": 0.21246694028377533}, "flight": {"mode": "STABILIZE", "armed": false}, "ekf": {"attitude": {"roll": 0.054343052208423615, "pitch": -0.007723937276750803, "yaw": -2.0216240882873535}, "local_position": {"x": -0.4279313385486603, "y": 4.928808689117432, "z": -16.813718795776367}, "status": {"flags": 33599, "velocity_variance": 0.05645238608121872, "pos_horiz_variance": 0.007220418192446232, "pos_vert_variance": 0.014088657684624195}}, "errors": []}
{"timestamp": "2026-01-15T12:49:45.999463Z", "telemetry": {"lat": 28.7530853, "lon": 77.1179339, "satellites": 9, "altitude_gps_m": 229.08999633789062, "groundspeed_mps": 0.2231569141149521}, "flight": {"mode": "STABILIZE", "armed": false}, "ekf": {"attitude": {"roll": 0.05423501506447792, "pitch": -0.0073257978074252605, "yaw": -2.0217132568359375}, "local_position": {"x": -0.450340211391449, "y": 4.790915012359619, "z": -16.799222946166992}, "status": {"flags": 33599, "velocity_variance": 0.1069471687078476, "pos_horiz_variance": 0.003035831032320857, "pos_vert_variance": 0.05743866786360741}}, "errors": []}
{"timestamp": "2026-01-15T12:49:47.002253Z", "telemetry": {"lat": 28.7530864, "lon": 77.1179299, "satellites": 9, "altitude_gps_m": 229.0800018310547, "groundspeed_mps": 0.2640659213066101}, "flight": {"mode": "STABILIZE", "armed": false}, "ekf": {"attitude": {"roll": 0.05458850786089897, "pitch": -0.00731410039588809, "yaw": -2.0216786861419678}, "local_position": {"x": -0.3301815688610077, "y": 4.591169357299805, "z": -16.7573184967041}, "status": {"flags": 33599, "velocity_variance": 0.041058916598558426, "pos_horiz_variance": 0.00704649044200778, "pos_vert_variance": 0.011359445750713348}}, "errors": []}
{"timestamp": "2026-01-15T12:49:47.997697Z", "telemetry": {"lat": 28.7530857, "lon": 77.1179271, "satellites": 10, "altitude_gps_m": 229.08999633789062, "groundspeed_mps": 0.28002089262008667}, "flight": {"mode": "STABILIZE", "armed": false}, "ekf": {"attitude": {"roll": 0.05381564795970917, "pitch": -0.007303513120859861, "yaw": -2.0217065811157227}, "local_position": {"x": -0.2910817563533783, "y": 4.285685062408447, "z": -16.774049758911133}, "status": {"flags": 33599, "velocity_variance": 0.30584245920181274, "pos_horiz_variance": 0.006437754724174738, "pos_vert_variance": 0.06596938520669937}}, "errors": []}
{"timestamp": "2026-01-15T12:49:49.004561Z", "telemetry": {"lat": 28.7530802, "lon": 77.1179309, "satellites": 10, "altitude_gps_m": 229.11000061035156, "groundspeed_mps": 0.20678941905498505}, "flight": {"mode": "STABILIZE", "armed": false}, "ekf": {"attitude": {"roll": 0.051694486290216446, "pitch": -0.0068548559211194515, "yaw": -2.021702766418457}, "local_position": {"x": -0.608024001121521, "y": 4.262017250061035, "z": -16.779563903808594}, "status": {"flags": 33599, "velocity_variance": 0.30675309896469116, "pos_horiz_variance": 0.010769289918243885, "pos_vert_variance": 0.016241567209362984}}, "errors": []}
{"timestamp": "2026-01-15T12:49:49.974672Z", "telemetry": {"lat": 28.7530758, "lon": 77.1179327, "satellites": 9, "altitude_gps_m": 229.12998962402344, "groundspeed_mps": 0.2060447484254837}, "flight": {"mode": "STABILIZE", "armed": false}, "ekf": {"attitude": {"roll": 0.0507681742310524, "pitch": -0.0068045309744775295, "yaw": -2.02156662940979}, "local_position": {"x": -1.1060917377471924, "y": 4.350900173187256, "z": -16.80311393737793}, "status": {"flags": 33599, "velocity_variance": 0.08467605710029602, "pos_horiz_variance": 0.012424895539879799, "pos_vert_variance": 0.033994656056165695}}, "errors": []}
{"timestamp": "2026-01-15T12:49:50.998517Z", "telemetry": {"lat": 28.7530745, "lon": 77.1179339, "satellites": 9, "altitude_gps_m": 229.19000244140625, "groundspeed_mps": 0.22909070551395416}, "flight": {"mode": "STABILIZE", "armed": false}, "ekf": {"attitude": {"roll": 0.050552982836961746, "pitch": -0.00679016811773181, "yaw": -2.021785020828247}, "local_position": {"x": -1.339514136314392, "y": 4.280759334564209, "z": -16.840524673461914}, "status": {"flags": 33599, "velocity_variance": 0.0843920037150383, "pos_horiz_variance": 0.014027011580765247, "pos_vert_variance": 0.03917388990521431}}, "errors": ["PreArm: Hardware safety switch", "PreArm: Compasses inconsistent"]}
{"timestamp": "2026-01-15T12:49:51.994532Z", "telemetry": {"lat": 28.7530745, "lon": 77.1179327, "satellites": 9, "altitude_gps_m": 229.1999969482422, "groundspeed_mps": 0.19097010791301727}, "flight": {"mode": "STABILIZE", "armed": false}, "ekf": {"attitude": {"roll": 0.0508195161819458, "pitch": -0.005942458752542734, "yaw": -2.0219063758850098}, "local_position": {"x": -1.4709362983703613, "y": 4.183080196380615, "z": -16.87837028503418}, "status": {"flags": 33599, "velocity_variance": 0.15054570138454437, "pos_horiz_variance": 0.0122535927221179, "pos_vert_variance": 0.05283946543931961}}, "errors": ["PreArm: Hardware safety switch", "PreArm: Compasses inconsistent"]}
{"timestamp": "2026-01-15T12:49:52.998970Z", "telemetry": {"lat": 28.7530713, "lon": 77.1179384, "satellites": 9, "altitude_gps_m": 229.1599884033203, "groundspeed_mps": 0.17631255090236664}, "flight": {"mode": "STABILIZE", "armed": false}, "ekf": {"attitude": {"roll": 0.04933066666126251, "pitch": -0.0052024140022695065, "yaw": -2.021784543991089}, "local_position": {"x": -1.71575129032135, "y": 4.452727317810059, "z": -16.83563995361328}, "status": {"flags": 33599, "velocity_variance": 0.3097805678844452, "pos_horiz_variance": 0.020600613206624985, "pos_vert_variance": 0.035055696964263916}}, "errors": ["PreArm: Hardware safety switch", "PreArm: Compasses inconsistent"]}
{"timestamp": "2026-01-15T12:49:53.998250Z", "telemetry": {"lat": 28.7530705, "lon": 77.1179453, "satellites": 9, "altitude_gps_m": 229.1999969482422, "groundspeed_mps": 0.1971248835325241}, "flight": {"mode": "STABILIZE", "armed": false}, "ekf": {"attitude": {"roll": 0.048871010541915894, "pitch": -0.003504004795104265, "yaw": -2.0219316482543945}, "local_position": {"x": -1.9705218076705933, "y": 4.9081196784973145, "z": -16.879432678222656}, "status": {"flags": 33599, "velocity_variance": 0.2088472545146942, "pos_horiz_variance": 0.02550029195845127, "pos_vert_variance": 0.03232643008232117}}, "errors": ["PreArm: Hardware safety switch", "PreArm: Compasses inconsistent"]}
{"timestamp": "2026-01-15T12:49:54.998219Z", "telemetry": {"lat": 28.7530701, "lon": 77.1179459, "satellites": 9, "altitude_gps_m": 229.27999877929688, "groundspeed_mps": 0.23325587809085846}, "flight": {"mode": "STABILIZE", "armed": false}, "ekf": {"attitude": {"roll": 0.04875115305185318, "pitch": -0.0024975151754915714, "yaw": -2.021761178970337}, "local_position": {"x": -2.065274477005005, "y": 5.330059051513672, "z": -16.95465087890625}, "status": {"flags": 33599, "velocity_variance": 0.059890784323215485, "pos_horiz_variance": 0.017925474792718887, "pos_vert_variance": 0.009898780845105648}}, "errors": ["PreArm: Hardware safety switch", "PreArm: Compasses inconsistent"]}
{"timestamp": "2026-01-15T12:49:55.998146Z", "telemetry": {"lat": 28.7530714, "lon": 77.1179444, "satellites": 9, "altitude_gps_m": 229.239990234375, "groundspeed_mps": 0.20597226917743683}, "flight": {"mode": "STABILIZE", "armed": false}, "ekf": {"attitude": {"roll": 0.04999014362692833, "pitch": -0.002615157049149275, "yaw": -2.0218076705932617}, "local_position": {"x": -2.0961084365844727, "y": 5.539195537567139, "z": -16.914552688598633}, "status": {"flags": 33599, "velocity_variance": 0.25852397084236145, "pos_horiz_variance": 0.008347967639565468, "pos_vert_variance": 0.00968076940625906}}, "errors": ["PreArm: Hardware safety switch", "PreArm: Compasses inconsistent"]}
{"timestamp": "2026-01-15T12:49:56.968460Z", "telemetry": {"lat": 28.7530669, "lon": 77.1179577, "satellites": 9, "altitude_gps_m": 229.22000122070312, "groundspeed_mps": 0.3104749619960785}, "flight": {"mode": "STABILIZE", "armed": false}, "ekf": {"attitude": {"roll": 0.048227425664663315, "pitch": -0.0015351064503192902, "yaw": -2.021695375442505}, "local_position": {"x": -2.311856985092163, "y": 6.027775287628174, "z": -16.896390914916992}, "status": {"flags": 33599, "velocity_variance": 0.2550361156463623, "pos_horiz_variance": 0.029268508777022362, "pos_vert_variance": 0.03373793140053749}}, "errors": ["PreArm: Hardware safety switch", "PreArm: Compasses inconsistent"]}
{"timestamp": "2026-01-15T12:49:57.977234Z", "telemetry": {"lat": 28.7530673, "lon": 77.117959, "satellites": 9, "altitude_gps_m": 229.26998901367188, "groundspeed_mps": 0.3828808069229126}, "flight": {"mode": "STABILIZE", "armed": false}, "ekf": {"attitude": {"roll": 0.04850821942090988, "pitch": -0.001075119711458683, "yaw": -2.021559953689575}, "local_position": {"x": -2.510004758834839, "y": 6.552525043487549, "z": -16.94133186340332}, "status": {"flags": 33599, "velocity_variance": 0.28697630763053894, "pos_horiz_variance": 0.01885206624865532, "pos_vert_variance": 0.028699452057480812}}, "errors": ["PreArm: Hardware safety switch", "PreArm: Compasses inconsistent"]}
{"timestamp": "2026-01-15T12:49:58.979103Z", "telemetry": {"lat": 28.7530691, "lon": 77.1179543, "satellites": 9, "altitude_gps_m": 229.29998779296875, "groundspeed_mps": 0.3119231164455414}, "flight": {"mode": "STABILIZE", "armed": false}, "ekf": {"attitude": {"roll": 0.050321292132139206, "pitch": -0.0016633658669888973, "yaw": -2.021528720855713}, "local_position": {"x": -2.3489601612091064, "y": 6.69227409362793, "z": -16.974390029907227}, "status": {"flags": 33599, "velocity_variance": 0.09263469278812408, "pos_horiz_variance": 0.0043541304767131805, "pos_vert_variance": 0.052040621638298035}}, "errors": ["PreArm: Hardware safety switch", "PreArm: Compasses inconsistent"]}
{"timestamp": "2026-01-15T12:50:00.001769Z", "telemetry": {"lat": 28.7530702, "lon": 77.1179508, "satellites": 9, "altitude_gps_m": 229.30999755859375, "groundspeed_mps": 0.23168900609016418}, "flight": {"mode": "STABILIZE", "armed": false}, "ekf": {"attitude": {"roll": 0.05183223634958267, "pitch": -0.0025252164341509342, "yaw": -2.021280288696289}, "local_position": {"x": -2.1530556678771973, "y": 6.6543378829956055, "z": -16.988656997680664}, "status": {"flags": 33599, "velocity_variance": 0.05576048418879509, "pos_horiz_variance": 0.004867682233452797, "pos_vert_variance": 0.03846098482608795}}, "errors": ["PreArm: Hardware safety switch", "PreArm: Compasses inconsistent"]}
{"timestamp": "2026-01-15T12:50:01.006077Z", "telemetry": {"lat": 28.7530679, "lon": 77.1179473, "satellites": 9, "altitude_gps_m": 229.30999755859375, "groundspeed_mps": 0.13853445649147034}, "flight": {"mode": "STABILIZE", "armed": false}, "ekf": {"attitude": {"roll": 0.05189882963895798, "pitch": -0.004084967542439699, "yaw": -2.0210556983947754}, "local_position": {"x": -2.1839795112609863, "y": 6.480259418487549, "z": -16.986309051513672}, "status": {"flags": 33599, "velocity_variance": 0.13611473143100739, "pos_horiz_variance": 0.012003551237285137, "pos_vert_variance": 0.03821547329425812}}, "errors": ["PreArm: Hardware safety switch", "PreArm: Compasses inconsistent"]}
{"timestamp": "2026-01-15T12:50:02.005655Z", "telemetry": {"lat": 28.7530699, "lon": 77.1179414, "satellites": 9, "altitude_gps_m": 229.2899932861328, "groundspeed_mps": 0.07670972496271133}, "flight": {"mode": "STABILIZE", "armed": false}, "ekf": {"attitude": {"roll": 0.053644806146621704, "pitch": -0.0055795046500861645, "yaw": -2.0211195945739746}, "local_position": {"x": -2.0766916275024414, "y": 6.1300740242004395, "z": -16.965938568115234}, "status": {"flags": 33599, "velocity_variance": 0.10927833616733551, "pos_horiz_variance": 0.018075566738843918, "pos_vert_variance": 0.07055359333753586}}, "errors": ["PreArm: Hardware safety switch", "PreArm: Compasses inconsistent"]}
{"timestamp": "2026-01-15T12:50:03.005652Z", "telemetry": {"lat": 28.7530661, "lon": 77.1179459, "satellites": 9, "altitude_gps_m": 229.17999267578125, "groundspeed_mps": 0.04570748656988144}, "flight": {"mode": "STABILIZE", "armed": false}, "ekf": {"attitude": {"roll": 0.052349843084812164, "pitch": -0.00583143113180995, "yaw": -2.021199941635132}, "local_position": {"x": -2.2173819541931152, "y": 6.002615451812744, "z": -16.851762771606445}, "status": {"flags": 33599, "velocity_variance": 0.06952549517154694, "pos_horiz_variance": 0.009973766282200813, "pos_vert_variance": 0.025738537311553955}}, "errors": ["PreArm: Hardware safety switch", "PreArm: Compasses inconsistent"]}
{"timestamp": "2026-01-15T12:50:03.982174Z", "telemetry": {"lat": 28.7530645, "lon": 77.1179464, "satellites": 9, "altitude_gps_m": 229.1199951171875, "groundspeed_mps": 0.03706197068095207}, "flight": {"mode": "STABILIZE", "armed": false}, "ekf": {"attitude": {"roll": 0.05199442431330681, "pitch": -0.006128798704594374, "yaw": -2.0211713314056396}, "local_position": {"x": -2.3781914710998535, "y": 5.98521089553833, "z": -16.790069580078125}, "status": {"flags": 33599, "velocity_variance": 0.04666187986731529, "pos_horiz_variance": 0.010664492845535278, "pos_vert_variance": 0.024480456486344337}}, "errors": ["PreArm: Hardware safety switch", "PreArm: Compasses inconsistent"]}
{"timestamp": "2026-01-15T12:50:04.979396Z", "telemetry": {"lat": 28.7530628, "lon": 77.1179443, "satellites": 9, "altitude_gps_m": 229.13999938964844, "groundspeed_mps": 0.06880204379558563}, "flight": {"mode": "STABILIZE", "armed": false}, "ekf": {"attitude": {"roll": 0.05164436995983124, "pitch": -0.006521644536405802, "yaw": -2.0211238861083984}, "local_position": {"x": -2.617048740386963, "y": 5.9386210441589355, "z": -16.818531036376953}, "status": {"flags": 33599, "velocity_variance": 0.13574588298797607, "pos_horiz_variance": 0.012025276198983192, "pos_vert_variance": 0.03273169323801994}}, "errors": ["PreArm: Hardware safety switch", "PreArm: Compasses inconsistent"]}
{"timestamp": "2026-01-15T12:50:05.977636Z", "telemetry": {"lat": 28.7530636, "lon": 77.117943, "satellites": 9, "altitude_gps_m": 229.239990234375, "groundspeed_mps": 0.12877421081066132}, "flight": {"mode": "STABILIZE", "armed": false}, "ekf": {"attitude": {"roll": 0.05238374322652817, "pitch": -0.007267595734447241, "yaw": -2.021071672439575}, "local_position": {"x": -2.6050422191619873, "y": 5.688025951385498, "z": -16.917272567749023}, "status": {"flags": 33599, "velocity_variance": 0.11798635870218277, "pos_horiz_variance": 0.008540967479348183, "pos_vert_variance": 0.12159696966409683}}, "errors": ["PreArm: Hardware safety switch", "PreArm: Compasses inconsistent"]}
{"timestamp": "2026-01-15T12:50:06.983996Z", "telemetry": {"lat": 28.7530636, "lon": 77.117943, "satellites": 9, "altitude_gps_m": 229.239990234375, "groundspeed_mps": 0.12877421081066132}, "flight": {"mode": "STABILIZE", "armed": false}, "ekf": {"attitude": {"roll": 0.05238374322652817, "pitch": -0.007267595734447241, "yaw": -2.021071672439575}, "local_position": {"x": -2.6050422191619873, "y": 5.688025951385498, "z": -16.917272567749023}, "status": {"flags": 33599, "velocity_variance": 0.11798635870218277, "pos_horiz_variance": 0.008540967479348183, "pos_vert_variance": 0.12159696966409683}}, "errors": ["PreArm: Hardware safety switch", "PreArm: Compasses inconsistent"]}
{"timestamp": "2026-01-15T12:50:07.986820Z", "telemetry": {"lat": 28.7530636, "lon": 77.117943, "satellites": 9, "altitude_gps_m": 229.239990234375, "groundspeed_mps": 0.12877421081066132}, "flight": {"mode": "STABILIZE", "armed": false}, "ekf": {"attitude": {"roll": 0.05238374322652817, "pitch": -0.007267595734447241, "yaw": -2.021071672439575}, "local_position": {"x": -2.6050422191619873, "y": 5.688025951385498, "z": -16.917272567749023}, "status": {"flags": 33599, "velocity_variance": 0.11798635870218277, "pos_horiz_variance": 0.008540967479348183, "pos_vert_variance": 0.12159696966409683}}, "errors": ["PreArm: Hardware safety switch", "PreArm: Compasses inconsistent"]}
