{"timestamp": "2026-01-15T13:02:52.583584Z", "telemetry": {"lat": 28.7530803, "lon": 77.1179306, "satellites": 8, "altitude_gps_m": 206.6699981689453, "groundspeed_mps": 0.049054380506277084}, "flight": {"mode": null, "armed": null}, "ekf": {"attitude": {"roll": 0.04855047166347504, "pitch": -0.003290036227554083, "yaw": -1.9153600931167603}, "local_position": {"x": null, "y": null, "z": null}, "status": {"flags": null, "velocity_variance": null, "pos_horiz_variance": null, "pos_vert_variance": null}}, "errors": []}
{"timestamp": "2026-01-15T13:02:53.538979Z", "telemetry": {"lat": 28.7530825, "lon": 77.1179329, "satellites": 8, "altitude_gps_m": 206.72999572753906, "groundspeed_mps": 0.05660432204604149}, "flight": {"mode": "STABILIZE", "armed": false}, "ekf": {"attitude": {"roll": 0.048918090760707855, "pitch": -0.002892021555453539, "yaw": -1.915291666984558}, "local_position": {"x": -0.8673096299171448, "y": 4.195391654968262, "z": 5.597696304321289}, "status": {"flags": 33599, "velocity_variance": 0.06993527710437775, "pos_horiz_variance": 0.011302394792437553, "pos_vert_variance": 0.02355520986020565}}, "errors": ["PreArm: Hardware safety switch"]}
{"timestamp": "2026-01-15T13:02:54.498133Z", "telemetry": {"lat": 28.7530837, "lon": 77.1179348, "satellites": 8, "altitude_gps_m": 206.739990234375, "groundspeed_mps": 0.08327998965978622}, "flight": {"mode": "STABILIZE", "armed": false}, "ekf": {"attitude": {"roll": 0.048778075724840164, "pitch": -0.0027786544524133205, "yaw": -1.9153345823287964}, "local_position": {"x": -0.8432225584983826, "y": 4.326866149902344, "z": 5.586612701416016}, "status": {"flags": 33599, "velocity_variance": 0.049963172525167465, "pos_horiz_variance": 0.013014883734285831, "pos_vert_variance": 0.01613544672727585}}, "errors": ["PreArm: Hardware safety switch"]}
{"timestamp": "2026-01-15T13:02:55.482093Z", "telemetry": {"lat": 28.7530853, "lon": 77.1179368, "satellites": 8, "altitude_gps_m": 206.6999969482422, "groundspeed_mps": 0.11776496469974518}, "flight": {"mode": "STABILIZE", "armed": false}, "ekf": {"attitude": {"roll": 0.0487617589533329, "pitch": -0.0023846114054322243, "yaw": -1.9154088497161865}, "local_position": {"x": -0.8026447892189026, "y": 4.490424633026123, "z": 5.6252760887146}, "status": {"flags": 33599, "velocity_variance": 0.08466900140047073, "pos_horiz_variance": 0.015572032891213894, "pos_vert_variance": 0.04630029574036598}}, "errors": ["PreArm: Hardware safety switch"]}
{"timestamp": "2026-01-15T13:02:56.502799Z", "telemetry": {"lat": 28.7530861, "lon": 77.1179395, "satellites": 8, "altitude_gps_m": 206.69000244140625, "groundspeed_mps": 0.13904762268066406}, "flight": {"mode": "STABILIZE", "armed": false}, "ekf": {"attitude": {"roll": 0.04870211333036423, "pitch": -0.002798162866383791, "yaw": -1.9152230024337769}, "local_position": {"x": -0.7482284903526306, "y": 4.657111167907715, "z": 5.639358043670654}, "status": {"flags": 33599, "velocity_variance": 0.16274355351924896, "pos_horiz_variance": 0.01741837151348591, "pos_vert_variance": 0.03862883523106575}}, "errors": ["PreArm: Hardware safety switch"]}
{"timestamp": "2026-01-15T13:02:57.495690Z", "telemetry": {"lat": 28.7530852, "lon": 77.1179398, "satellites": 9, "altitude_gps_m": 206.62998962402344, "groundspeed_mps": 0.18667788803577423}, "flight": {"mode": "STABILIZE", "armed": false}, "ekf": {"attitude": {"roll": 0.04911571741104126, "pitch": -0.002086200751364231, "yaw": -1.9151170253753662}, "local_position": {"x": -0.731421947479248, "y": 4.758535385131836, "z": 5.654131889343262}, "status": {"flags": 33599, "velocity_variance": 0.07961643487215042, "pos_horiz_variance": 0.014713470824062824, "pos_vert_variance": 0.002599378814920783}}, "errors": ["PreArm: Hardware safety switch"]}
{"timestamp": "2026-01-15T13:02:58.473416Z", "telemetry": {"lat": 28.7530824, "lon": 77.1179418, "satellites": 9, "altitude_gps_m": 206.54998779296875, "groundspeed_mps": 0.2359170913696289}, "flight": {"mode": "STABILIZE", "armed": false}, "ekf": {"attitude": {"roll": 0.048696525394916534, "pitch": -0.00202720845118165, "yaw": -1.915047526359558}, "local_position": {"x": -0.5569519400596619, "y": 5.316341400146484, "z": 5.771881580352783}, "status": {"flags": 33599, "velocity_variance": 0.12270989269018173, "pos_horiz_variance": 0.008444607257843018, "pos_vert_variance": 0.08260967582464218}}, "errors": ["PreArm: Hardware safety switch"]}
{"timestamp": "2026-01-15T13:02:59.499569Z", "telemetry": {"lat": 28.7530801, "lon": 77.1179408, "satellites": 9, "altitude_gps_m": 206.58999633789062, "groundspeed_mps": 0.21145206689834595}, "flight": {"mode": "STABILIZE", "armed": false}, "ekf": {"attitude": {"roll": 0.04865538701415062, "pitch": -0.002736864145845175, "yaw": -1.9149097204208374}, "local_position": {"x": -0.6657171249389648, "y": 5.3874077796936035, "z": 5.737176895141602}, "status": {"flags": 33599, "velocity_variance": 0.08963492512702942, "pos_horiz_variance": 0.008694231510162354, "pos_vert_variance": 0.0710432231426239}}, "errors": ["PreArm: Hardware safety switch"]}
{"timestamp": "2026-01-15T13:03:00.499692Z", "telemetry": {"lat": 28.7530791, "lon": 77.1179417, "satellites": 9, "altitude_gps_m": 206.63999938964844, "groundspeed_mps": 0.20736917853355408}, "flight": {"mode": "STABILIZE", "armed": false}, "ekf": {"attitude": {"roll": 0.048912275582551956, "pitch": -0.002927506808191538, "yaw": -1.9148930311203003}, "local_position": {"x": -0.6367842555046082, "y": 5.477555274963379, "z": 5.680780410766602}, "status": {"flags": 33599, "velocity_variance": 0.12062648683786392, "pos_horiz_variance": 0.011994220316410065, "pos_vert_variance": 0.008437723852694035}}, "errors": ["PreArm: Hardware safety switch"]}
{"timestamp": "2026-01-15T13:03:01.489524Z", "telemetry": {"lat": 28.7530753, "lon": 77.1179421, "satellites": 9, "altitude_gps_m": 206.6599884033203, "groundspeed_mps": 0.19983124732971191}, "flight": {"mode": "STABILIZE", "armed": false}, "ekf": {"attitude": {"roll": 0.04822787642478943, "pitch": -0.0035943598486483097, "yaw": -1.9149330854415894}, "local_position": {"x": -0.9307944774627686, "y": 5.568057537078857, "z": 5.663447856903076}, "status": {"flags": 33599, "velocity_variance": 0.11521506309509277, "pos_horiz_variance": 0.015360415913164616, "pos_vert_variance": 0.06340651214122772}}, "errors": ["PreArm: Hardware safety switch"]}
{"timestamp": "2026-01-15T13:03:02.490595Z", "telemetry": {"lat": 28.7530736, "lon": 77.1179408, "satellites": 9, "altitude_gps_m": 206.6999969482422, "groundspeed_mps": 0.14924831688404083}, "flight": {"mode": "STABILIZE", "armed": false}, "ekf": {"attitude": {"roll": 0.04854718595743179, "pitch": -0.004597655031830072, "yaw": -1.9149054288864136}, "local_position": {"x": -1.0735465288162231, "y": 5.532808303833008, "z": 5.621819019317627}, "status": {"flags": 33599, "velocity_variance": 0.08532095700502396, "pos_horiz_variance": 0.016200941056013107, "pos_vert_variance": 0.011945771053433418}}, "errors": ["PreArm: Hardware safety switch"]}
{"timestamp": "2026-01-15T13:03:03.487601Z", "telemetry": {"lat": 28.7530749, "lon": 77.1179381, "satellites": 9, "altitude_gps_m": 206.77999877929688, "groundspeed_mps": 0.0715612843632698}, "flight": {"mode": "STABILIZE", "armed": false}, "ekf": {"attitude": {"roll": 0.04955608397722244, "pitch": -0.005629930179566145, "yaw": -1.9149894714355469}, "local_position": {"x": -1.1153708696365356, "y": 5.376594066619873, "z": 5.544369220733643}, "status": {"flags": 33599, "velocity_variance": 0.14858786761760712, "pos_horiz_variance": 0.013271592557430267, "pos_vert_variance": 0.0040213558822870255}}, "errors": ["PreArm: Hardware safety switch"]}
{"timestamp": "2026-01-15T13:03:04.472822Z", "telemetry": {"lat": 28.7530743, "lon": 77.1179378, "satellites": 9, "altitude_gps_m": 206.75999450683594, "groundspeed_mps": 0.04762701317667961}, "flight": {"mode": "STABILIZE", "armed": false}, "ekf": {"attitude": {"roll": 0.05016053840517998, "pitch": -0.0062273829244077206, "yaw": -1.9148861169815063}, "local_position": {"x": -1.222238540649414, "y": 5.294000148773193, "z": 5.570321083068848}, "status": {"flags": 33599, "velocity_variance": 0.08342137932777405, "pos_horiz_variance": 0.012576233595609665, "pos_vert_variance": 0.054908234626054764}}, "errors": ["PreArm: Hardware safety switch"]}
{"timestamp": "2026-01-15T13:03:05.482111Z", "telemetry": {"lat": 28.7530763, "lon": 77.1179379, "satellites": 9, "altitude_gps_m": 206.67999267578125, "groundspeed_mps": 0.015959585085511208}, "flight": {"mode": "STABILIZE", "armed": false}, "ekf": {"attitude": {"roll": 0.05016053840517998, "pitch": -0.0062273829244077206, "yaw": -1.9148861169815063}, "local_position": {"x": -1.2090003490447998, "y": 5.273728847503662, "z": 5.645968437194824}, "status": {"flags": 33599, "velocity_variance": 0.121436707675457, "pos_horiz_variance": 0.0066987755708396435, "pos_vert_variance": 0.057122308760881424}}, "errors": ["PreArm: Hardware safety switch"]}
{"timestamp": "2026-01-15T13:03:06.503670Z", "telemetry": {"lat": 28.7530831, "lon": 77.1179351, "satellites": 9, "altitude_gps_m": 206.62998962402344, "groundspeed_mps": 0.14067474007606506}, "flight": {"mode": "STABILIZE", "armed": false}, "ekf": {"attitude": {"roll": 0.0524265356361866, "pitch": -0.005444942507892847, "yaw": -1.914934754371643}, "local_position": {"x": -0.8875408172607422, "y": 5.264921188354492, "z": 5.714160442352295}, "status": {"flags": 33599, "velocity_variance": 0.19919981062412262, "pos_horiz_variance": 0.010279068723320961, "pos_vert_variance": 0.034987568855285645}}, "errors": ["PreArm: Hardware safety switch"]}
{"timestamp": "2026-01-15T13:03:07.476582Z", "telemetry": {"lat": 28.7530804, "lon": 77.1179322, "satellites": 9, "altitude_gps_m": 206.6699981689453, "groundspeed_mps": 0.12532152235507965}, "flight": {"mode": "STABILIZE", "armed": false}, "ekf": {"attitude": {"roll": 0.051511649042367935, "pitch": -0.006925886031240225, "yaw": -1.9151082038879395}, "local_position": {"x": -0.9459952116012573, "y": 4.906497955322266, "z": 5.6508917808532715}, "status": {"flags": 33599, "velocity_variance": 0.056640442460775375, "pos_horiz_variance": 0.00763298524543643, "pos_vert_variance": 0.02374069020152092}}, "errors": ["PreArm: Hardware safety switch"]}
{"timestamp": "2026-01-15T13:03:08.477007Z", "telemetry": {"lat": 28.7530824, "lon": 77.1179306, "satellites": 9, "altitude_gps_m": 206.69000244140625, "groundspeed_mps": 0.2133927345275879}, "flight": {"mode": "STABILIZE", "armed": false}, "ekf": {"attitude": {"roll": 0.052372243255376816, "pitch": -0.006772334221750498, "yaw": -1.9153022766113281}, "local_position": {"x": -0.7786684036254883, "y": 4.601451873779297, "z": 5.6466217041015625}, "status": {"flags": 33599, "velocity_variance": 0.14499980211257935, "pos_horiz_variance": 0.005120103247463703, "pos_vert_variance": 0.09002664685249329}}, "errors": ["PreArm: Hardware safety switch"]}
{"timestamp": "2026-01-15T13:03:09.508117Z", "telemetry": {"lat": 28.7530797, "lon": 77.1179318, "satellites": 9, "altitude_gps_m": 206.70999145507812, "groundspeed_mps": 0.21488511562347412}, "flight": {"mode": "STABILIZE", "armed": false}, "ekf": {"attitude": {"roll": 0.05155424773693085, "pitch": -0.007165072951465845, "yaw": -1.9154094457626343}, "local_position": {"x": -0.8208386898040771, "y": 4.460090637207031, "z": 5.655162811279297}, "status": {"flags": 33599, "velocity_variance": 0.14351649582386017, "pos_horiz_variance": 0.005492304917424917, "pos_vert_variance": 0.006641442887485027}}, "errors": ["PreArm: Hardware safety switch"]}
{"timestamp": "2026-01-15T13:03:10.508002Z", "telemetry": {"lat": 28.75308, "lon": 77.1179304, "satellites": 9, "altitude_gps_m": 206.61000061035156, "groundspeed_mps": 0.1750735193490982}, "flight": {"mode": "STABILIZE", "armed": false}, "ekf": {"attitude": {"roll": 0.05139126628637314, "pitch": -0.006330182310193777, "yaw": -1.9155592918395996}, "local_position": {"x": -0.9817746877670288, "y": 4.414823532104492, "z": 5.715701580047607}, "status": {"flags": 33599, "velocity_variance": 0.26513510942459106, "pos_horiz_variance": 0.0024283796083182096, "pos_vert_variance": 0.001241438090801239}}, "errors": ["PreArm: Hardware safety switch"]}
{"timestamp": "2026-01-15T13:03:11.480144Z", "telemetry": {"lat": 28.7530837, "lon": 77.1179286, "satellites": 9, "altitude_gps_m": 206.59999084472656, "groundspeed_mps": 0.20664075016975403}, "flight": {"mode": "STABILIZE", "armed": false}, "ekf": {"attitude": {"roll": 0.05200297757983208, "pitch": -0.005812745075672865, "yaw": -1.9154669046401978}, "local_position": {"x": -0.602596640586853, "y": 4.384608745574951, "z": 5.722317695617676}, "status": {"flags": 33599, "velocity_variance": 0.1313166469335556, "pos_horiz_variance": 0.003825258230790496, "pos_vert_variance": 0.048857688903808594}}, "errors": ["PreArm: Hardware safety switch"]}
{"timestamp": "2026-01-15T13:03:12.482324Z", "telemetry": {"lat": 28.7530858, "lon": 77.1179285, "satellites": 9, "altitude_gps_m": 206.61000061035156, "groundspeed_mps": 0.20574221014976501}, "flight": {"mode": "STABILIZE", "armed": false}, "ekf": {"attitude": {"roll": 0.05183900520205498, "pitch": -0.004598194267600775, "yaw": -1.9154152870178223}, "local_position": {"x": -0.3968296945095062, "y": 4.40555477142334, "z": 5.717642784118652}, "status": {"flags": 33599, "velocity_variance": 0.04044496640563011, "pos_horiz_variance": 0.004972925875335932, "pos_vert_variance": 0.03816421329975128}}, "errors": ["PreArm: Hardware safety switch"]}
{"timestamp": "2026-01-15T13:03:13.496764Z", "telemetry": {"lat": 28.7530863, "lon": 77.11793, "satellites": 9, "altitude_gps_m": 206.6199951171875, "groundspeed_mps": 0.19532524049282074}, "flight": {"mode": "STABILIZE", "armed": false}, "ekf": {"attitude": {"roll": 0.051378946751356125, "pitch": -0.0038964436389505863, "yaw": -1.915475845336914}, "local_position": {"x": -0.2557348906993866, "y": 4.445435523986816, "z": 5.698007583618164}, "status": {"flags": 33599, "velocity_variance": 0.0696081817150116, "pos_horiz_variance": 0.0025374875403940678, "pos_vert_variance": 0.07710252702236176}}, "errors": ["PreArm: Hardware safety switch"]}
