{"timestamp": "2025-12-28T10:45:51.832696Z", "telemetry": {"lat": 28.7531505, "lon": 77.117763, "satellites": 9, "altitude_gps_m": 213.0800018310547, "groundspeed_mps": 0.1723363697528839}, "flight": {"mode": "LOITER", "armed": false}, "ekf": {"attitude": {"roll": -0.030908498913049698, "pitch": -0.005771946627646685, "yaw": 3.046253204345703}, "local_position": {"x": 8.298927307128906, "y": -10.655308723449707, "z": -4.15022611618042}, "status": {"flags": 33599, "velocity_variance": 0.3254511058330536, "pos_horiz_variance": 0.007058079820126295, "pos_vert_variance": 0.042820364236831665}}, "errors": []}
{"timestamp": "2025-12-28T10:45:52.870855Z", "telemetry": {"lat": 28.7531529, "lon": 77.1177653, "satellites": 9, "altitude_gps_m": 213.12998962402344, "groundspeed_mps": 0.11614937335252762}, "flight": {"mode": "LOITER", "armed": false}, "ekf": {"attitude": {"roll": -0.030878949910402298, "pitch": -0.0050077592022717, "yaw": 3.046182870864868}, "local_position": {"x": 8.409706115722656, "y": -10.704465866088867, "z": -4.202220439910889}, "status": {"flags": 33599, "velocity_variance": 0.4102602005004883, "pos_horiz_variance": 0.004317315295338631, "pos_vert_variance": 0.018491605296730995}}, "errors": []}
{"timestamp": "2025-12-28T10:45:53.868565Z", "telemetry": {"lat": 28.7531536, "lon": 77.1177638, "satellites": 9, "altitude_gps_m": 213.1599884033203, "groundspeed_mps": 0.0794980600476265}, "flight": {"mode": "LOITER", "armed": false}, "ekf": {"attitude": {"roll": -0.030600156635046005, "pitch": -0.00440211920067668, "yaw": 3.0461552143096924}, "local_position": {"x": 8.46826171875, "y": -10.736698150634766, "z": -4.231683731079102}, "status": {"flags": 33599, "velocity_variance": 0.3588313162326813, "pos_horiz_variance": 0.006101670674979687, "pos_vert_variance": 0.023022959008812904}}, "errors": []}
{"timestamp": "2025-12-28T10:45:54.868424Z", "telemetry": {"lat": 28.7531581, "lon": 77.1177588, "satellites": 9, "altitude_gps_m": 213.22999572753906, "groundspeed_mps": 0.14859041571617126}, "flight": {"mode": "LOITER", "armed": false}, "ekf": {"attitude": {"roll": -0.02944212779402733, "pitch": -0.0024638515897095203, "yaw": 3.045978546142578}, "local_position": {"x": 8.737181663513184, "y": -11.077627182006836, "z": -4.293384075164795}, "status": {"flags": 33599, "velocity_variance": 0.19656983017921448, "pos_horiz_variance": 0.011078638024628162, "pos_vert_variance": 0.0051664141938090324}}, "errors": []}
{"timestamp": "2025-12-28T10:45:55.867914Z", "telemetry": {"lat": 28.7531548, "lon": 77.1177609, "satellites": 9, "altitude_gps_m": 213.1999969482422, "groundspeed_mps": 0.15065638720989227}, "flight": {"mode": "LOITER", "armed": false}, "ekf": {"attitude": {"roll": -0.029725436121225357, "pitch": -0.003089096862822771, "yaw": 3.0458810329437256}, "local_position": {"x": 8.95504093170166, "y": -11.220026016235352, "z": -4.27874231338501}, "status": {"flags": 33599, "velocity_variance": 0.365121990442276, "pos_horiz_variance": 0.0018161319894716144, "pos_vert_variance": 0.02751109004020691}}, "errors": []}
{"timestamp": "2025-12-28T10:45:56.868293Z", "telemetry": {"lat": 28.7531568, "lon": 77.1177597, "satellites": 9, "altitude_gps_m": 213.20999145507812, "groundspeed_mps": 0.13189320266246796}, "flight": {"mode": "LOITER", "armed": false}, "ekf": {"attitude": {"roll": -0.030016157776117325, "pitch": -0.002977039199322462, "yaw": 3.045872449874878}, "local_position": {"x": 8.830341339111328, "y": -11.233768463134766, "z": -4.282557487487793}, "status": {"flags": 33599, "velocity_variance": 0.3652501702308655, "pos_horiz_variance": 0.005027122795581818, "pos_vert_variance": 0.04219098016619682}}, "errors": []}
{"timestamp": "2025-12-28T10:45:57.868833Z", "telemetry": {"lat": 28.7531678, "lon": 77.1177534, "satellites": 9, "altitude_gps_m": 213.12998962402344, "groundspeed_mps": 0.31627336144447327}, "flight": {"mode": "LOITER", "armed": false}, "ekf": {"attitude": {"roll": -0.02925099804997444, "pitch": -0.0002219737507402897, "yaw": 3.045853853225708}, "local_position": {"x": 9.58755874633789, "y": -11.589126586914062, "z": -4.21197509765625}, "status": {"flags": 33599, "velocity_variance": 0.30225175619125366, "pos_horiz_variance": 0.015668269246816635, "pos_vert_variance": 0.07903619855642319}}, "errors": []}
{"timestamp": "2025-12-28T10:45:58.868075Z", "telemetry": {"lat": 28.753173, "lon": 77.1177544, "satellites": 9, "altitude_gps_m": 213.1199951171875, "groundspeed_mps": 0.4365594685077667}, "flight": {"mode": "LOITER", "armed": false}, "ekf": {"attitude": {"roll": -0.02983882650732994, "pitch": 0.0009591910056769848, "yaw": 3.0456976890563965}, "local_position": {"x": 10.291683197021484, "y": -11.761619567871094, "z": -4.190304756164551}, "status": {"flags": 33599, "velocity_variance": 0.15957918763160706, "pos_horiz_variance": 0.012749085202813148, "pos_vert_variance": 0.009054018184542656}}, "errors": []}
{"timestamp": "2025-12-28T10:45:59.873737Z", "telemetry": {"lat": 28.7531785, "lon": 77.1177501, "satellites": 9, "altitude_gps_m": 213.1999969482422, "groundspeed_mps": 0.5601224303245544}, "flight": {"mode": "LOITER", "armed": false}, "ekf": {"attitude": {"roll": -0.029133912175893784, "pitch": 0.0019370769150555134, "yaw": 3.045718193054199}, "local_position": {"x": 10.931974411010742, "y": -12.126131057739258, "z": -4.279797554016113}, "status": {"flags": 33599, "velocity_variance": 0.19197426736354828, "pos_horiz_variance": 0.012749532237648964, "pos_vert_variance": 0.05718224495649338}}, "errors": []}
{"timestamp": "2025-12-28T10:46:00.868640Z", "telemetry": {"lat": 28.7531755, "lon": 77.1177574, "satellites": 9, "altitude_gps_m": 213.22000122070312, "groundspeed_mps": 0.5250369310379028}, "flight": {"mode": "LOITER", "armed": false}, "ekf": {"attitude": {"roll": -0.031013328582048416, "pitch": 0.000827333889901638, "yaw": 3.0457136631011963}, "local_position": {"x": 11.296299934387207, "y": -11.909442901611328, "z": -4.295599937438965}, "status": {"flags": 33599, "velocity_variance": 0.2985231578350067, "pos_horiz_variance": 0.0057557113468647, "pos_vert_variance": 0.06753074377775192}}, "errors": []}
{"timestamp": "2025-12-28T10:46:01.868873Z", "telemetry": {"lat": 28.7531678, "lon": 77.1177568, "satellites": 9, "altitude_gps_m": 213.17999267578125, "groundspeed_mps": 0.4359879791736603}, "flight": {"mode": "LOITER", "armed": false}, "ekf": {"attitude": {"roll": -0.030870702117681503, "pitch": -0.0008488227613270283, "yaw": 3.045628070831299}, "local_position": {"x": 11.211884498596191, "y": -11.986958503723145, "z": -4.256772518157959}, "status": {"flags": 33599, "velocity_variance": 0.3133542835712433, "pos_horiz_variance": 0.017219018191099167, "pos_vert_variance": 0.046868372708559036}}, "errors": []}
{"timestamp": "2025-12-28T10:46:02.868189Z", "telemetry": {"lat": 28.7531679, "lon": 77.1177515, "satellites": 9, "altitude_gps_m": 213.1999969482422, "groundspeed_mps": 0.37527331709861755}, "flight": {"mode": "LOITER", "armed": false}, "ekf": {"attitude": {"roll": -0.030396301299333572, "pitch": -0.0016567930579185486, "yaw": 3.045569896697998}, "local_position": {"x": 11.059677124023438, "y": -12.196435928344727, "z": -4.274243354797363}, "status": {"flags": 33599, "velocity_variance": 0.3053274154663086, "pos_horiz_variance": 0.01390138454735279, "pos_vert_variance": 0.05177772417664528}}, "errors": ["PreArm: Hardware safety switch", "PreArm: GPS glitching", "PreArm: Internal errors 0x100000 l:66 flow_of_ctrl"]}
{"timestamp": "2025-12-28T10:46:03.868892Z", "telemetry": {"lat": 28.7531687, "lon": 77.1177485, "satellites": 9, "altitude_gps_m": 213.22000122070312, "groundspeed_mps": 0.44332510232925415}, "flight": {"mode": "LOITER", "armed": false}, "ekf": {"attitude": {"roll": -0.029962774366140366, "pitch": -0.0016101528890430927, "yaw": 3.045461893081665}, "local_position": {"x": 11.355887413024902, "y": -12.574482917785645, "z": -4.2952656745910645}, "status": {"flags": 33599, "velocity_variance": 0.2196660041809082, "pos_horiz_variance": 0.017841171473264694, "pos_vert_variance": 0.06390204280614853}}, "errors": ["PreArm: Hardware safety switch", "PreArm: GPS glitching", "PreArm: Internal errors 0x100000 l:66 flow_of_ctrl"]}
{"timestamp": "2025-12-28T10:46:04.868684Z", "telemetry": {"lat": 28.7531656, "lon": 77.1177469, "satellites": 9, "altitude_gps_m": 213.20999145507812, "groundspeed_mps": 0.35657554864883423}, "flight": {"mode": "LOITER", "armed": false}, "ekf": {"attitude": {"roll": -0.030254710465669632, "pitch": -0.0030783587135374546, "yaw": 3.0453457832336426}, "local_position": {"x": 11.130626678466797, "y": -12.695745468139648, "z": -4.286553859710693}, "status": {"flags": 33599, "velocity_variance": 0.2934853434562683, "pos_horiz_variance": 0.02049027942121029, "pos_vert_variance": 0.013523435220122337}}, "errors": ["PreArm: Hardware safety switch", "PreArm: GPS glitching", "PreArm: Internal errors 0x100000 l:66 flow_of_ctrl"]}
{"timestamp": "2025-12-28T10:46:05.868786Z", "telemetry": {"lat": 28.753157, "lon": 77.1177477, "satellites": 9, "altitude_gps_m": 213.3300018310547, "groundspeed_mps": 0.2342611849308014}, "flight": {"mode": "LOITER", "armed": false}, "ekf": {"attitude": {"roll": -0.030005458742380142, "pitch": -0.005809216294437647, "yaw": 3.045335292816162}, "local_position": {"x": 10.557838439941406, "y": -12.729463577270508, "z": -4.409533500671387}, "status": {"flags": 33599, "velocity_variance": 0.4467546045780182, "pos_horiz_variance": 0.028263727203011513, "pos_vert_variance": 0.0251986812800169}}, "errors": ["PreArm: Hardware safety switch", "PreArm: GPS glitching", "PreArm: Internal errors 0x100000 l:66 flow_of_ctrl"]}
{"timestamp": "2025-12-28T10:46:06.871352Z", "telemetry": {"lat": 28.7531598, "lon": 77.1177467, "satellites": 9, "altitude_gps_m": 213.4099884033203, "groundspeed_mps": 0.2002030313014984}, "flight": {"mode": "LOITER", "armed": false}, "ekf": {"attitude": {"roll": -0.03023332729935646, "pitch": -0.005503981839865446, "yaw": 3.0452497005462646}, "local_position": {"x": 10.18997573852539, "y": -12.700416564941406, "z": -4.479316711425781}, "status": {"flags": 33599, "velocity_variance": 0.5845449566841125, "pos_horiz_variance": 0.017009196802973747, "pos_vert_variance": 0.03719578683376312}}, "errors": ["PreArm: Hardware safety switch", "PreArm: GPS glitching", "PreArm: Internal errors 0x100000 l:66 flow_of_ctrl"]}
{"timestamp": "2025-12-28T10:46:07.868244Z", "telemetry": {"lat": 28.7531488, "lon": 77.1177519, "satellites": 9, "altitude_gps_m": 213.3300018310547, "groundspeed_mps": 0.17258991301059723}, "flight": {"mode": "LOITER", "armed": false}, "ekf": {"attitude": {"roll": -0.0316351018846035, "pitch": -0.008089199662208557, "yaw": 3.04520320892334}, "local_position": {"x": 9.698613166809082, "y": -12.659608840942383, "z": -4.4045867919921875}, "status": {"flags": 33599, "velocity_variance": 0.26171863079071045, "pos_horiz_variance": 0.030999913811683655, "pos_vert_variance": 0.013796994462609291}}, "errors": ["PreArm: Hardware safety switch", "PreArm: GPS glitching", "PreArm: Internal errors 0x100000 l:66 flow_of_ctrl"]}
{"timestamp": "2025-12-28T10:46:08.868290Z", "telemetry": {"lat": 28.7531415, "lon": 77.117758, "satellites": 9, "altitude_gps_m": 213.3300018310547, "groundspeed_mps": 0.31183692812919617}, "flight": {"mode": "LOITER", "armed": false}, "ekf": {"attitude": {"roll": -0.032993000000715256, "pitch": -0.010055366903543472, "yaw": 3.0452425479888916}, "local_position": {"x": 9.063115119934082, "y": -12.292320251464844, "z": -4.41487979888916}, "status": {"flags": 33599, "velocity_variance": 0.26799526810646057, "pos_horiz_variance": 0.03148772194981575, "pos_vert_variance": 0.02161807380616665}}, "errors": ["PreArm: Hardware safety switch", "PreArm: GPS glitching", "PreArm: Internal errors 0x100000 l:66 flow_of_ctrl"]}
{"timestamp": "2025-12-28T10:46:09.868428Z", "telemetry": {"lat": 28.7531333, "lon": 77.1177633, "satellites": 9, "altitude_gps_m": 213.33999633789062, "groundspeed_mps": 0.5393661260604858}, "flight": {"mode": "LOITER", "armed": false}, "ekf": {"attitude": {"roll": -0.03434999659657478, "pitch": -0.012164928019046783, "yaw": 3.0452678203582764}, "local_position": {"x": 7.734314918518066, "y": -11.660432815551758, "z": -4.412557125091553}, "status": {"flags": 33599, "velocity_variance": 0.3494376242160797, "pos_horiz_variance": 0.03134328871965408, "pos_vert_variance": 0.015215356834232807}}, "errors": ["PreArm: Hardware safety switch", "PreArm: GPS glitching", "PreArm: Internal errors 0x100000 l:66 flow_of_ctrl"]}
{"timestamp": "2025-12-28T10:46:10.868132Z", "telemetry": {"lat": 28.7531306, "lon": 77.1177613, "satellites": 9, "altitude_gps_m": 213.38999938964844, "groundspeed_mps": 0.6461235284805298}, "flight": {"mode": "LOITER", "armed": false}, "ekf": {"attitude": {"roll": -0.033656153827905655, "pitch": -0.012169362977147102, "yaw": 3.045318841934204}, "local_position": {"x": 6.892335891723633, "y": -11.40090560913086, "z": -4.469164848327637}, "status": {"flags": 33599, "velocity_variance": 0.5006793737411499, "pos_horiz_variance": 0.019875604659318924, "pos_vert_variance": 0.07315695285797119}}, "errors": ["PreArm: Hardware safety switch", "PreArm: GPS glitching", "PreArm: Internal errors 0x100000 l:66 flow_of_ctrl"]}
{"timestamp": "2025-12-28T10:46:11.868882Z", "telemetry": {"lat": 28.7531285, "lon": 77.1177635, "satellites": 8, "altitude_gps_m": 213.38999938964844, "groundspeed_mps": 0.6593104004859924}, "flight": {"mode": "LOITER", "armed": false}, "ekf": {"attitude": {"roll": -0.03383895382285118, "pitch": -0.011990388855338097, "yaw": 3.0454227924346924}, "local_position": {"x": 6.371854305267334, "y": -11.319993019104004, "z": -4.464487075805664}, "status": {"flags": 33599, "velocity_variance": 0.3609338104724884, "pos_horiz_variance": 0.014175323769450188, "pos_vert_variance": 0.015513280406594276}}, "errors": ["PreArm: Hardware safety switch", "PreArm: GPS glitching", "PreArm: Internal errors 0x100000 l:66 flow_of_ctrl"]}
{"timestamp": "2025-12-28T10:46:12.868882Z", "telemetry": {"lat": 28.7531326, "lon": 77.1177646, "satellites": 9, "altitude_gps_m": 213.50999450683594, "groundspeed_mps": 0.612705409526825}, "flight": {"mode": "LOITER", "armed": false}, "ekf": {"attitude": {"roll": -0.03396088257431984, "pitch": -0.010293690487742424, "yaw": 3.0453248023986816}, "local_position": {"x": 6.128823280334473, "y": -11.059683799743652, "z": -4.586931228637695}, "status": {"flags": 33599, "velocity_variance": 0.4438679814338684, "pos_horiz_variance": 0.004618162754923105, "pos_vert_variance": 0.011089577339589596}}, "errors": ["PreArm: Hardware safety switch", "PreArm: GPS glitching", "PreArm: Internal errors 0x100000 l:66 flow_of_ctrl"]}
{"timestamp": "2025-12-28T10:46:13.869102Z", "telemetry": {"lat": 28.7531345, "lon": 77.1177647, "satellites": 9, "altitude_gps_m": 213.50999450683594, "groundspeed_mps": 0.5590257048606873}, "flight": {"mode": "LOITER", "armed": false}, "ekf": {"attitude": {"roll": -0.034196097403764725, "pitch": -0.008988508954644203, "yaw": 3.045466184616089}, "local_position": {"x": 5.995329856872559, "y": -10.819619178771973, "z": -4.586719989776611}, "status": {"flags": 33599, "velocity_variance": 0.2142331600189209, "pos_horiz_variance": 0.008060739375650883, "pos_vert_variance": 0.11251272261142731}}, "errors": ["PreArm: Hardware safety switch", "PreArm: GPS glitching", "PreArm: Internal errors 0x100000 l:66 flow_of_ctrl"]}
{"timestamp": "2025-12-28T10:46:14.868131Z", "telemetry": {"lat": 28.7531345, "lon": 77.1177649, "satellites": 8, "altitude_gps_m": 213.38999938964844, "groundspeed_mps": 0.4912256896495819}, "flight": {"mode": "LOITER", "armed": false}, "ekf": {"attitude": {"roll": -0.034485314041376114, "pitch": -0.007614583242684603, "yaw": 3.0455424785614014}, "local_position": {"x": 5.973936080932617, "y": -10.61662769317627, "z": -4.466232776641846}, "status": {"flags": 33599, "velocity_variance": 0.2748487889766693, "pos_horiz_variance": 0.009690838865935802, "pos_vert_variance": 0.012133066542446613}}, "errors": ["PreArm: Hardware safety switch", "PreArm: GPS glitching", "PreArm: Internal errors 0x100000 l:66 flow_of_ctrl"]}
{"timestamp": "2025-12-28T10:46:15.867905Z", "telemetry": {"lat": 28.7531318, "lon": 77.1177643, "satellites": 9, "altitude_gps_m": 213.36000061035156, "groundspeed_mps": 0.4244009554386139}, "flight": {"mode": "LOITER", "armed": false}, "ekf": {"attitude": {"roll": -0.0338122732937336, "pitch": -0.006687421817332506, "yaw": 3.0455377101898193}, "local_position": {"x": 5.868551731109619, "y": -10.633514404296875, "z": -4.435430526733398}, "status": {"flags": 33599, "velocity_variance": 0.16511288285255432, "pos_horiz_variance": 0.0069180759601294994, "pos_vert_variance": 0.04613984376192093}}, "errors": ["PreArm: Hardware safety switch", "PreArm: GPS glitching", "PreArm: Internal errors 0x100000 l:66 flow_of_ctrl"]}
{"timestamp": "2025-12-28T10:46:16.867923Z", "telemetry": {"lat": 28.7531345, "lon": 77.1177587, "satellites": 9, "altitude_gps_m": 213.36000061035156, "groundspeed_mps": 0.2868688702583313}, "flight": {"mode": "LOITER", "armed": false}, "ekf": {"attitude": {"roll": -0.032315511256456375, "pitch": -0.004911047872155905, "yaw": 3.045442819595337}, "local_position": {"x": 5.9320878982543945, "y": -10.947502136230469, "z": -4.439113140106201}, "status": {"flags": 33599, "velocity_variance": 0.2535572052001953, "pos_horiz_variance": 0.013492515310645103, "pos_vert_variance": 0.036651771515607834}}, "errors": ["PreArm: Hardware safety switch", "PreArm: GPS glitching", "PreArm: Internal errors 0x100000 l:66 flow_of_ctrl"]}
{"timestamp": "2025-12-28T10:46:17.868768Z", "telemetry": {"lat": 28.7531347, "lon": 77.1177569, "satellites": 9, "altitude_gps_m": 213.25999450683594, "groundspeed_mps": 0.16252048313617706}, "flight": {"mode": "LOITER", "armed": false}, "ekf": {"attitude": {"roll": -0.031784627586603165, "pitch": -0.003710480872541666, "yaw": 3.0455334186553955}, "local_position": {"x": 6.129147529602051, "y": -11.210865020751953, "z": -4.336270332336426}, "status": {"flags": 33599, "velocity_variance": 0.3135817348957062, "pos_horiz_variance": 0.010578826069831848, "pos_vert_variance": 0.06294800341129303}}, "errors": ["PreArm: Hardware safety switch", "PreArm: GPS glitching", "PreArm: Internal errors 0x100000 l:66 flow_of_ctrl"]}
{"timestamp": "2025-12-28T10:46:18.868057Z", "telemetry": {"lat": 28.7531322, "lon": 77.1177588, "satellites": 10, "altitude_gps_m": 213.30999755859375, "groundspeed_mps": 0.18911899626255035}, "flight": {"mode": "LOITER", "armed": false}, "ekf": {"attitude": {"roll": -0.03164088353514671, "pitch": -0.00405444810166955, "yaw": 3.045423746109009}, "local_position": {"x": 5.877028942108154, "y": -11.165173530578613, "z": -4.3844099044799805}, "status": {"flags": 33599, "velocity_variance": 0.10112365335226059, "pos_horiz_variance": 0.009103658609092236, "pos_vert_variance": 0.047288913279771805}}, "errors": ["PreArm: Hardware safety switch", "PreArm: GPS glitching", "PreArm: Internal errors 0x100000 l:66 flow_of_ctrl"]}
{"timestamp": "2025-12-28T10:46:19.868543Z", "telemetry": {"lat": 28.7531343, "lon": 77.1177576, "satellites": 10, "altitude_gps_m": 213.239990234375, "groundspeed_mps": 0.0703609511256218}, "flight": {"mode": "LOITER", "armed": false}, "ekf": {"attitude": {"roll": -0.030954424291849136, "pitch": -0.002356134820729494, "yaw": 3.0452558994293213}, "local_position": {"x": 6.146397113800049, "y": -11.375161170959473, "z": -4.315220832824707}, "status": {"flags": 33599, "velocity_variance": 0.2310909926891327, "pos_horiz_variance": 0.007592434994876385, "pos_vert_variance": 0.0444009006023407}}, "errors": ["PreArm: Hardware safety switch", "PreArm: GPS glitching", "PreArm: Internal errors 0x100000 l:66 flow_of_ctrl"]}
{"timestamp": "2025-12-28T10:46:20.869716Z", "telemetry": {"lat": 28.7531285, "lon": 77.1177613, "satellites": 10, "altitude_gps_m": 213.3300018310547, "groundspeed_mps": 0.1303669661283493}, "flight": {"mode": "LOITER", "armed": false}, "ekf": {"attitude": {"roll": -0.03143663331866264, "pitch": -0.0036623445339500904, "yaw": 3.0451629161834717}, "local_position": {"x": 5.8454461097717285, "y": -11.225028038024902, "z": -4.398564338684082}, "status": {"flags": 33599, "velocity_variance": 0.26648059487342834, "pos_horiz_variance": 0.0020942226983606815, "pos_vert_variance": 0.0680888369679451}}, "errors": ["PreArm: Hardware safety switch", "PreArm: GPS glitching", "PreArm: Internal errors 0x100000 l:66 flow_of_ctrl"]}
{"timestamp": "2025-12-28T10:46:21.868629Z", "telemetry": {"lat": 28.7531232, "lon": 77.117763, "satellites": 10, "altitude_gps_m": 213.33999633789062, "groundspeed_mps": 0.20867641270160675}, "flight": {"mode": "LOITER", "armed": false}, "ekf": {"attitude": {"roll": -0.031761106103658676, "pitch": -0.005008293781429529, "yaw": 3.045170307159424}, "local_position": {"x": 5.366611003875732, "y": -11.028619766235352, "z": -4.418225288391113}, "status": {"flags": 33599, "velocity_variance": 0.3834395706653595, "pos_horiz_variance": 0.0018858934054151177, "pos_vert_variance": 0.02270793914794922}}, "errors": ["PreArm: Hardware safety switch", "PreArm: GPS glitching", "PreArm: Internal errors 0x100000 l:66 flow_of_ctrl"]}
{"timestamp": "2025-12-28T10:46:22.868449Z", "telemetry": {"lat": 28.7531232, "lon": 77.1177607, "satellites": 10, "altitude_gps_m": 213.4099884033203, "groundspeed_mps": 0.224799245595932}, "flight": {"mode": "LOITER", "armed": false}, "ekf": {"attitude": {"roll": -0.031229626387357712, "pitch": -0.005166857969015837, "yaw": 3.045088052749634}, "local_position": {"x": 5.088937759399414, "y": -11.114093780517578, "z": -4.4879937171936035}, "status": {"flags": 33599, "velocity_variance": 0.04512610286474228, "pos_horiz_variance": 0.0035064006224274635, "pos_vert_variance": 0.02488798461854458}}, "errors": ["PreArm: Hardware safety switch", "PreArm: GPS glitching", "PreArm: Internal errors 0x100000 l:66 flow_of_ctrl"]}
{"timestamp": "2025-12-28T10:46:23.868572Z", "telemetry": {"lat": 28.7531221, "lon": 77.1177618, "satellites": 10, "altitude_gps_m": 213.4499969482422, "groundspeed_mps": 0.23248402774333954}, "flight": {"mode": "LOITER", "armed": false}, "ekf": {"attitude": {"roll": -0.03166200593113899, "pitch": -0.0052545140497386456, "yaw": 3.0449533462524414}, "local_position": {"x": 4.930463790893555, "y": -11.014941215515137, "z": -4.531760215759277}, "status": {"flags": 33599, "velocity_variance": 0.2441028356552124, "pos_horiz_variance": 0.004269220866262913, "pos_vert_variance": 0.005077545531094074}}, "errors": ["PreArm: Hardware safety switch", "PreArm: GPS glitching", "PreArm: Internal errors 0x100000 l:66 flow_of_ctrl"]}
{"timestamp": "2025-12-28T10:46:24.868435Z", "telemetry": {"lat": 28.7531224, "lon": 77.1177595, "satellites": 10, "altitude_gps_m": 213.4199981689453, "groundspeed_mps": 0.19843949377536774}, "flight": {"mode": "LOITER", "armed": false}, "ekf": {"attitude": {"roll": -0.031322721391916275, "pitch": -0.004883402492851019, "yaw": 3.0450563430786133}, "local_position": {"x": 4.835873603820801, "y": -11.088661193847656, "z": -4.496065616607666}, "status": {"flags": 33599, "velocity_variance": 0.24497035145759583, "pos_horiz_variance": 0.008614578284323215, "pos_vert_variance": 0.04075896367430687}}, "errors": ["PreArm: Hardware safety switch", "PreArm: GPS glitching", "PreArm: Internal errors 0x100000 l:66 flow_of_ctrl"]}
{"timestamp": "2025-12-28T10:46:25.868588Z", "telemetry": {"lat": 28.7531189, "lon": 77.1177607, "satellites": 10, "altitude_gps_m": 213.45999145507812, "groundspeed_mps": 0.23142853379249573}, "flight": {"mode": "LOITER", "armed": false}, "ekf": {"attitude": {"roll": -0.031573083251714706, "pitch": -0.00543925492092967, "yaw": 3.0449798107147217}, "local_position": {"x": 4.566501617431641, "y": -11.043366432189941, "z": -4.541458606719971}, "status": {"flags": 33599, "velocity_variance": 0.3690427541732788, "pos_horiz_variance": 0.005040409043431282, "pos_vert_variance": 0.030298767611384392}}, "errors": ["PreArm: Hardware safety switch", "PreArm: GPS glitching", "PreArm: Internal errors 0x100000 l:66 flow_of_ctrl"]}
{"timestamp": "2025-12-28T10:46:26.868390Z", "telemetry": {"lat": 28.7531162, "lon": 77.1177642, "satellites": 10, "altitude_gps_m": 213.58999633789062, "groundspeed_mps": 0.2980729639530182}, "flight": {"mode": "LOITER", "armed": false}, "ekf": {"attitude": {"roll": -0.03219151124358177, "pitch": -0.006257825065404177, "yaw": 3.0451159477233887}, "local_position": {"x": 4.18535041809082, "y": -10.800119400024414, "z": -4.66774320602417}, "status": {"flags": 33599, "velocity_variance": 0.221226766705513, "pos_horiz_variance": 0.005703641567379236, "pos_vert_variance": 0.08823657780885696}}, "errors": ["PreArm: Hardware safety switch", "PreArm: GPS glitching", "PreArm: Internal errors 0x100000 l:66 flow_of_ctrl"]}
{"timestamp": "2025-12-28T10:46:27.870014Z", "telemetry": {"lat": 28.7531137, "lon": 77.1177664, "satellites": 10, "altitude_gps_m": 213.5800018310547, "groundspeed_mps": 0.31555017828941345}, "flight": {"mode": "LOITER", "armed": false}, "ekf": {"attitude": {"roll": -0.032702308148145676, "pitch": -0.006103736814111471, "yaw": 3.0449671745300293}, "local_position": {"x": 3.990985631942749, "y": -10.647501945495605, "z": -4.653727054595947}, "status": {"flags": 33599, "velocity_variance": 0.15337786078453064, "pos_horiz_variance": 0.00387326767668128, "pos_vert_variance": 0.0008080273400992155}}, "errors": ["PreArm: Hardware safety switch", "PreArm: GPS glitching", "PreArm: Internal errors 0x100000 l:66 flow_of_ctrl"]}
{"timestamp": "2025-12-28T10:46:28.868476Z", "telemetry": {"lat": 28.7531147, "lon": 77.1177674, "satellites": 10, "altitude_gps_m": 213.58999633789062, "groundspeed_mps": 0.28110793232917786}, "flight": {"mode": "LOITER", "armed": false}, "ekf": {"attitude": {"roll": -0.03288452699780464, "pitch": -0.005463448818773031, "yaw": 3.0451087951660156}, "local_position": {"x": 3.884833335876465, "y": -10.584040641784668, "z": -4.685720920562744}, "status": {"flags": 33599, "velocity_variance": 0.05376090481877327, "pos_horiz_variance": 0.008965298533439636, "pos_vert_variance": 0.0795760303735733}}, "errors": ["PreArm: Hardware safety switch", "PreArm: GPS glitching", "PreArm: Internal errors 0x100000 l:66 flow_of_ctrl"]}
{"timestamp": "2025-12-28T10:46:29.868581Z", "telemetry": {"lat": 28.7531204, "lon": 77.1177644, "satellites": 10, "altitude_gps_m": 213.51998901367188, "groundspeed_mps": 0.17149072885513306}, "flight": {"mode": "LOITER", "armed": false}, "ekf": {"attitude": {"roll": -0.03205789998173714, "pitch": -0.0037325150333344936, "yaw": 3.0450472831726074}, "local_position": {"x": 4.0182600021362305, "y": -10.602547645568848, "z": -4.590380668640137}, "status": {"flags": 33599, "velocity_variance": 0.5616558194160461, "pos_horiz_variance": 0.019883401691913605, "pos_vert_variance": 0.03796926885843277}}, "errors": ["PreArm: Hardware safety switch", "PreArm: GPS glitching", "PreArm: Internal errors 0x100000 l:66 flow_of_ctrl"]}
{"timestamp": "2025-12-28T10:46:30.868503Z", "telemetry": {"lat": 28.753128, "lon": 77.1177594, "satellites": 10, "altitude_gps_m": 213.4499969482422, "groundspeed_mps": 0.05935671553015709}, "flight": {"mode": "LOITER", "armed": false}, "ekf": {"attitude": {"roll": -0.030850108712911606, "pitch": -0.0012344182468950748, "yaw": 3.0449562072753906}, "local_position": {"x": 4.651257038116455, "y": -10.982041358947754, "z": -4.528398036956787}, "status": {"flags": 33599, "velocity_variance": 0.33400508761405945, "pos_horiz_variance": 0.025492271408438683, "pos_vert_variance": 0.09091310203075409}}, "errors": ["PreArm: Hardware safety switch", "PreArm: GPS glitching", "PreArm: Internal errors 0x100000 l:66 flow_of_ctrl"]}
{"timestamp": "2025-12-28T10:46:31.868725Z", "telemetry": {"lat": 28.753128, "lon": 77.1177609, "satellites": 10, "altitude_gps_m": 213.4099884033203, "groundspeed_mps": 0.10319666564464569}, "flight": {"mode": "LOITER", "armed": false}, "ekf": {"attitude": {"roll": -0.03128011152148247, "pitch": -0.0015835575759410858, "yaw": 3.0447566509246826}, "local_position": {"x": 4.935254096984863, "y": -11.066390037536621, "z": -4.496504306793213}, "status": {"flags": 33599, "velocity_variance": 0.3586159348487854, "pos_horiz_variance": 0.020146828144788742, "pos_vert_variance": 0.07372904568910599}}, "errors": ["PreArm: Hardware safety switch", "PreArm: GPS glitching", "PreArm: Internal errors 0x100000 l:66 flow_of_ctrl"]}
{"timestamp": "2025-12-28T10:46:32.868562Z", "telemetry": {"lat": 28.7531242, "lon": 77.1177613, "satellites": 10, "altitude_gps_m": 213.30999755859375, "groundspeed_mps": 0.0773889347910881}, "flight": {"mode": "LOITER", "armed": false}, "ekf": {"attitude": {"roll": -0.03113144263625145, "pitch": -0.0025932658463716507, "yaw": 3.044879913330078}, "local_position": {"x": 4.864398002624512, "y": -11.12678050994873, "z": -4.386883735656738}, "status": {"flags": 33599, "velocity_variance": 0.3485315442085266, "pos_horiz_variance": 0.012805415317416191, "pos_vert_variance": 0.011254750192165375}}, "errors": ["PreArm: Hardware safety switch", "PreArm: GPS glitching", "PreArm: Internal errors 0x100000 l:66 flow_of_ctrl", "PreArm: Hardware safety switch", "PreArm: GPS glitching", "PreArm: Internal errors 0x100000 l:66 flow_of_ctrl"]}
{"timestamp": "2025-12-28T10:46:33.868803Z", "telemetry": {"lat": 28.753123, "lon": 77.1177625, "satellites": 10, "altitude_gps_m": 213.29998779296875, "groundspeed_mps": 0.021555453538894653}, "flight": {"mode": "LOITER", "armed": false}, "ekf": {"attitude": {"roll": -0.03136151656508446, "pitch": -0.0034247771836817265, "yaw": 3.0448524951934814}, "local_position": {"x": 4.685559272766113, "y": -11.015178680419922, "z": -4.37468147277832}, "status": {"flags": 33599, "velocity_variance": 0.3929527699947357, "pos_horiz_variance": 0.012700960040092468, "pos_vert_variance": 0.060251522809267044}}, "errors": ["PreArm: Hardware safety switch", "PreArm: GPS glitching", "PreArm: Internal errors 0x100000 l:66 flow_of_ctrl", "PreArm: Hardware safety switch", "PreArm: GPS glitching", "PreArm: Internal errors 0x100000 l:66 flow_of_ctrl"]}
{"timestamp": "2025-12-28T10:46:34.868061Z", "telemetry": {"lat": 28.7531279, "lon": 77.117762, "satellites": 10, "altitude_gps_m": 213.33999633789062, "groundspeed_mps": 0.10469155013561249}, "flight": {"mode": "LOITER", "armed": false}, "ekf": {"attitude": {"roll": -0.031025324016809464, "pitch": -0.0025073904544115067, "yaw": 3.0447657108306885}, "local_position": {"x": 5.033537864685059, "y": -11.111528396606445, "z": -4.417537212371826}, "status": {"flags": 33599, "velocity_variance": 0.37713825702667236, "pos_horiz_variance": 0.015769487246870995, "pos_vert_variance": 0.046549241989851}}, "errors": ["PreArm: Hardware safety switch", "PreArm: GPS glitching", "PreArm: Internal errors 0x100000 l:66 flow_of_ctrl", "PreArm: Hardware safety switch", "PreArm: GPS glitching", "PreArm: Internal errors 0x100000 l:66 flow_of_ctrl"]}
{"timestamp": "2025-12-28T10:46:35.868069Z", "telemetry": {"lat": 28.7531297, "lon": 77.11776, "satellites": 10, "altitude_gps_m": 213.39999389648438, "groundspeed_mps": 0.1297380030155182}, "flight": {"mode": "LOITER", "armed": false}, "ekf": {"attitude": {"roll": -0.03051741048693657, "pitch": -0.002858466003090143, "yaw": 3.0447444915771484}, "local_position": {"x": 5.236204147338867, "y": -11.2535982131958, "z": -4.4740681648254395}, "status": {"flags": 33599, "velocity_variance": 0.23044604063034058, "pos_horiz_variance": 0.01667766086757183, "pos_vert_variance": 0.047404803335666656}}, "errors": ["PreArm: Hardware safety switch", "PreArm: GPS glitching", "PreArm: Internal errors 0x100000 l:66 flow_of_ctrl", "PreArm: Hardware safety switch", "PreArm: GPS glitching", "PreArm: Internal errors 0x100000 l:66 flow_of_ctrl"]}
{"timestamp": "2025-12-28T10:46:36.868466Z", "telemetry": {"lat": 28.7531294, "lon": 77.1177588, "satellites": 10, "altitude_gps_m": 213.37998962402344, "groundspeed_mps": 0.14555546641349792}, "flight": {"mode": "LOITER", "armed": false}, "ekf": {"attitude": {"roll": -0.03010399267077446, "pitch": -0.003652892541140318, "yaw": 3.0445685386657715}, "local_position": {"x": 5.257026672363281, "y": -11.458378791809082, "z": -4.4524688720703125}, "status": {"flags": 33599, "velocity_variance": 0.15013422071933746, "pos_horiz_variance": 0.016042014583945274, "pos_vert_variance": 0.021421102806925774}}, "errors": ["PreArm: Hardware safety switch", "PreArm: GPS glitching", "PreArm: Internal errors 0x100000 l:66 flow_of_ctrl", "PreArm: Hardware safety switch", "PreArm: GPS glitching", "PreArm: Internal errors 0x100000 l:66 flow_of_ctrl"]}
{"timestamp": "2025-12-28T10:46:37.868265Z", "telemetry": {"lat": 28.7531326, "lon": 77.1177586, "satellites": 10, "altitude_gps_m": 213.33999633789062, "groundspeed_mps": 0.17749091982841492}, "flight": {"mode": "LOITER", "armed": false}, "ekf": {"attitude": {"roll": -0.03031962737441063, "pitch": -0.0029513430781662464, "yaw": 3.044386863708496}, "local_position": {"x": 5.477626323699951, "y": -11.533804893493652, "z": -4.42793083190918}, "status": {"flags": 33599, "velocity_variance": 0.3116263449192047, "pos_horiz_variance": 0.015327204950153828, "pos_vert_variance": 0.03315409645438194}}, "errors": ["PreArm: Hardware safety switch", "PreArm: GPS glitching", "PreArm: Internal errors 0x100000 l:66 flow_of_ctrl", "PreArm: Hardware safety switch", "PreArm: GPS glitching", "PreArm: Internal errors 0x100000 l:66 flow_of_ctrl"]}
{"timestamp": "2025-12-28T10:46:38.868070Z", "telemetry": {"lat": 28.7531316, "lon": 77.1177594, "satellites": 9, "altitude_gps_m": 213.3199920654297, "groundspeed_mps": 0.18729281425476074}, "flight": {"mode": "LOITER", "armed": false}, "ekf": {"attitude": {"roll": -0.030520346015691757, "pitch": -0.003398203756660223, "yaw": 3.0442357063293457}, "local_position": {"x": 5.800252437591553, "y": -11.602620124816895, "z": -4.394887924194336}, "status": {"flags": 33599, "velocity_variance": 0.1667931079864502, "pos_horiz_variance": 0.011579523794353008, "pos_vert_variance": 0.060525815933942795}}, "errors": ["PreArm: Hardware safety switch", "PreArm: GPS glitching", "PreArm: Internal errors 0x100000 l:66 flow_of_ctrl", "PreArm: Hardware safety switch", "PreArm: GPS glitching", "PreArm: Internal errors 0x100000 l:66 flow_of_ctrl"]}
{"timestamp": "2025-12-28T10:46:39.868612Z", "telemetry": {"lat": 28.7531252, "lon": 77.1177634, "satellites": 10, "altitude_gps_m": 213.239990234375, "groundspeed_mps": 0.05817733332514763}, "flight": {"mode": "LOITER", "armed": false}, "ekf": {"attitude": {"roll": -0.03166021779179573, "pitch": -0.0054746572859585285, "yaw": 3.0441808700561523}, "local_position": {"x": 5.474864959716797, "y": -11.41277027130127, "z": -4.309916973114014}, "status": {"flags": 33599, "velocity_variance": 0.23171508312225342, "pos_horiz_variance": 0.00958217028528452, "pos_vert_variance": 0.07267588376998901}}, "errors": ["PreArm: Hardware safety switch", "PreArm: GPS glitching", "PreArm: Internal errors 0x100000 l:66 flow_of_ctrl", "PreArm: Hardware safety switch", "PreArm: GPS glitching", "PreArm: Internal errors 0x100000 l:66 flow_of_ctrl"]}
{"timestamp": "2025-12-28T10:46:40.868523Z", "telemetry": {"lat": 28.7531236, "lon": 77.1177657, "satellites": 10, "altitude_gps_m": 213.3300018310547, "groundspeed_mps": 0.08384595066308975}, "flight": {"mode": "LOITER", "armed": false}, "ekf": {"attitude": {"roll": -0.03197268769145012, "pitch": -0.006387230474501848, "yaw": 3.0440778732299805}, "local_position": {"x": 5.209290027618408, "y": -11.240470886230469, "z": -4.399562835693359}, "status": {"flags": 33599, "velocity_variance": 0.14502748847007751, "pos_horiz_variance": 0.011213082820177078, "pos_vert_variance": 0.030528603121638298}}, "errors": ["PreArm: Hardware safety switch", "PreArm: GPS glitching", "PreArm: Internal errors 0x100000 l:66 flow_of_ctrl", "PreArm: Hardware safety switch", "PreArm: GPS glitching", "PreArm: Internal errors 0x100000 l:66 flow_of_ctrl"]}
{"timestamp": "2025-12-28T10:46:41.868777Z", "telemetry": {"lat": 28.7531212, "lon": 77.1177657, "satellites": 10, "altitude_gps_m": 213.37998962402344, "groundspeed_mps": 0.13863511383533478}, "flight": {"mode": "LOITER", "armed": false}, "ekf": {"attitude": {"roll": -0.03187982365489006, "pitch": -0.007124187890440226, "yaw": 3.043999433517456}, "local_position": {"x": 4.97548770904541, "y": -11.050300598144531, "z": -4.450366497039795}, "status": {"flags": 33599, "velocity_variance": 0.13459955155849457, "pos_horiz_variance": 0.007974422536790371, "pos_vert_variance": 0.05814743414521217}}, "errors": ["PreArm: Hardware safety switch", "PreArm: GPS glitching", "PreArm: Internal errors 0x100000 l:66 flow_of_ctrl", "PreArm: Hardware safety switch", "PreArm: GPS glitching", "PreArm: Internal errors 0x100000 l:66 flow_of_ctrl"]}
{"timestamp": "2025-12-28T10:46:42.868836Z", "telemetry": {"lat": 28.7531171, "lon": 77.1177688, "satellites": 9, "altitude_gps_m": 213.36000061035156, "groundspeed_mps": 0.24208232760429382}, "flight": {"mode": "LOITER", "armed": false}, "ekf": {"attitude": {"roll": -0.03253454342484474, "pitch": -0.008552759885787964, "yaw": 3.044038772583008}, "local_position": {"x": 4.598536491394043, "y": -10.85573959350586, "z": -4.43225622177124}, "status": {"flags": 33599, "velocity_variance": 0.17996004223823547, "pos_horiz_variance": 0.009965233504772186, "pos_vert_variance": 0.0668206512928009}}, "errors": ["PreArm: Hardware safety switch", "PreArm: GPS glitching", "PreArm: Internal errors 0x100000 l:66 flow_of_ctrl", "PreArm: Hardware safety switch", "PreArm: GPS glitching", "PreArm: Internal errors 0x100000 l:66 flow_of_ctrl"]}
{"timestamp": "2025-12-28T10:46:43.868717Z", "telemetry": {"lat": 28.7531161, "lon": 77.1177688, "satellites": 9, "altitude_gps_m": 213.36000061035156, "groundspeed_mps": 0.3172608017921448}, "flight": {"mode": "LOITER", "armed": false}, "ekf": {"attitude": {"roll": -0.032594699412584305, "pitch": -0.008893106132745743, "yaw": 3.0442070960998535}, "local_position": {"x": 4.308998107910156, "y": -10.6511869430542, "z": -4.4501447677612305}, "status": {"flags": 33599, "velocity_variance": 0.17621129751205444, "pos_horiz_variance": 0.006224518641829491, "pos_vert_variance": 0.0908842459321022}}, "errors": ["PreArm: Hardware safety switch", "PreArm: GPS glitching", "PreArm: Internal errors 0x100000 l:66 flow_of_ctrl", "PreArm: Hardware safety switch", "PreArm: GPS glitching", "PreArm: Internal errors 0x100000 l:66 flow_of_ctrl"]}
{"timestamp": "2025-12-28T10:46:44.868818Z", "telemetry": {"lat": 28.75311, "lon": 77.1177739, "satellites": 9, "altitude_gps_m": 213.34999084472656, "groundspeed_mps": 0.44896259903907776}, "flight": {"mode": "LOITER", "armed": false}, "ekf": {"attitude": {"roll": -0.033465463668107986, "pitch": -0.010258279740810394, "yaw": 3.044405221939087}, "local_position": {"x": 3.665172815322876, "y": -10.284234046936035, "z": -4.429183483123779}, "status": {"flags": 33599, "velocity_variance": 0.20353490114212036, "pos_horiz_variance": 0.008699502795934677, "pos_vert_variance": 0.06400463730096817}}, "errors": ["PreArm: Hardware safety switch", "PreArm: GPS glitching", "PreArm: Internal errors 0x100000 l:66 flow_of_ctrl", "PreArm: Hardware safety switch", "PreArm: GPS glitching", "PreArm: Internal errors 0x100000 l:66 flow_of_ctrl"]}
{"timestamp": "2025-12-28T10:46:45.867984Z", "telemetry": {"lat": 28.7531062, "lon": 77.1177774, "satellites": 8, "altitude_gps_m": 213.19000244140625, "groundspeed_mps": 0.5178260803222656}, "flight": {"mode": "LOITER", "armed": false}, "ekf": {"attitude": {"roll": -0.034181322902441025, "pitch": -0.010416297242045403, "yaw": 3.044440746307373}, "local_position": {"x": 3.2359440326690674, "y": -9.97458553314209, "z": -4.265157222747803}, "status": {"flags": 33599, "velocity_variance": 0.4902251958847046, "pos_horiz_variance": 0.010193713940680027, "pos_vert_variance": 0.011693071573972702}}, "errors": ["PreArm: Hardware safety switch", "PreArm: GPS glitching", "PreArm: Internal errors 0x100000 l:66 flow_of_ctrl", "PreArm: Hardware safety switch", "PreArm: GPS glitching", "PreArm: Internal errors 0x100000 l:66 flow_of_ctrl"]}
{"timestamp": "2025-12-28T10:46:46.868021Z", "telemetry": {"lat": 28.7531092, "lon": 77.1177793, "satellites": 8, "altitude_gps_m": 213.17999267578125, "groundspeed_mps": 0.5880095958709717}, "flight": {"mode": "LOITER", "armed": false}, "ekf": {"attitude": {"roll": -0.03450459614396095, "pitch": -0.010237619280815125, "yaw": 3.0445871353149414}, "local_position": {"x": 2.8095123767852783, "y": -9.526586532592773, "z": -4.252013206481934}, "status": {"flags": 33599, "velocity_variance": 0.3016318678855896, "pos_horiz_variance": 0.016851134598255157, "pos_vert_variance": 0.019106006249785423}}, "errors": ["PreArm: Hardware safety switch", "PreArm: GPS glitching", "PreArm: Internal errors 0x100000 l:66 flow_of_ctrl", "PreArm: Hardware safety switch", "PreArm: GPS glitching", "PreArm: Internal errors 0x100000 l:66 flow_of_ctrl"]}
{"timestamp": "2025-12-28T10:46:47.868236Z", "telemetry": {"lat": 28.7531064, "lon": 77.1177841, "satellites": 8, "altitude_gps_m": 213.26998901367188, "groundspeed_mps": 0.5835933089256287}, "flight": {"mode": "LOITER", "armed": false}, "ekf": {"attitude": {"roll": -0.034708451479673386, "pitch": -0.009836753830313683, "yaw": 3.0447733402252197}, "local_position": {"x": 2.662031650543213, "y": -9.1828031539917, "z": -4.347794532775879}, "status": {"flags": 33599, "velocity_variance": 0.11852319538593292, "pos_horiz_variance": 0.01581762731075287, "pos_vert_variance": 0.005141049157828093}}, "errors": ["PreArm: Hardware safety switch", "PreArm: GPS glitching", "PreArm: Internal errors 0x100000 l:66 flow_of_ctrl", "PreArm: Hardware safety switch", "PreArm: GPS glitching", "PreArm: Internal errors 0x100000 l:66 flow_of_ctrl"]}
{"timestamp": "2025-12-28T10:46:48.868222Z", "telemetry": {"lat": 28.7531128, "lon": 77.1177814, "satellites": 8, "altitude_gps_m": 213.3199920654297, "groundspeed_mps": 0.4014292359352112}, "flight": {"mode": "LOITER", "armed": false}, "ekf": {"attitude": {"roll": -0.03356947377324104, "pitch": -0.006680356804281473, "yaw": 3.044908046722412}, "local_position": {"x": 3.0637450218200684, "y": -9.14467716217041, "z": -4.3936357498168945}, "status": {"flags": 33599, "velocity_variance": 0.0980403795838356, "pos_horiz_variance": 0.02006806619465351, "pos_vert_variance": 0.05448146536946297}}, "errors": ["PreArm: Hardware safety switch", "PreArm: GPS glitching", "PreArm: Internal errors 0x100000 l:66 flow_of_ctrl", "PreArm: Hardware safety switch", "PreArm: GPS glitching", "PreArm: Internal errors 0x100000 l:66 flow_of_ctrl"]}
{"timestamp": "2025-12-28T10:46:49.868323Z", "telemetry": {"lat": 28.753103, "lon": 77.1177863, "satellites": 8, "altitude_gps_m": 213.3199920654297, "groundspeed_mps": 0.4160113036632538}, "flight": {"mode": "LOITER", "armed": false}, "ekf": {"attitude": {"roll": -0.03379285708069801, "pitch": -0.007544030901044607, "yaw": 3.0450401306152344}, "local_position": {"x": 2.8532779216766357, "y": -8.936158180236816, "z": -4.391620635986328}, "status": {"flags": 33599, "velocity_variance": 0.4689405560493469, "pos_horiz_variance": 0.006987459491938353, "pos_vert_variance": 0.08481109887361526}}, "errors": ["PreArm: Hardware safety switch", "PreArm: GPS glitching", "PreArm: Internal errors 0x100000 l:66 flow_of_ctrl", "PreArm: Hardware safety switch", "PreArm: GPS glitching", "PreArm: Internal errors 0x100000 l:66 flow_of_ctrl"]}
{"timestamp": "2025-12-28T10:46:50.868905Z", "telemetry": {"lat": 28.7530958, "lon": 77.1177908, "satellites": 8, "altitude_gps_m": 213.20999145507812, "groundspeed_mps": 0.5472303032875061}, "flight": {"mode": "LOITER", "armed": false}, "ekf": {"attitude": {"roll": -0.03424273803830147, "pitch": -0.008426686748862267, "yaw": 3.045046806335449}, "local_position": {"x": 2.1319401264190674, "y": -8.505441665649414, "z": -4.280350208282471}, "status": {"flags": 33599, "velocity_variance": 0.15609192848205566, "pos_horiz_variance": 0.006789941340684891, "pos_vert_variance": 0.02081606723368168}}, "errors": ["PreArm: Hardware safety switch", "PreArm: GPS glitching", "PreArm: Internal errors 0x100000 l:66 flow_of_ctrl", "PreArm: Hardware safety switch", "PreArm: GPS glitching", "PreArm: Internal errors 0x100000 l:66 flow_of_ctrl"]}
{"timestamp": "2025-12-28T10:46:51.868600Z", "telemetry": {"lat": 28.7530954, "lon": 77.1177915, "satellites": 9, "altitude_gps_m": 213.05999755859375, "groundspeed_mps": 0.4903865158557892}, "flight": {"mode": "LOITER", "armed": false}, "ekf": {"attitude": {"roll": -0.03362415358424187, "pitch": -0.006963021587580442, "yaw": 3.045105218887329}, "local_position": {"x": 1.9980876445770264, "y": -8.298335075378418, "z": -4.129290580749512}, "status": {"flags": 33599, "velocity_variance": 0.31192734837532043, "pos_horiz_variance": 0.0045216865837574005, "pos_vert_variance": 0.06432852894067764}}, "errors": ["PreArm: Hardware safety switch", "PreArm: GPS glitching", "PreArm: Internal errors 0x100000 l:66 flow_of_ctrl", "PreArm: Hardware safety switch", "PreArm: GPS glitching", "PreArm: Internal errors 0x100000 l:66 flow_of_ctrl"]}
{"timestamp": "2025-12-28T10:46:52.868422Z", "telemetry": {"lat": 28.7530974, "lon": 77.1177903, "satellites": 9, "altitude_gps_m": 213.00999450683594, "groundspeed_mps": 0.3482735753059387}, "flight": {"mode": "LOITER", "armed": false}, "ekf": {"attitude": {"roll": -0.03262851759791374, "pitch": -0.005088685546070337, "yaw": 3.045116424560547}, "local_position": {"x": 2.127929210662842, "y": -8.331079483032227, "z": -4.085939407348633}, "status": {"flags": 33599, "velocity_variance": 0.4336344003677368, "pos_horiz_variance": 0.005783444736152887, "pos_vert_variance": 0.003363402560353279}}, "errors": ["PreArm: Hardware safety switch", "PreArm: GPS glitching", "PreArm: Internal errors 0x100000 l:66 flow_of_ctrl", "PreArm: Hardware safety switch", "PreArm: GPS glitching", "PreArm: Internal errors 0x100000 l:66 flow_of_ctrl"]}
{"timestamp": "2025-12-28T10:46:53.867968Z", "telemetry": {"lat": 28.7530995, "lon": 77.11779, "satellites": 9, "altitude_gps_m": 213.01998901367188, "groundspeed_mps": 0.23542188107967377}, "flight": {"mode": "LOITER", "armed": false}, "ekf": {"attitude": {"roll": -0.03183552995324135, "pitch": -0.0035276622511446476, "yaw": 3.045154571533203}, "local_position": {"x": 2.210519790649414, "y": -8.372254371643066, "z": -4.0914506912231445}, "status": {"flags": 33599, "velocity_variance": 0.3304932713508606, "pos_horiz_variance": 0.008924564346671104, "pos_vert_variance": 0.05841176211833954}}, "errors": ["PreArm: Hardware safety switch", "PreArm: GPS glitching", "PreArm: Internal errors 0x100000 l:66 flow_of_ctrl", "PreArm: Hardware safety switch", "PreArm: GPS glitching", "PreArm: Internal errors 0x100000 l:66 flow_of_ctrl"]}
{"timestamp": "2025-12-28T10:46:54.867915Z", "telemetry": {"lat": 28.7531081, "lon": 77.1177839, "satellites": 9, "altitude_gps_m": 213.0800018310547, "groundspeed_mps": 0.10141301900148392}, "flight": {"mode": "LOITER", "armed": false}, "ekf": {"attitude": {"roll": -0.029517341405153275, "pitch": 0.0003029434010386467, "yaw": 3.045006513595581}, "local_position": {"x": 3.0152363777160645, "y": -8.857104301452637, "z": -4.15596342086792}, "status": {"flags": 33599, "velocity_variance": 0.44510236382484436, "pos_horiz_variance": 0.013182778842747211, "pos_vert_variance": 0.04574459418654442}}, "errors": ["PreArm: Hardware safety switch", "PreArm: GPS glitching", "PreArm: Internal errors 0x100000 l:66 flow_of_ctrl", "PreArm: Hardware safety switch", "PreArm: GPS glitching", "PreArm: Internal errors 0x100000 l:66 flow_of_ctrl"]}
{"timestamp": "2025-12-28T10:46:55.868811Z", "telemetry": {"lat": 28.7531153, "lon": 77.1177824, "satellites": 9, "altitude_gps_m": 213.1199951171875, "groundspeed_mps": 0.32475075125694275}, "flight": {"mode": "LOITER", "armed": false}, "ekf": {"attitude": {"roll": -0.02867044135928154, "pitch": 0.002467317273840308, "yaw": 3.0448808670043945}, "local_position": {"x": 3.76515793800354, "y": -9.170665740966797, "z": -4.197176456451416}, "status": {"flags": 33599, "velocity_variance": 0.2816764712333679, "pos_horiz_variance": 0.01606866903603077, "pos_vert_variance": 0.04707472771406174}}, "errors": ["PreArm: Hardware safety switch", "PreArm: GPS glitching", "PreArm: Internal errors 0x100000 l:66 flow_of_ctrl", "PreArm: Hardware safety switch", "PreArm: GPS glitching", "PreArm: Internal errors 0x100000 l:66 flow_of_ctrl"]}
{"timestamp": "2025-12-28T10:46:56.868222Z", "telemetry": {"lat": 28.7531183, "lon": 77.1177815, "satellites": 9, "altitude_gps_m": 213.12998962402344, "groundspeed_mps": 0.4857617914676666}, "flight": {"mode": "LOITER", "armed": false}, "ekf": {"attitude": {"roll": -0.028147626668214798, "pitch": 0.003474866272881627, "yaw": 3.0447988510131836}, "local_position": {"x": 4.428478240966797, "y": -9.422470092773438, "z": -4.205519676208496}, "status": {"flags": 33599, "velocity_variance": 0.05849491059780121, "pos_horiz_variance": 0.01058092899620533, "pos_vert_variance": 0.018200619146227837}}, "errors": ["PreArm: Hardware safety switch", "PreArm: GPS glitching", "PreArm: Internal errors 0x100000 l:66 flow_of_ctrl", "PreArm: Hardware safety switch", "PreArm: GPS glitching", "PreArm: Internal errors 0x100000 l:66 flow_of_ctrl"]}
{"timestamp": "2025-12-28T10:46:57.868570Z", "telemetry": {"lat": 28.7531279, "lon": 77.1177798, "satellites": 10, "altitude_gps_m": 213.1199951171875, "groundspeed_mps": 0.6012015342712402}, "flight": {"mode": "LOITER", "armed": false}, "ekf": {"attitude": {"roll": -0.028122548013925552, "pitch": 0.004488288890570402, "yaw": 3.044614791870117}, "local_position": {"x": 5.046369552612305, "y": -9.571589469909668, "z": -4.1958489418029785}, "status": {"flags": 33599, "velocity_variance": 0.432306706905365, "pos_horiz_variance": 0.019558919593691826, "pos_vert_variance": 0.013834528625011444}}, "errors": ["PreArm: Hardware safety switch", "PreArm: GPS glitching", "PreArm: Internal errors 0x100000 l:66 flow_of_ctrl", "PreArm: Hardware safety switch", "PreArm: GPS glitching", "PreArm: Internal errors 0x100000 l:66 flow_of_ctrl"]}
{"timestamp": "2025-12-28T10:46:58.868808Z", "telemetry": {"lat": 28.7531354, "lon": 77.1177745, "satellites": 10, "altitude_gps_m": 213.08999633789062, "groundspeed_mps": 0.728679358959198}, "flight": {"mode": "LOITER", "armed": false}, "ekf": {"attitude": {"roll": -0.02825963869690895, "pitch": 0.005110195837914944, "yaw": 3.044468879699707}, "local_position": {"x": 5.874684810638428, "y": -9.7450590133667, "z": -4.162036418914795}, "status": {"flags": 33599, "velocity_variance": 0.21045704185962677, "pos_horiz_variance": 0.01902126334607601, "pos_vert_variance": 0.07822434604167938}}, "errors": ["PreArm: Hardware safety switch", "PreArm: GPS glitching", "PreArm: Internal errors 0x100000 l:66 flow_of_ctrl", "PreArm: Hardware safety switch", "PreArm: GPS glitching", "PreArm: Internal errors 0x100000 l:66 flow_of_ctrl"]}
{"timestamp": "2025-12-28T10:46:59.868593Z", "telemetry": {"lat": 28.7531476, "lon": 77.1177709, "satellites": 10, "altitude_gps_m": 213.04998779296875, "groundspeed_mps": 0.8730849623680115}, "flight": {"mode": "LOITER", "armed": false}, "ekf": {"attitude": {"roll": -0.02850496396422386, "pitch": 0.005888596177101135, "yaw": 3.044386625289917}, "local_position": {"x": 6.92431640625, "y": -9.979728698730469, "z": -4.127772808074951}, "status": {"flags": 33599, "velocity_variance": 0.2705228626728058, "pos_horiz_variance": 0.027013415470719337, "pos_vert_variance": 0.02505847066640854}}, "errors": ["PreArm: Hardware safety switch", "PreArm: GPS glitching", "PreArm: Internal errors 0x100000 l:66 flow_of_ctrl", "PreArm: Hardware safety switch", "PreArm: GPS glitching", "PreArm: Internal errors 0x100000 l:66 flow_of_ctrl"]}
{"timestamp": "2025-12-28T10:47:00.868703Z", "telemetry": {"lat": 28.7531513, "lon": 77.1177691, "satellites": 10, "altitude_gps_m": 212.97000122070312, "groundspeed_mps": 0.908353328704834}, "flight": {"mode": "LOITER", "armed": false}, "ekf": {"attitude": {"roll": -0.02890625223517418, "pitch": 0.005335003603249788, "yaw": 3.044332981109619}, "local_position": {"x": 7.6912736892700195, "y": -10.14851188659668, "z": -4.048107624053955}, "status": {"flags": 33599, "velocity_variance": 0.2575318515300751, "pos_horiz_variance": 0.019714031368494034, "pos_vert_variance": 0.061848416924476624}}, "errors": ["PreArm: Hardware safety switch", "PreArm: GPS glitching", "PreArm: Internal errors 0x100000 l:66 flow_of_ctrl", "PreArm: Hardware safety switch", "PreArm: GPS glitching", "PreArm: Internal errors 0x100000 l:66 flow_of_ctrl"]}
{"timestamp": "2025-12-28T10:47:01.868834Z", "telemetry": {"lat": 28.7531563, "lon": 77.1177693, "satellites": 10, "altitude_gps_m": 212.989990234375, "groundspeed_mps": 0.9313181638717651}, "flight": {"mode": "LOITER", "armed": false}, "ekf": {"attitude": {"roll": -0.029491331428289413, "pitch": 0.004502603784203529, "yaw": 3.0441784858703613}, "local_position": {"x": 8.456907272338867, "y": -10.229393005371094, "z": -4.066471576690674}, "status": {"flags": 33599, "velocity_variance": 0.1857609897851944, "pos_horiz_variance": 0.01405984628945589, "pos_vert_variance": 0.06945725530385971}}, "errors": ["PreArm: Hardware safety switch", "PreArm: GPS glitching", "PreArm: Internal errors 0x100000 l:66 flow_of_ctrl", "PreArm: Hardware safety switch", "PreArm: GPS glitching", "PreArm: Internal errors 0x100000 l:66 flow_of_ctrl"]}
{"timestamp": "2025-12-28T10:47:02.868652Z", "telemetry": {"lat": 28.7531564, "lon": 77.1177685, "satellites": 10, "altitude_gps_m": 213.02999877929688, "groundspeed_mps": 0.8510234355926514}, "flight": {"mode": "LOITER", "armed": false}, "ekf": {"attitude": {"roll": -0.030071217566728592, "pitch": 0.0021661275532096624, "yaw": 3.0440900325775146}, "local_position": {"x": 8.885462760925293, "y": -10.266674041748047, "z": -4.099855422973633}, "status": {"flags": 33599, "velocity_variance": 0.28796806931495667, "pos_horiz_variance": 0.006882019340991974, "pos_vert_variance": 0.007546465378254652}}, "errors": ["PreArm: Hardware safety switch", "PreArm: GPS glitching", "PreArm: Internal errors 0x100000 l:66 flow_of_ctrl", "PreArm: Hardware safety switch", "PreArm: GPS glitching", "PreArm: Internal errors 0x100000 l:66 flow_of_ctrl", "PreArm: Hardware safety switch", "PreArm: GPS glitching", "PreArm: Internal errors 0x100000 l:66 flow_of_ctrl"]}
{"timestamp": "2025-12-28T10:47:03.868841Z", "telemetry": {"lat": 28.7531609, "lon": 77.1177689, "satellites": 10, "altitude_gps_m": 213.00999450683594, "groundspeed_mps": 0.7971200942993164}, "flight": {"mode": "LOITER", "armed": false}, "ekf": {"attitude": {"roll": -0.030938196927309036, "pitch": 0.0007008346728980541, "yaw": 3.04407000541687}, "local_position": {"x": 9.378891944885254, "y": -10.28958797454834, "z": -4.081817626953125}, "status": {"flags": 33599, "velocity_variance": 0.2965136170387268, "pos_horiz_variance": 0.004970538895577192, "pos_vert_variance": 0.03922990337014198}}, "errors": ["PreArm: Hardware safety switch", "PreArm: GPS glitching", "PreArm: Internal errors 0x100000 l:66 flow_of_ctrl", "PreArm: Hardware safety switch", "PreArm: GPS glitching", "PreArm: Internal errors 0x100000 l:66 flow_of_ctrl", "PreArm: Hardware safety switch", "PreArm: GPS glitching", "PreArm: Internal errors 0x100000 l:66 flow_of_ctrl"]}
{"timestamp": "2025-12-28T10:47:04.868569Z", "telemetry": {"lat": 28.7531622, "lon": 77.117773, "satellites": 10, "altitude_gps_m": 212.989990234375, "groundspeed_mps": 0.6650115251541138}, "flight": {"mode": "LOITER", "armed": false}, "ekf": {"attitude": {"roll": -0.032366540282964706, "pitch": -0.0014876541681587696, "yaw": 3.043980836868286}, "local_position": {"x": 9.60531234741211, "y": -10.063350677490234, "z": -4.063738822937012}, "status": {"flags": 33599, "velocity_variance": 0.3678136169910431, "pos_horiz_variance": 0.0024130537640303373, "pos_vert_variance": 0.048395805060863495}}, "errors": ["PreArm: Hardware safety switch", "PreArm: GPS glitching", "PreArm: Internal errors 0x100000 l:66 flow_of_ctrl", "PreArm: Hardware safety switch", "PreArm: GPS glitching", "PreArm: Internal errors 0x100000 l:66 flow_of_ctrl", "PreArm: Hardware safety switch", "PreArm: GPS glitching", "PreArm: Internal errors 0x100000 l:66 flow_of_ctrl"]}
{"timestamp": "2025-12-28T10:47:05.868557Z", "telemetry": {"lat": 28.753171, "lon": 77.1177762, "satellites": 10, "altitude_gps_m": 213.0800018310547, "groundspeed_mps": 0.6162044405937195}, "flight": {"mode": "LOITER", "armed": false}, "ekf": {"attitude": {"roll": -0.033296968787908554, "pitch": -0.002514841500669718, "yaw": 3.044179677963257}, "local_position": {"x": 10.061816215515137, "y": -9.787162780761719, "z": -4.153757095336914}, "status": {"flags": 33599, "velocity_variance": 0.4173339307308197, "pos_horiz_variance": 0.012203089892864227, "pos_vert_variance": 0.03466542065143585}}, "errors": ["PreArm: Hardware safety switch", "PreArm: GPS glitching", "PreArm: Internal errors 0x100000 l:66 flow_of_ctrl", "PreArm: Hardware safety switch", "PreArm: GPS glitching", "PreArm: Internal errors 0x100000 l:66 flow_of_ctrl", "PreArm: Hardware safety switch", "PreArm: GPS glitching", "PreArm: Internal errors 0x100000 l:66 flow_of_ctrl"]}
{"timestamp": "2025-12-28T10:47:06.867866Z", "telemetry": {"lat": 28.7531712, "lon": 77.1177787, "satellites": 10, "altitude_gps_m": 212.97999572753906, "groundspeed_mps": 0.539764404296875}, "flight": {"mode": "LOITER", "armed": false}, "ekf": {"attitude": {"roll": -0.03442094102501869, "pitch": -0.004280595574527979, "yaw": 3.0443456172943115}, "local_position": {"x": 10.365002632141113, "y": -9.522494316101074, "z": -4.053162097930908}, "status": {"flags": 33599, "velocity_variance": 0.3329995572566986, "pos_horiz_variance": 0.007562480866909027, "pos_vert_variance": 0.04016460105776787}}, "errors": ["PreArm: Hardware safety switch", "PreArm: GPS glitching", "PreArm: Internal errors 0x100000 l:66 flow_of_ctrl", "PreArm: Hardware safety switch", "PreArm: GPS glitching", "PreArm: Internal errors 0x100000 l:66 flow_of_ctrl", "PreArm: Hardware safety switch", "PreArm: GPS glitching", "PreArm: Internal errors 0x100000 l:66 flow_of_ctrl"]}
{"timestamp": "2025-12-28T10:47:07.867926Z", "telemetry": {"lat": 28.7531771, "lon": 77.1177786, "satellites": 10, "altitude_gps_m": 212.97000122070312, "groundspeed_mps": 0.5603827238082886}, "flight": {"mode": "LOITER", "armed": false}, "ekf": {"attitude": {"roll": -0.034259017556905746, "pitch": -0.004261786583811045, "yaw": 3.0444138050079346}, "local_position": {"x": 11.007513999938965, "y": -9.475923538208008, "z": -4.043720722198486}, "status": {"flags": 33599, "velocity_variance": 0.3383248746395111, "pos_horiz_variance": 0.007235311437398195, "pos_vert_variance": 0.01776687614619732}}, "errors": ["PreArm: Hardware safety switch", "PreArm: GPS glitching", "PreArm: Internal errors 0x100000 l:66 flow_of_ctrl", "PreArm: Hardware safety switch", "PreArm: GPS glitching", "PreArm: Internal errors 0x100000 l:66 flow_of_ctrl", "PreArm: Hardware safety switch", "PreArm: GPS glitching", "PreArm: Internal errors 0x100000 l:66 flow_of_ctrl"]}
