{"timestamp": "2026-01-15T11:40:52.996364Z", "telemetry": {"lat": 28.7531307, "lon": 77.117795, "satellites": 6, "altitude_gps_m": 197.7899932861328, "groundspeed_mps": 0.5165872573852539}, "flight": {"mode": null, "armed": null}, "ekf": {"attitude": {"roll": -0.029100988060235977, "pitch": 0.06289244443178177, "yaw": -1.5569307804107666}, "local_position": {"x": 4.330719470977783, "y": -7.172603607177734, "z": 9.872215270996094}, "status": {"flags": 33599, "velocity_variance": 0.40981289744377136, "pos_horiz_variance": 0.023380182683467865, "pos_vert_variance": 0.016677331179380417}}, "errors": []}
{"timestamp": "2026-01-15T11:40:54.031184Z", "telemetry": {"lat": 28.7531276, "lon": 77.1177937, "satellites": 6, "altitude_gps_m": 197.63999938964844, "groundspeed_mps": 0.5058583617210388}, "flight": {"mode": "STABILIZE", "armed": false}, "ekf": {"attitude": {"roll": -0.030473951250314713, "pitch": 0.06303133815526962, "yaw": -1.5651006698608398}, "local_position": {"x": 4.484363079071045, "y": -7.129695415496826, "z": 10.00719165802002}, "status": {"flags": 33599, "velocity_variance": 0.4405311048030853, "pos_horiz_variance": 0.022428030148148537, "pos_vert_variance": 0.020435195416212082}}, "errors": []}
{"timestamp": "2026-01-15T11:40:55.000471Z", "telemetry": {"lat": 28.7531253, "lon": 77.1177868, "satellites": 6, "altitude_gps_m": 197.58999633789062, "groundspeed_mps": 0.5769025087356567}, "flight": {"mode": "STABILIZE", "armed": false}, "ekf": {"attitude": {"roll": -0.03147405758500099, "pitch": 0.0621519573032856, "yaw": -1.5735764503479004}, "local_position": {"x": 4.404831409454346, "y": -7.473859786987305, "z": 10.029760360717773}, "status": {"flags": 33599, "velocity_variance": 0.3928101360797882, "pos_horiz_variance": 0.01777668669819832, "pos_vert_variance": 0.05058792605996132}}, "errors": []}
{"timestamp": "2026-01-15T11:40:55.980958Z", "telemetry": {"lat": 28.7531235, "lon": 77.1177876, "satellites": 5, "altitude_gps_m": 197.52999877929688, "groundspeed_mps": 0.5713506937026978}, "flight": {"mode": "STABILIZE", "armed": false}, "ekf": {"attitude": {"roll": -0.033844832330942154, "pitch": 0.06559132039546967, "yaw": -1.5810576677322388}, "local_position": {"x": 4.395837306976318, "y": -7.772261619567871, "z": 10.088698387145996}, "status": {"flags": 33599, "velocity_variance": 0.3387070894241333, "pos_horiz_variance": 0.024275487288832664, "pos_vert_variance": 0.06864956021308899}}, "errors": []}
{"timestamp": "2026-01-15T11:40:56.999256Z", "telemetry": {"lat": 28.7531193, "lon": 77.1177866, "satellites": 6, "altitude_gps_m": 197.47000122070312, "groundspeed_mps": 0.5335886478424072}, "flight": {"mode": "STABILIZE", "armed": false}, "ekf": {"attitude": {"roll": -0.03891933336853981, "pitch": 0.06816573441028595, "yaw": -1.5889918804168701}, "local_position": {"x": 4.042052745819092, "y": -7.748032569885254, "z": 10.188719749450684}, "status": {"flags": 33599, "velocity_variance": 0.23897403478622437, "pos_horiz_variance": 0.024736562743782997, "pos_vert_variance": 0.011886751279234886}}, "errors": []}
{"timestamp": "2026-01-15T11:40:58.003218Z", "telemetry": {"lat": 28.7531221, "lon": 77.1177882, "satellites": 6, "altitude_gps_m": 197.44000244140625, "groundspeed_mps": 0.44236353039741516}, "flight": {"mode": "STABILIZE", "armed": false}, "ekf": {"attitude": {"roll": -0.036482203751802444, "pitch": 0.06534440815448761, "yaw": -1.5959123373031616}, "local_position": {"x": 3.7058050632476807, "y": -7.678851127624512, "z": 10.20997428894043}, "status": {"flags": 33599, "velocity_variance": 0.2590024471282959, "pos_horiz_variance": 0.019774092361330986, "pos_vert_variance": 0.07410816103219986}}, "errors": []}
{"timestamp": "2026-01-15T11:40:59.002732Z", "telemetry": {"lat": 28.7531187, "lon": 77.1177876, "satellites": 6, "altitude_gps_m": 197.42999267578125, "groundspeed_mps": 0.4091652035713196}, "flight": {"mode": "STABILIZE", "armed": false}, "ekf": {"attitude": {"roll": -0.03845209255814552, "pitch": 0.06604529172182083, "yaw": -1.6030610799789429}, "local_position": {"x": 3.5512921810150146, "y": -7.59591007232666, "z": 10.204097747802734}, "status": {"flags": 33599, "velocity_variance": 0.2929598093032837, "pos_horiz_variance": 0.01936817541718483, "pos_vert_variance": 0.03751259297132492}}, "errors": []}
{"timestamp": "2026-01-15T11:41:00.004375Z", "telemetry": {"lat": 28.7531137, "lon": 77.1177832, "satellites": 6, "altitude_gps_m": 197.5, "groundspeed_mps": 0.45034924149513245}, "flight": {"mode": "STABILIZE", "armed": false}, "ekf": {"attitude": {"roll": -0.039010073989629745, "pitch": 0.06628704816102982, "yaw": -1.6098936796188354}, "local_position": {"x": 3.180946111679077, "y": -7.831902027130127, "z": 10.150686264038086}, "status": {"flags": 33599, "velocity_variance": 0.3590732514858246, "pos_horiz_variance": 0.01818814128637314, "pos_vert_variance": 0.035722438246011734}}, "errors": []}
{"timestamp": "2026-01-15T11:41:01.021721Z", "telemetry": {"lat": 28.7531078, "lon": 77.1177792, "satellites": 6, "altitude_gps_m": 197.5399932861328, "groundspeed_mps": 0.5002641081809998}, "flight": {"mode": "STABILIZE", "armed": false}, "ekf": {"attitude": {"roll": -0.04019227996468544, "pitch": 0.06705811619758606, "yaw": -1.616843819618225}, "local_position": {"x": 2.8444459438323975, "y": -8.087379455566406, "z": 10.147807121276855}, "status": {"flags": 33599, "velocity_variance": 0.4863058626651764, "pos_horiz_variance": 0.021654441952705383, "pos_vert_variance": 0.03831055760383606}}, "errors": []}
{"timestamp": "2026-01-15T11:41:02.021440Z", "telemetry": {"lat": 28.7531066, "lon": 77.1177757, "satellites": 7, "altitude_gps_m": 197.55999755859375, "groundspeed_mps": 0.4835929870605469}, "flight": {"mode": "STABILIZE", "armed": false}, "ekf": {"attitude": {"roll": -0.03958840295672417, "pitch": 0.06533265113830566, "yaw": -1.623233675956726}, "local_position": {"x": 2.4325921535491943, "y": -8.163177490234375, "z": 10.092273712158203}, "status": {"flags": 33599, "velocity_variance": 0.4267941117286682, "pos_horiz_variance": 0.01476412732154131, "pos_vert_variance": 0.09995060414075851}}, "errors": []}
{"timestamp": "2026-01-15T11:41:03.022154Z", "telemetry": {"lat": 28.7531086, "lon": 77.1177733, "satellites": 7, "altitude_gps_m": 197.5699920654297, "groundspeed_mps": 0.3484560251235962}, "flight": {"mode": "STABILIZE", "armed": false}, "ekf": {"attitude": {"roll": -0.03950498625636101, "pitch": 0.06805630028247833, "yaw": -1.6298151016235352}, "local_position": {"x": 2.3248298168182373, "y": -7.760258674621582, "z": 10.085954666137695}, "status": {"flags": 33599, "velocity_variance": 0.3531390428543091, "pos_horiz_variance": 0.009602951817214489, "pos_vert_variance": 0.045111075043678284}}, "errors": []}
{"timestamp": "2026-01-15T11:41:03.991118Z", "telemetry": {"lat": 28.7531104, "lon": 77.1177666, "satellites": 7, "altitude_gps_m": 197.63999938964844, "groundspeed_mps": 0.40244829654693604}, "flight": {"mode": "STABILIZE", "armed": false}, "ekf": {"attitude": {"roll": -0.03886159136891365, "pitch": 0.06679212301969528, "yaw": -1.6355621814727783}, "local_position": {"x": 2.1781723499298096, "y": -8.117350578308105, "z": 10.022175788879395}, "status": {"flags": 33599, "velocity_variance": 0.2792283594608307, "pos_horiz_variance": 0.011849291622638702, "pos_vert_variance": 0.0038366694934666157}}, "errors": []}
{"timestamp": "2026-01-15T11:41:04.990629Z", "telemetry": {"lat": 28.7531132, "lon": 77.1177553, "satellites": 7, "altitude_gps_m": 197.6999969482422, "groundspeed_mps": 0.4292919635772705}, "flight": {"mode": "STABILIZE", "armed": false}, "ekf": {"attitude": {"roll": -0.039319779723882675, "pitch": 0.06666945666074753, "yaw": -1.6418592929840088}, "local_position": {"x": 2.247558832168579, "y": -8.801595687866211, "z": 9.953357696533203}, "status": {"flags": 33599, "velocity_variance": 0.31030383706092834, "pos_horiz_variance": 0.0192690622061491, "pos_vert_variance": 0.0672394186258316}}, "errors": []}
{"timestamp": "2026-01-15T11:41:06.010137Z", "telemetry": {"lat": 28.7531136, "lon": 77.1177488, "satellites": 7, "altitude_gps_m": 197.72999572753906, "groundspeed_mps": 0.5426632165908813}, "flight": {"mode": "STABILIZE", "armed": false}, "ekf": {"attitude": {"roll": -0.03943889960646629, "pitch": 0.06547331064939499, "yaw": -1.6477766036987305}, "local_position": {"x": 2.075591802597046, "y": -9.386430740356445, "z": 9.924471855163574}, "status": {"flags": 33599, "velocity_variance": 0.4050334095954895, "pos_horiz_variance": 0.022738756611943245, "pos_vert_variance": 0.11703253537416458}}, "errors": []}
{"timestamp": "2026-01-15T11:41:07.010022Z", "telemetry": {"lat": 28.7531127, "lon": 77.1177451, "satellites": 7, "altitude_gps_m": 197.6699981689453, "groundspeed_mps": 0.5714084506034851}, "flight": {"mode": "STABILIZE", "armed": false}, "ekf": {"attitude": {"roll": -0.040141310542821884, "pitch": 0.06607024371623993, "yaw": -1.6539113521575928}, "local_position": {"x": 1.8214747905731201, "y": -9.955255508422852, "z": 9.979318618774414}, "status": {"flags": 33599, "velocity_variance": 0.38610488176345825, "pos_horiz_variance": 0.01973867416381836, "pos_vert_variance": 0.02584570087492466}}, "errors": []}
{"timestamp": "2026-01-15T11:41:07.980925Z", "telemetry": {"lat": 28.7531107, "lon": 77.1177425, "satellites": 7, "altitude_gps_m": 197.6999969482422, "groundspeed_mps": 0.5958825349807739}, "flight": {"mode": "STABILIZE", "armed": false}, "ekf": {"attitude": {"roll": -0.04024389758706093, "pitch": 0.06604362279176712, "yaw": -1.6597554683685303}, "local_position": {"x": 1.478063702583313, "y": -10.240972518920898, "z": 9.95202350616455}, "status": {"flags": 33599, "velocity_variance": 0.32165640592575073, "pos_horiz_variance": 0.021242540329694748, "pos_vert_variance": 0.0321655310690403}}, "errors": []}
{"timestamp": "2026-01-15T11:41:08.980442Z", "telemetry": {"lat": 28.7531109, "lon": 77.1177384, "satellites": 7, "altitude_gps_m": 197.6199951171875, "groundspeed_mps": 0.6020228266716003}, "flight": {"mode": "STABILIZE", "armed": false}, "ekf": {"attitude": {"roll": -0.04010238125920296, "pitch": 0.06644217669963837, "yaw": -1.6652387380599976}, "local_position": {"x": 1.345906138420105, "y": -10.775476455688477, "z": 10.029706001281738}, "status": {"flags": 33599, "velocity_variance": 0.5296120047569275, "pos_horiz_variance": 0.020096298307180405, "pos_vert_variance": 0.004353976342827082}}, "errors": []}
{"timestamp": "2026-01-15T11:41:09.980184Z", "telemetry": {"lat": 28.7531143, "lon": 77.1177368, "satellites": 7, "altitude_gps_m": 197.5399932861328, "groundspeed_mps": 0.568702220916748}, "flight": {"mode": "STABILIZE", "armed": false}, "ekf": {"attitude": {"roll": -0.039747755974531174, "pitch": 0.06689347326755524, "yaw": -1.6707919836044312}, "local_position": {"x": 1.2950518131256104, "y": -11.178732872009277, "z": 10.111468315124512}, "status": {"flags": 33599, "velocity_variance": 0.24821051955223083, "pos_horiz_variance": 0.023933444172143936, "pos_vert_variance": 0.027206910774111748}}, "errors": []}
{"timestamp": "2026-01-15T11:41:11.011192Z", "telemetry": {"lat": 28.7531199, "lon": 77.1177333, "satellites": 7, "altitude_gps_m": 197.5, "groundspeed_mps": 0.5737512111663818}, "flight": {"mode": "STABILIZE", "armed": false}, "ekf": {"attitude": {"roll": -0.007150501012802124, "pitch": 0.03792819008231163, "yaw": -1.6673433780670166}, "local_position": {"x": 1.5529617071151733, "y": -11.630743980407715, "z": 10.151273727416992}, "status": {"flags": 33599, "velocity_variance": 0.3208102285861969, "pos_horiz_variance": 0.02973312698304653, "pos_vert_variance": 0.049846574664115906}}, "errors": []}
{"timestamp": "2026-01-15T11:41:12.011057Z", "telemetry": {"lat": 28.7531195, "lon": 77.1177298, "satellites": 7, "altitude_gps_m": 197.64999389648438, "groundspeed_mps": 0.6705368161201477}, "flight": {"mode": "STABILIZE", "armed": false}, "ekf": {"attitude": {"roll": -0.010220739990472794, "pitch": 0.08397143334150314, "yaw": -1.7621575593948364}, "local_position": {"x": 1.5410922765731812, "y": -11.937241554260254, "z": 10.101476669311523}, "status": {"flags": 33599, "velocity_variance": 0.2030230462551117, "pos_horiz_variance": 0.029667800292372704, "pos_vert_variance": 0.08662071079015732}}, "errors": []}
{"timestamp": "2026-01-15T11:41:13.010813Z", "telemetry": {"lat": 28.7531335, "lon": 77.117738, "satellites": 7, "altitude_gps_m": 198.01998901367188, "groundspeed_mps": 0.5855638980865479}, "flight": {"mode": "STABILIZE", "armed": false}, "ekf": {"attitude": {"roll": -0.16603441536426544, "pitch": 0.046562325209379196, "yaw": -2.8306241035461426}, "local_position": {"x": 2.2764062881469727, "y": -12.14777660369873, "z": 9.630647659301758}, "status": {"flags": 33599, "velocity_variance": 0.4767065942287445, "pos_horiz_variance": 0.042403947561979294, "pos_vert_variance": 0.04528171941637993}}, "errors": []}
{"timestamp": "2026-01-15T11:41:14.030579Z", "telemetry": {"lat": 28.7531362, "lon": 77.1177359, "satellites": 7, "altitude_gps_m": 198.0699920654297, "groundspeed_mps": 0.22511976957321167}, "flight": {"mode": "STABILIZE", "armed": false}, "ekf": {"attitude": {"roll": -0.07004950940608978, "pitch": 0.07783229649066925, "yaw": 3.099827289581299}, "local_position": {"x": 3.111095666885376, "y": -11.81645393371582, "z": 9.586729049682617}, "status": {"flags": 33599, "velocity_variance": 0.30226320028305054, "pos_horiz_variance": 0.03426080569624901, "pos_vert_variance": 0.046188950538635254}}, "errors": []}
{"timestamp": "2026-01-15T11:41:15.000124Z", "telemetry": {"lat": 28.7531364, "lon": 77.1177311, "satellites": 7, "altitude_gps_m": 198.20999145507812, "groundspeed_mps": 0.2880386710166931}, "flight": {"mode": "STABILIZE", "armed": false}, "ekf": {"attitude": {"roll": 0.17090605199337006, "pitch": 0.08824990689754486, "yaw": 2.4369609355926514}, "local_position": {"x": 3.371152400970459, "y": -12.167469024658203, "z": 9.488768577575684}, "status": {"flags": 33599, "velocity_variance": 0.1903565376996994, "pos_horiz_variance": 0.030689822509884834, "pos_vert_variance": 0.006433556322008371}}, "errors": []}
{"timestamp": "2026-01-15T11:41:15.999499Z", "telemetry": {"lat": 28.7531431, "lon": 77.1177371, "satellites": 7, "altitude_gps_m": 198.19000244140625, "groundspeed_mps": 0.261801153421402}, "flight": {"mode": "STABILIZE", "armed": false}, "ekf": {"attitude": {"roll": 0.15069344639778137, "pitch": -0.036098793148994446, "yaw": 0.5835514664649963}, "local_position": {"x": 3.949399948120117, "y": -11.875091552734375, "z": 9.464240074157715}, "status": {"flags": 33599, "velocity_variance": 0.5061948895454407, "pos_horiz_variance": 0.03299515321850777, "pos_vert_variance": 0.02960186079144478}}, "errors": []}
{"timestamp": "2026-01-15T11:41:16.999464Z", "telemetry": {"lat": 28.7531541, "lon": 77.1177395, "satellites": 7, "altitude_gps_m": 198.19000244140625, "groundspeed_mps": 0.9137800335884094}, "flight": {"mode": "STABILIZE", "armed": false}, "ekf": {"attitude": {"roll": 0.12995295226573944, "pitch": -0.05535343661904335, "yaw": -0.11202801764011383}, "local_position": {"x": 4.789458274841309, "y": -10.883946418762207, "z": 9.462942123413086}, "status": {"flags": 33599, "velocity_variance": 0.5686461329460144, "pos_horiz_variance": 0.03961241617798805, "pos_vert_variance": 0.037391938269138336}}, "errors": []}
{"timestamp": "2026-01-15T11:41:17.999144Z", "telemetry": {"lat": 28.7531641, "lon": 77.1177376, "satellites": 7, "altitude_gps_m": 198.20999145507812, "groundspeed_mps": 0.8095093369483948}, "flight": {"mode": "STABILIZE", "armed": false}, "ekf": {"attitude": {"roll": 0.09249299764633179, "pitch": -0.06305314600467682, "yaw": -0.4332347810268402}, "local_position": {"x": 5.714333534240723, "y": -10.880931854248047, "z": 9.447684288024902}, "status": {"flags": 33599, "velocity_variance": 0.41551101207733154, "pos_horiz_variance": 0.03984757512807846, "pos_vert_variance": 0.04279283806681633}}, "errors": []}
{"timestamp": "2026-01-15T11:41:19.003032Z", "telemetry": {"lat": 28.7531646, "lon": 77.1177305, "satellites": 7, "altitude_gps_m": 198.13999938964844, "groundspeed_mps": 1.069203495979309}, "flight": {"mode": "STABILIZE", "armed": false}, "ekf": {"attitude": {"roll": -0.03422875329852104, "pitch": -0.07278989255428314, "yaw": -0.8019733428955078}, "local_position": {"x": 6.8545918464660645, "y": -11.003125190734863, "z": 9.515536308288574}, "status": {"flags": 33599, "velocity_variance": 0.38754862546920776, "pos_horiz_variance": 0.031180791556835175, "pos_vert_variance": 0.011721552349627018}}, "errors": []}
{"timestamp": "2026-01-15T11:41:20.032775Z", "telemetry": {"lat": 28.7531667, "lon": 77.1177287, "satellites": 7, "altitude_gps_m": 198.00999450683594, "groundspeed_mps": 1.12139093875885}, "flight": {"mode": "STABILIZE", "armed": false}, "ekf": {"attitude": {"roll": -0.09247057139873505, "pitch": 0.016270212829113007, "yaw": -1.0896046161651611}, "local_position": {"x": 7.56252908706665, "y": -11.13189697265625, "z": 9.648539543151855}, "status": {"flags": 33599, "velocity_variance": 0.3873947858810425, "pos_horiz_variance": 0.02652016468346119, "pos_vert_variance": 0.05294013023376465}}, "errors": ["PreArm: Hardware safety switch"]}
{"timestamp": "2026-01-15T11:41:21.037776Z", "telemetry": {"lat": 28.7531649, "lon": 77.117737, "satellites": 7, "altitude_gps_m": 197.95999145507812, "groundspeed_mps": 1.1118690967559814}, "flight": {"mode": "STABILIZE", "armed": false}, "ekf": {"attitude": {"roll": 0.009268246591091156, "pitch": 0.0674695149064064, "yaw": -1.237062931060791}, "local_position": {"x": 7.917712688446045, "y": -10.769307136535645, "z": 9.691040992736816}, "status": {"flags": 33599, "velocity_variance": 0.11011750251054764, "pos_horiz_variance": 0.01608145795762539, "pos_vert_variance": 0.04938244819641113}}, "errors": ["PreArm: Hardware safety switch"]}
{"timestamp": "2026-01-15T11:41:21.998494Z", "telemetry": {"lat": 28.7531559, "lon": 77.1177466, "satellites": 7, "altitude_gps_m": 198.12998962402344, "groundspeed_mps": 0.9907351732254028}, "flight": {"mode": "STABILIZE", "armed": false}, "ekf": {"attitude": {"roll": -0.029071126133203506, "pitch": 0.023678984493017197, "yaw": -1.8670483827590942}, "local_position": {"x": 8.181217193603516, "y": -10.188495635986328, "z": 9.52412223815918}, "status": {"flags": 33599, "velocity_variance": 0.4577426612377167, "pos_horiz_variance": 0.015681998804211617, "pos_vert_variance": 0.01177581399679184}}, "errors": ["PreArm: Hardware safety switch"]}
{"timestamp": "2026-01-15T11:41:23.005518Z", "telemetry": {"lat": 28.753156, "lon": 77.1177385, "satellites": 6, "altitude_gps_m": 198.1699981689453, "groundspeed_mps": 0.7188571095466614}, "flight": {"mode": "STABILIZE", "armed": false}, "ekf": {"attitude": {"roll": -0.07010450959205627, "pitch": -0.04421789199113846, "yaw": -2.2723164558410645}, "local_position": {"x": 8.004386901855469, "y": -10.546070098876953, "z": 9.488424301147461}, "status": {"flags": 33599, "velocity_variance": 0.6850311160087585, "pos_horiz_variance": 0.0193187166005373, "pos_vert_variance": 0.04391617700457573}}, "errors": ["PreArm: Hardware safety switch"]}
{"timestamp": "2026-01-15T11:41:24.005143Z", "telemetry": {"lat": 28.7531444, "lon": 77.1177398, "satellites": 6, "altitude_gps_m": 198.09999084472656, "groundspeed_mps": 0.42980122566223145}, "flight": {"mode": "STABILIZE", "armed": false}, "ekf": {"attitude": {"roll": -0.06816841661930084, "pitch": -0.0738026425242424, "yaw": -2.2124650478363037}, "local_position": {"x": 7.562533378601074, "y": -10.58032512664795, "z": 9.553656578063965}, "status": {"flags": 33599, "velocity_variance": 0.4813522398471832, "pos_horiz_variance": 0.030264317989349365, "pos_vert_variance": 0.006793813314288855}}, "errors": ["PreArm: Hardware safety switch"]}
{"timestamp": "2026-01-15T11:41:25.005295Z", "telemetry": {"lat": 28.7531426, "lon": 77.1177234, "satellites": 6, "altitude_gps_m": 198.0699920654297, "groundspeed_mps": 0.15717263519763947}, "flight": {"mode": "STABILIZE", "armed": false}, "ekf": {"attitude": {"roll": -0.029642675071954727, "pitch": -0.08220603317022324, "yaw": -2.2722902297973633}, "local_position": {"x": 7.1220927238464355, "y": -11.212565422058105, "z": 9.582816123962402}, "status": {"flags": 33599, "velocity_variance": 0.5970782041549683, "pos_horiz_variance": 0.03542059287428856, "pos_vert_variance": 0.06466799974441528}}, "errors": ["PreArm: Hardware safety switch"]}
{"timestamp": "2026-01-15T11:41:26.005178Z", "telemetry": {"lat": 28.753152, "lon": 77.1177125, "satellites": 4, "altitude_gps_m": 198.0699920654297, "groundspeed_mps": 0.06849908828735352}, "flight": {"mode": "STABILIZE", "armed": false}, "ekf": {"attitude": {"roll": -0.03951394930481911, "pitch": -0.12471576780080795, "yaw": -2.1670119762420654}, "local_position": {"x": 7.124531269073486, "y": -11.791108131408691, "z": 9.583391189575195}, "status": {"flags": 33599, "velocity_variance": 0.33368444442749023, "pos_horiz_variance": 0.03347935527563095, "pos_vert_variance": 0.11423476040363312}}, "errors": ["PreArm: Hardware safety switch"]}
{"timestamp": "2026-01-15T11:41:26.992616Z", "telemetry": {"lat": 28.7531535, "lon": 77.1177112, "satellites": 4, "altitude_gps_m": 198.09999084472656, "groundspeed_mps": 0.26983770728111267}, "flight": {"mode": "STABILIZE", "armed": false}, "ekf": {"attitude": {"roll": -0.07784728705883026, "pitch": -0.12838219106197357, "yaw": -2.2810189723968506}, "local_position": {"x": 7.209595203399658, "y": -12.007730484008789, "z": 9.546366691589355}, "status": {"flags": 33599, "velocity_variance": 0.21658119559288025, "pos_horiz_variance": 0.031151393428444862, "pos_vert_variance": 0.013624166138470173}}, "errors": ["PreArm: Hardware safety switch"]}
{"timestamp": "2026-01-15T11:41:27.993015Z", "telemetry": {"lat": 28.7531449, "lon": 77.117713, "satellites": 4, "altitude_gps_m": 198.1199951171875, "groundspeed_mps": 0.3483566343784332}, "flight": {"mode": "STABILIZE", "armed": false}, "ekf": {"attitude": {"roll": -0.08213222026824951, "pitch": -0.12475857883691788, "yaw": -2.3096916675567627}, "local_position": {"x": 7.189140319824219, "y": -12.363035202026367, "z": 9.550548553466797}, "status": {"flags": 33599, "velocity_variance": 0.2694917321205139, "pos_horiz_variance": 0.027301395311951637, "pos_vert_variance": 0.10714918375015259}}, "errors": ["PreArm: Hardware safety switch"]}
{"timestamp": "2026-01-15T11:41:29.022678Z", "telemetry": {"lat": 28.7531477, "lon": 77.117721, "satellites": 4, "altitude_gps_m": 198.08999633789062, "groundspeed_mps": 0.4700975716114044}, "flight": {"mode": "STABILIZE", "armed": false}, "ekf": {"attitude": {"roll": -0.09586910903453827, "pitch": -0.13145023584365845, "yaw": -2.2935900688171387}, "local_position": {"x": 6.898611068725586, "y": -12.782470703125, "z": 9.563861846923828}, "status": {"flags": 33599, "velocity_variance": 0.2069939821958542, "pos_horiz_variance": 0.009724230505526066, "pos_vert_variance": 0.10164916515350342}}, "errors": ["PreArm: Hardware safety switch"]}
{"timestamp": "2026-01-15T11:41:30.007706Z", "telemetry": {"lat": 28.7531507, "lon": 77.1177242, "satellites": 4, "altitude_gps_m": 198.239990234375, "groundspeed_mps": 0.6115987300872803}, "flight": {"mode": "STABILIZE", "armed": false}, "ekf": {"attitude": {"roll": -0.10112836956977844, "pitch": -0.14095225930213928, "yaw": -2.274852991104126}, "local_position": {"x": 6.734129428863525, "y": -13.097631454467773, "z": 9.458341598510742}, "status": {"flags": 33599, "velocity_variance": 0.34324532747268677, "pos_horiz_variance": 0.002455272013321519, "pos_vert_variance": 0.029370633885264397}}, "errors": ["PreArm: Hardware safety switch"]}
{"timestamp": "2026-01-15T11:41:31.026013Z", "telemetry": {"lat": 28.7531277, "lon": 77.1177102, "satellites": 4, "altitude_gps_m": 198.30999755859375, "groundspeed_mps": 0.8251776099205017}, "flight": {"mode": "STABILIZE", "armed": false}, "ekf": {"attitude": {"roll": -0.10958114266395569, "pitch": -0.14432059228420258, "yaw": -2.2660961151123047}, "local_position": {"x": 6.162200450897217, "y": -13.713251113891602, "z": 9.302443504333496}, "status": {"flags": 33599, "velocity_variance": 0.37303581833839417, "pos_horiz_variance": 0.02439892292022705, "pos_vert_variance": 0.014305053278803825}}, "errors": ["PreArm: Hardware safety switch"]}
{"timestamp": "2026-01-15T11:41:32.025704Z", "telemetry": {"lat": 28.7531192, "lon": 77.1177145, "satellites": 6, "altitude_gps_m": 198.19000244140625, "groundspeed_mps": 0.9519324898719788}, "flight": {"mode": "STABILIZE", "armed": false}, "ekf": {"attitude": {"roll": -0.12849962711334229, "pitch": -0.1209673210978508, "yaw": -2.2736551761627197}, "local_position": {"x": 4.975092887878418, "y": -14.052627563476562, "z": 9.464717864990234}, "status": {"flags": 33599, "velocity_variance": 0.4798029065132141, "pos_horiz_variance": 0.01914648711681366, "pos_vert_variance": 0.018194235861301422}}, "errors": ["PreArm: Hardware safety switch"]}
{"timestamp": "2026-01-15T11:41:32.994982Z", "telemetry": {"lat": 28.7531085, "lon": 77.1177216, "satellites": 6, "altitude_gps_m": 198.17999267578125, "groundspeed_mps": 0.9337358474731445}, "flight": {"mode": "STABILIZE", "armed": false}, "ekf": {"attitude": {"roll": -0.18882597982883453, "pitch": -0.06537777185440063, "yaw": -2.50191593170166}, "local_position": {"x": 4.050265789031982, "y": -12.913925170898438, "z": 9.472768783569336}, "status": {"flags": 33599, "velocity_variance": 0.5395895838737488, "pos_horiz_variance": 0.024979397654533386, "pos_vert_variance": 0.02346769906580448}}, "errors": ["PreArm: Hardware safety switch"]}
{"timestamp": "2026-01-15T11:41:33.995179Z", "telemetry": {"lat": 28.7530979, "lon": 77.1177206, "satellites": 6, "altitude_gps_m": 198.239990234375, "groundspeed_mps": 1.025399923324585}, "flight": {"mode": "STABILIZE", "armed": false}, "ekf": {"attitude": {"roll": -0.15476645529270172, "pitch": -0.12486997991800308, "yaw": -2.1703524589538574}, "local_position": {"x": 3.2124924659729004, "y": -12.844508171081543, "z": 9.414630889892578}, "status": {"flags": 33599, "velocity_variance": 0.45707404613494873, "pos_horiz_variance": 0.028826069086790085, "pos_vert_variance": 0.02426007390022278}}, "errors": ["PreArm: Hardware safety switch"]}
{"timestamp": "2026-01-15T11:41:34.994281Z", "telemetry": {"lat": 28.7530889, "lon": 77.1177219, "satellites": 6, "altitude_gps_m": 198.12998962402344, "groundspeed_mps": 1.0108228921890259}, "flight": {"mode": "STABILIZE", "armed": false}, "ekf": {"attitude": {"roll": -0.10552825033664703, "pitch": 0.08201040327548981, "yaw": -2.851392984390259}, "local_position": {"x": 2.240940570831299, "y": -12.72464370727539, "z": 9.523475646972656}, "status": {"flags": 33599, "velocity_variance": 0.4186488687992096, "pos_horiz_variance": 0.02799362875521183, "pos_vert_variance": 0.049358632415533066}}, "errors": ["PreArm: Hardware safety switch"]}
{"timestamp": "2026-01-15T11:41:35.997990Z", "telemetry": {"lat": 28.7530894, "lon": 77.1177339, "satellites": 6, "altitude_gps_m": 198.09999084472656, "groundspeed_mps": 0.928746223449707}, "flight": {"mode": "STABILIZE", "armed": false}, "ekf": {"attitude": {"roll": -0.06421387195587158, "pitch": -0.02299311012029648, "yaw": -2.702813148498535}, "local_position": {"x": 1.7420995235443115, "y": -12.362933158874512, "z": 9.557782173156738}, "status": {"flags": 33599, "velocity_variance": 0.7317940592765808, "pos_horiz_variance": 0.02342180721461773, "pos_vert_variance": 0.017685476690530777}}, "errors": ["PreArm: Hardware safety switch"]}
{"timestamp": "2026-01-15T11:41:36.999328Z", "telemetry": {"lat": 28.7530934, "lon": 77.1177413, "satellites": 6, "altitude_gps_m": 198.1699981689453, "groundspeed_mps": 0.7190759778022766}, "flight": {"mode": "STABILIZE", "armed": false}, "ekf": {"attitude": {"roll": 0.009087368845939636, "pitch": -0.06435085833072662, "yaw": -2.4591915607452393}, "local_position": {"x": 1.9282487630844116, "y": -11.82666301727295, "z": 9.485015869140625}, "status": {"flags": 33599, "velocity_variance": 0.35705649852752686, "pos_horiz_variance": 0.021951060742139816, "pos_vert_variance": 0.05091158300638199}}, "errors": ["PreArm: Hardware safety switch"]}
{"timestamp": "2026-01-15T11:41:38.031872Z", "telemetry": {"lat": 28.7530765, "lon": 77.1177358, "satellites": 7, "altitude_gps_m": 198.0500030517578, "groundspeed_mps": 0.821962296962738}, "flight": {"mode": "STABILIZE", "armed": false}, "ekf": {"attitude": {"roll": -0.02781800553202629, "pitch": -0.0790785402059555, "yaw": -2.4195821285247803}, "local_position": {"x": 0.8380864858627319, "y": -11.831241607666016, "z": 9.59900951385498}, "status": {"flags": 33599, "velocity_variance": 0.3057195842266083, "pos_horiz_variance": 0.02861635945737362, "pos_vert_variance": 0.01884431205689907}}, "errors": ["PreArm: Hardware safety switch"]}
{"timestamp": "2026-01-15T11:41:39.031606Z", "telemetry": {"lat": 28.7530767, "lon": 77.117742, "satellites": 7, "altitude_gps_m": 198.1199951171875, "groundspeed_mps": 0.7201524972915649}, "flight": {"mode": "STABILIZE", "armed": false}, "ekf": {"attitude": {"roll": -0.046718236058950424, "pitch": 0.0014223156031221151, "yaw": -2.7490475177764893}, "local_position": {"x": 0.2915729880332947, "y": -11.294005393981934, "z": 9.529574394226074}, "status": {"flags": 33599, "velocity_variance": 0.5426306128501892, "pos_horiz_variance": 0.024690333753824234, "pos_vert_variance": 0.014110300689935684}}, "errors": ["PreArm: Hardware safety switch"]}
{"timestamp": "2026-01-15T11:41:39.984608Z", "telemetry": {"lat": 28.7530776, "lon": 77.1177457, "satellites": 7, "altitude_gps_m": 198.13999938964844, "groundspeed_mps": 0.5472679138183594}, "flight": {"mode": "STABILIZE", "armed": false}, "ekf": {"attitude": {"roll": -0.044030558317899704, "pitch": -0.03832100331783295, "yaw": -2.507174015045166}, "local_position": {"x": 0.3136322796344757, "y": -10.499486923217773, "z": 9.540223121643066}, "status": {"flags": 33599, "velocity_variance": 0.4840882420539856, "pos_horiz_variance": 0.023781664669513702, "pos_vert_variance": 0.010217530652880669}}, "errors": ["PreArm: Hardware safety switch"]}
{"timestamp": "2026-01-15T11:41:41.014957Z", "telemetry": {"lat": 28.7530873, "lon": 77.1177452, "satellites": 7, "altitude_gps_m": 198.19000244140625, "groundspeed_mps": 0.407331645488739}, "flight": {"mode": "STABILIZE", "armed": false}, "ekf": {"attitude": {"roll": -0.047344256192445755, "pitch": -0.04294109717011452, "yaw": -2.4945530891418457}, "local_position": {"x": 0.17226853966712952, "y": -10.144232749938965, "z": 9.464990615844727}, "status": {"flags": 33599, "velocity_variance": 0.4224998652935028, "pos_horiz_variance": 0.01051943376660347, "pos_vert_variance": 0.0021501509472727776}}, "errors": ["PreArm: Hardware safety switch"]}
{"timestamp": "2026-01-15T11:41:42.014743Z", "telemetry": {"lat": 28.7530961, "lon": 77.1177453, "satellites": 7, "altitude_gps_m": 198.30999755859375, "groundspeed_mps": 0.3011792004108429}, "flight": {"mode": "STABILIZE", "armed": false}, "ekf": {"attitude": {"roll": -0.05413075163960457, "pitch": -0.037689074873924255, "yaw": -2.4373619556427}, "local_position": {"x": 0.2721796929836273, "y": -9.893877983093262, "z": 9.339836120605469}, "status": {"flags": 33599, "velocity_variance": 0.18440411984920502, "pos_horiz_variance": 0.01168848481029272, "pos_vert_variance": 0.03473082557320595}}, "errors": ["PreArm: Hardware safety switch"]}
{"timestamp": "2026-01-15T11:41:43.018483Z", "telemetry": {"lat": 28.7530988, "lon": 77.1177496, "satellites": 7, "altitude_gps_m": 198.25999450683594, "groundspeed_mps": 0.28153178095817566}, "flight": {"mode": "STABILIZE", "armed": false}, "ekf": {"attitude": {"roll": -0.026542793959379196, "pitch": -0.007503002416342497, "yaw": -2.38824462890625}, "local_position": {"x": 0.48785683512687683, "y": -9.643367767333984, "z": 9.35068130493164}, "status": {"flags": 33599, "velocity_variance": 0.3297143876552582, "pos_horiz_variance": 0.009670746512711048, "pos_vert_variance": 0.10172808915376663}}, "errors": ["PreArm: Hardware safety switch"]}
{"timestamp": "2026-01-15T11:41:44.018297Z", "telemetry": {"lat": 28.7531033, "lon": 77.1177492, "satellites": 7, "altitude_gps_m": 198.26998901367188, "groundspeed_mps": 0.25615838170051575}, "flight": {"mode": "STABILIZE", "armed": false}, "ekf": {"attitude": {"roll": -0.00551186129450798, "pitch": -0.025172246620059013, "yaw": -2.3954501152038574}, "local_position": {"x": 0.9162102937698364, "y": -9.55533504486084, "z": 9.386298179626465}, "status": {"flags": 33599, "velocity_variance": 0.37437519431114197, "pos_horiz_variance": 0.013256099075078964, "pos_vert_variance": 0.021588118746876717}}, "errors": ["PreArm: Hardware safety switch"]}
{"timestamp": "2026-01-15T11:41:44.988736Z", "telemetry": {"lat": 28.7531052, "lon": 77.1177461, "satellites": 7, "altitude_gps_m": 198.25, "groundspeed_mps": 0.28905555605888367}, "flight": {"mode": "STABILIZE", "armed": false}, "ekf": {"attitude": {"roll": -0.02576834335923195, "pitch": -0.009676670655608177, "yaw": -2.288055896759033}, "local_position": {"x": 1.3399823904037476, "y": -9.605745315551758, "z": 9.406118392944336}, "status": {"flags": 33599, "velocity_variance": 0.24368757009506226, "pos_horiz_variance": 0.016026752069592476, "pos_vert_variance": 0.040734030306339264}}, "errors": ["PreArm: Hardware safety switch"]}
{"timestamp": "2026-01-15T11:41:45.987838Z", "telemetry": {"lat": 28.7531065, "lon": 77.1177419, "satellites": 6, "altitude_gps_m": 198.34999084472656, "groundspeed_mps": 0.3484266996383667}, "flight": {"mode": "STABILIZE", "armed": false}, "ekf": {"attitude": {"roll": -0.03130389377474785, "pitch": -0.03103300742805004, "yaw": -2.285820960998535}, "local_position": {"x": 1.6575452089309692, "y": -10.016270637512207, "z": 9.328995704650879}, "status": {"flags": 33599, "velocity_variance": 0.195570170879364, "pos_horiz_variance": 0.016311297193169594, "pos_vert_variance": 0.02763633243739605}}, "errors": ["PreArm: Hardware safety switch"]}
{"timestamp": "2026-01-15T11:41:47.021709Z", "telemetry": {"lat": 28.7531069, "lon": 77.1177396, "satellites": 6, "altitude_gps_m": 198.30999755859375, "groundspeed_mps": 0.37101414799690247}, "flight": {"mode": "STABILIZE", "armed": false}, "ekf": {"attitude": {"roll": -0.01487112045288086, "pitch": -0.02493312396109104, "yaw": -2.250575542449951}, "local_position": {"x": 1.948953628540039, "y": -10.273048400878906, "z": 9.346944808959961}, "status": {"flags": 33599, "velocity_variance": 0.19272741675376892, "pos_horiz_variance": 0.016373371705412865, "pos_vert_variance": 0.0019381812307983637}}, "errors": ["PreArm: Hardware safety switch"]}
{"timestamp": "2026-01-15T11:41:48.021018Z", "telemetry": {"lat": 28.7531061, "lon": 77.1177376, "satellites": 6, "altitude_gps_m": 198.27999877929688, "groundspeed_mps": 0.4105205535888672}, "flight": {"mode": "STABILIZE", "armed": false}, "ekf": {"attitude": {"roll": -0.0263255275785923, "pitch": -0.02227054350078106, "yaw": -2.2555158138275146}, "local_position": {"x": 2.1126456260681152, "y": -10.67482852935791, "z": 9.371779441833496}, "status": {"flags": 33599, "velocity_variance": 0.4376707375049591, "pos_horiz_variance": 0.015248260460793972, "pos_vert_variance": 0.03300422802567482}}, "errors": ["PreArm: Hardware safety switch"]}
{"timestamp": "2026-01-15T11:41:49.020604Z", "telemetry": {"lat": 28.753099, "lon": 77.1177377, "satellites": 6, "altitude_gps_m": 198.239990234375, "groundspeed_mps": 0.2681567370891571}, "flight": {"mode": "STABILIZE", "armed": false}, "ekf": {"attitude": {"roll": -0.021762032061815262, "pitch": -0.02150888927280903, "yaw": -2.2244303226470947}, "local_position": {"x": 1.5604223012924194, "y": -10.666738510131836, "z": 9.428977012634277}, "status": {"flags": 33599, "velocity_variance": 0.4064182937145233, "pos_horiz_variance": 0.018258599564433098, "pos_vert_variance": 0.006993543356657028}}, "errors": ["PreArm: Hardware safety switch"]}
{"timestamp": "2026-01-15T11:41:49.989508Z", "telemetry": {"lat": 28.7530989, "lon": 77.1177341, "satellites": 6, "altitude_gps_m": 198.33999633789062, "groundspeed_mps": 0.3130834102630615}, "flight": {"mode": "STABILIZE", "armed": false}, "ekf": {"attitude": {"roll": -0.002673175185918808, "pitch": -0.0329255647957325, "yaw": -2.2948551177978516}, "local_position": {"x": 1.5108331441879272, "y": -11.129013061523438, "z": 9.313044548034668}, "status": {"flags": 33599, "velocity_variance": 0.07564304023981094, "pos_horiz_variance": 0.016098788008093834, "pos_vert_variance": 0.08776738494634628}}, "errors": ["PreArm: Hardware safety switch", "PreArm: Hardware safety switch"]}
{"timestamp": "2026-01-15T11:41:51.024117Z", "telemetry": {"lat": 28.7530982, "lon": 77.1177346, "satellites": 6, "altitude_gps_m": 198.34999084472656, "groundspeed_mps": 0.2995729148387909}, "flight": {"mode": "STABILIZE", "armed": false}, "ekf": {"attitude": {"roll": -0.008847605437040329, "pitch": -0.02560378611087799, "yaw": -2.303901195526123}, "local_position": {"x": 1.5325300693511963, "y": -11.255205154418945, "z": 9.302168846130371}, "status": {"flags": 33599, "velocity_variance": 0.19160620868206024, "pos_horiz_variance": 0.015463538467884064, "pos_vert_variance": 0.08417968451976776}}, "errors": ["PreArm: Hardware safety switch", "PreArm: Hardware safety switch"]}
{"timestamp": "2026-01-15T11:41:51.993310Z", "telemetry": {"lat": 28.7531038, "lon": 77.1177353, "satellites": 7, "altitude_gps_m": 198.13999938964844, "groundspeed_mps": 0.3893878161907196}, "flight": {"mode": "STABILIZE", "armed": false}, "ekf": {"attitude": {"roll": -0.004641354084014893, "pitch": -0.0325787328183651, "yaw": -2.316755771636963}, "local_position": {"x": 1.7998379468917847, "y": -11.417095184326172, "z": 9.472489356994629}, "status": {"flags": 33599, "velocity_variance": 0.26918524503707886, "pos_horiz_variance": 0.009037299081683159, "pos_vert_variance": 0.01268993690609932}}, "errors": ["PreArm: Hardware safety switch", "PreArm: Hardware safety switch"]}
{"timestamp": "2026-01-15T11:41:52.980632Z", "telemetry": {"lat": 28.7531077, "lon": 77.1177316, "satellites": 7, "altitude_gps_m": 198.1199951171875, "groundspeed_mps": 0.39789581298828125}, "flight": {"mode": "STABILIZE", "armed": false}, "ekf": {"attitude": {"roll": -0.002782948315143585, "pitch": -0.03241642937064171, "yaw": -2.310204267501831}, "local_position": {"x": 1.9401073455810547, "y": -11.707362174987793, "z": 9.539254188537598}, "status": {"flags": 33599, "velocity_variance": 0.17497149109840393, "pos_horiz_variance": 0.0064450777135789394, "pos_vert_variance": 0.054975301027297974}}, "errors": ["PreArm: Hardware safety switch", "PreArm: Hardware safety switch"]}
{"timestamp": "2026-01-15T11:41:54.023227Z", "telemetry": {"lat": 28.7531083, "lon": 77.1177296, "satellites": 7, "altitude_gps_m": 198.02999877929688, "groundspeed_mps": 0.4030054211616516}, "flight": {"mode": "STABILIZE", "armed": false}, "ekf": {"attitude": {"roll": -0.00792422890663147, "pitch": -0.03022758476436138, "yaw": -2.32155179977417}, "local_position": {"x": 1.7358577251434326, "y": -12.147552490234375, "z": 9.624650955200195}, "status": {"flags": 33599, "velocity_variance": 0.18853195011615753, "pos_horiz_variance": 0.004940441343933344, "pos_vert_variance": 0.053979065269231796}}, "errors": ["PreArm: Hardware safety switch", "PreArm: Hardware safety switch"]}
{"timestamp": "2026-01-15T11:41:55.026755Z", "telemetry": {"lat": 28.7531098, "lon": 77.1177289, "satellites": 7, "altitude_gps_m": 197.95999145507812, "groundspeed_mps": 0.4518080949783325}, "flight": {"mode": "STABILIZE", "armed": false}, "ekf": {"attitude": {"roll": -0.011408865451812744, "pitch": -0.023355986922979355, "yaw": -2.2759289741516113}, "local_position": {"x": 1.718488097190857, "y": -12.38300609588623, "z": 9.675159454345703}, "status": {"flags": 33599, "velocity_variance": 0.39377766847610474, "pos_horiz_variance": 0.005373904947191477, "pos_vert_variance": 0.01108318567276001}}, "errors": ["PreArm: Hardware safety switch", "PreArm: Hardware safety switch"]}
{"timestamp": "2026-01-15T11:41:56.026678Z", "telemetry": {"lat": 28.7531191, "lon": 77.1177125, "satellites": 7, "altitude_gps_m": 197.97000122070312, "groundspeed_mps": 0.6017422080039978}, "flight": {"mode": "STABILIZE", "armed": false}, "ekf": {"attitude": {"roll": -0.009821686893701553, "pitch": -0.05609401687979698, "yaw": -2.137256145477295}, "local_position": {"x": 1.8364907503128052, "y": -13.424281120300293, "z": 9.681923866271973}, "status": {"flags": 33599, "velocity_variance": 0.29204174876213074, "pos_horiz_variance": 0.020983589813113213, "pos_vert_variance": 0.01133040338754654}}, "errors": ["PreArm: Hardware safety switch", "PreArm: Hardware safety switch"]}
{"timestamp": "2026-01-15T11:41:57.027390Z", "telemetry": {"lat": 28.7531227, "lon": 77.1177103, "satellites": 7, "altitude_gps_m": 198.02999877929688, "groundspeed_mps": 0.8383843302726746}, "flight": {"mode": "STABILIZE", "armed": false}, "ekf": {"attitude": {"roll": -0.045097384601831436, "pitch": 0.004063767846673727, "yaw": -2.0687546730041504}, "local_position": {"x": 2.255187749862671, "y": -14.121238708496094, "z": 9.624419212341309}, "status": {"flags": 33599, "velocity_variance": 0.6655771732330322, "pos_horiz_variance": 0.020145531743764877, "pos_vert_variance": 0.008283710107207298}}, "errors": ["PreArm: Hardware safety switch", "PreArm: Hardware safety switch"]}
{"timestamp": "2026-01-15T11:41:58.026020Z", "telemetry": {"lat": 28.7531269, "lon": 77.117709, "satellites": 6, "altitude_gps_m": 198.02999877929688, "groundspeed_mps": 0.6386950612068176}, "flight": {"mode": "STABILIZE", "armed": false}, "ekf": {"attitude": {"roll": -0.07554268836975098, "pitch": -0.031077833846211433, "yaw": -2.0316162109375}, "local_position": {"x": 2.5043118000030518, "y": -14.207021713256836, "z": 9.64565372467041}, "status": {"flags": 33599, "velocity_variance": 0.23730790615081787, "pos_horiz_variance": 0.021595235913991928, "pos_vert_variance": 0.013140177354216576}}, "errors": ["PreArm: Hardware safety switch", "PreArm: Hardware safety switch"]}
{"timestamp": "2026-01-15T11:41:59.030768Z", "telemetry": {"lat": 28.7531301, "lon": 77.1177128, "satellites": 6, "altitude_gps_m": 197.89999389648438, "groundspeed_mps": 0.4560113251209259}, "flight": {"mode": "STABILIZE", "armed": false}, "ekf": {"attitude": {"roll": -0.09727710485458374, "pitch": 0.11597832292318344, "yaw": -2.156390905380249}, "local_position": {"x": 3.1387016773223877, "y": -14.339747428894043, "z": 9.75658893585205}, "status": {"flags": 33599, "velocity_variance": 0.5556751489639282, "pos_horiz_variance": 0.01970018818974495, "pos_vert_variance": 0.03946051001548767}}, "errors": ["PreArm: Hardware safety switch", "PreArm: Hardware safety switch"]}
{"timestamp": "2026-01-15T11:41:59.999711Z", "telemetry": {"lat": 28.753137, "lon": 77.1177129, "satellites": 6, "altitude_gps_m": 197.8199920654297, "groundspeed_mps": 0.6326267719268799}, "flight": {"mode": "STABILIZE", "armed": false}, "ekf": {"attitude": {"roll": -0.13102635741233826, "pitch": -0.062460679560899734, "yaw": -1.6889981031417847}, "local_position": {"x": 3.7819020748138428, "y": -14.432685852050781, "z": 9.830023765563965}, "status": {"flags": 33599, "velocity_variance": 0.6501997113227844, "pos_horiz_variance": 0.022606976330280304, "pos_vert_variance": 0.02201133780181408}}, "errors": ["PreArm: Hardware safety switch", "PreArm: Hardware safety switch"]}
{"timestamp": "2026-01-15T11:42:00.998762Z", "telemetry": {"lat": 28.7531424, "lon": 77.1177148, "satellites": 6, "altitude_gps_m": 197.8300018310547, "groundspeed_mps": 0.6170510053634644}, "flight": {"mode": "STABILIZE", "armed": false}, "ekf": {"attitude": {"roll": -0.13836389780044556, "pitch": -0.09481921046972275, "yaw": -1.8687528371810913}, "local_position": {"x": 4.478019714355469, "y": -14.366575241088867, "z": 9.807367324829102}, "status": {"flags": 33599, "velocity_variance": 0.4586760699748993, "pos_horiz_variance": 0.024787453934550285, "pos_vert_variance": 0.03552383556962013}}, "errors": ["PreArm: Hardware safety switch", "PreArm: Hardware safety switch"]}
{"timestamp": "2026-01-15T11:42:01.998366Z", "telemetry": {"lat": 28.7531506, "lon": 77.1177153, "satellites": 6, "altitude_gps_m": 197.76998901367188, "groundspeed_mps": 0.6965954899787903}, "flight": {"mode": "STABILIZE", "armed": false}, "ekf": {"attitude": {"roll": -0.1550973355770111, "pitch": -0.05994268134236336, "yaw": -1.8892080783843994}, "local_position": {"x": 5.5241618156433105, "y": -14.485240936279297, "z": 9.889965057373047}, "status": {"flags": 33599, "velocity_variance": 0.5782746076583862, "pos_horiz_variance": 0.022483618929982185, "pos_vert_variance": 0.0712544396519661}}, "errors": ["PreArm: Hardware safety switch", "PreArm: Hardware safety switch"]}
{"timestamp": "2026-01-15T11:42:02.981848Z", "telemetry": {"lat": 28.7531585, "lon": 77.1177192, "satellites": 6, "altitude_gps_m": 197.80999755859375, "groundspeed_mps": 0.8188350796699524}, "flight": {"mode": "STABILIZE", "armed": false}, "ekf": {"attitude": {"roll": -0.12105844914913177, "pitch": -0.03535986319184303, "yaw": -2.0763118267059326}, "local_position": {"x": 6.5336594581604, "y": -14.523492813110352, "z": 9.845674514770508}, "status": {"flags": 33599, "velocity_variance": 0.5191919207572937, "pos_horiz_variance": 0.024472689256072044, "pos_vert_variance": 0.01782127469778061}}, "errors": ["PreArm: Hardware safety switch", "PreArm: Hardware safety switch"]}
{"timestamp": "2026-01-15T11:42:03.981845Z", "telemetry": {"lat": 28.7531607, "lon": 77.1177161, "satellites": 6, "altitude_gps_m": 197.86000061035156, "groundspeed_mps": 0.7725532054901123}, "flight": {"mode": "STABILIZE", "armed": false}, "ekf": {"attitude": {"roll": -0.11661073565483093, "pitch": -0.03389643132686615, "yaw": -1.9373975992202759}, "local_position": {"x": 7.054525375366211, "y": -14.517765045166016, "z": 9.826695442199707}, "status": {"flags": 33599, "velocity_variance": 0.5474377870559692, "pos_horiz_variance": 0.0197736918926239, "pos_vert_variance": 0.023972375318408012}}, "errors": ["PreArm: Hardware safety switch", "PreArm: Hardware safety switch"]}
{"timestamp": "2026-01-15T11:42:05.031875Z", "telemetry": {"lat": 28.7531712, "lon": 77.1177242, "satellites": 7, "altitude_gps_m": 197.86000061035156, "groundspeed_mps": 0.826825737953186}, "flight": {"mode": "STABILIZE", "armed": false}, "ekf": {"attitude": {"roll": -0.17350411415100098, "pitch": -0.06103524938225746, "yaw": -1.8904749155044556}, "local_position": {"x": 8.10623550415039, "y": -14.550518035888672, "z": 9.795432090759277}, "status": {"flags": 33599, "velocity_variance": 0.4897087812423706, "pos_horiz_variance": 0.02879316918551922, "pos_vert_variance": 0.03504164516925812}}, "errors": ["PreArm: Hardware safety switch", "PreArm: Hardware safety switch"]}
{"timestamp": "2026-01-15T11:42:06.031459Z", "telemetry": {"lat": 28.7531818, "lon": 77.1177277, "satellites": 7, "altitude_gps_m": 197.8000030517578, "groundspeed_mps": 0.9403471946716309}, "flight": {"mode": "STABILIZE", "armed": false}, "ekf": {"attitude": {"roll": -0.1490655243396759, "pitch": -0.050481803715229034, "yaw": -1.9293760061264038}, "local_position": {"x": 9.249246597290039, "y": -14.11558723449707, "z": 9.86061954498291}, "status": {"flags": 33599, "velocity_variance": 0.2693978250026703, "pos_horiz_variance": 0.029977137222886086, "pos_vert_variance": 0.039802394807338715}}, "errors": ["PreArm: Hardware safety switch", "PreArm: Hardware safety switch"]}
{"timestamp": "2026-01-15T11:42:07.000668Z", "telemetry": {"lat": 28.7531866, "lon": 77.1177356, "satellites": 7, "altitude_gps_m": 197.83999633789062, "groundspeed_mps": 0.9096489548683167}, "flight": {"mode": "STABILIZE", "armed": false}, "ekf": {"attitude": {"roll": -0.1259901523590088, "pitch": 0.004530224483460188, "yaw": -1.9525583982467651}, "local_position": {"x": 10.154755592346191, "y": -13.63319206237793, "z": 9.816224098205566}, "status": {"flags": 33599, "velocity_variance": 0.32951992750167847, "pos_horiz_variance": 0.031893290579319, "pos_vert_variance": 0.14161482453346252}}, "errors": ["PreArm: Hardware safety switch", "PreArm: Hardware safety switch"]}
{"timestamp": "2026-01-15T11:42:08.000200Z", "telemetry": {"lat": 28.753188, "lon": 77.1177344, "satellites": 6, "altitude_gps_m": 197.76998901367188, "groundspeed_mps": 0.8078787326812744}, "flight": {"mode": "STABILIZE", "armed": false}, "ekf": {"attitude": {"roll": -0.11421962082386017, "pitch": -0.0050476654432713985, "yaw": -1.9520413875579834}, "local_position": {"x": 10.772078514099121, "y": -13.208915710449219, "z": 9.882240295410156}, "status": {"flags": 33599, "velocity_variance": 0.2125033289194107, "pos_horiz_variance": 0.023356493562459946, "pos_vert_variance": 0.044179726392030716}}, "errors": ["PreArm: Hardware safety switch", "PreArm: Hardware safety switch"]}
{"timestamp": "2026-01-15T11:42:09.018551Z", "telemetry": {"lat": 28.7531918, "lon": 77.1177362, "satellites": 6, "altitude_gps_m": 197.86000061035156, "groundspeed_mps": 0.6212151050567627}, "flight": {"mode": "STABILIZE", "armed": false}, "ekf": {"attitude": {"roll": -0.12054343521595001, "pitch": -0.010151481255888939, "yaw": -1.8204948902130127}, "local_position": {"x": 11.29319953918457, "y": -13.018961906433105, "z": 9.800623893737793}, "status": {"flags": 33599, "velocity_variance": 0.33556342124938965, "pos_horiz_variance": 0.02141767553985119, "pos_vert_variance": 0.011109095066785812}}, "errors": ["PreArm: Hardware safety switch", "PreArm: Hardware safety switch"]}
{"timestamp": "2026-01-15T11:42:10.018246Z", "telemetry": {"lat": 28.7531895, "lon": 77.1177384, "satellites": 5, "altitude_gps_m": 197.87998962402344, "groundspeed_mps": 0.6661182045936584}, "flight": {"mode": "STABILIZE", "armed": false}, "ekf": {"attitude": {"roll": -0.10648234188556671, "pitch": -0.13765165209770203, "yaw": -1.6608682870864868}, "local_position": {"x": 11.736978530883789, "y": -12.85655689239502, "z": 9.775362014770508}, "status": {"flags": 33599, "velocity_variance": 0.47774749994277954, "pos_horiz_variance": 0.024025145918130875, "pos_vert_variance": 0.07837340980768204}}, "errors": ["PreArm: Hardware safety switch", "PreArm: Hardware safety switch"]}
{"timestamp": "2026-01-15T11:42:10.987483Z", "telemetry": {"lat": 28.7531864, "lon": 77.1177368, "satellites": 5, "altitude_gps_m": 197.87998962402344, "groundspeed_mps": 0.6160200834274292}, "flight": {"mode": "STABILIZE", "armed": false}, "ekf": {"attitude": {"roll": -0.13570015132427216, "pitch": -0.18201328814029694, "yaw": -1.6719655990600586}, "local_position": {"x": 12.068232536315918, "y": -12.888326644897461, "z": 9.768128395080566}, "status": {"flags": 33599, "velocity_variance": 0.16058234870433807, "pos_horiz_variance": 0.028035907074809074, "pos_vert_variance": 0.08851515501737595}}, "errors": ["PreArm: Hardware safety switch", "PreArm: Hardware safety switch"]}
{"timestamp": "2026-01-15T11:42:11.987254Z", "telemetry": {"lat": 28.7531848, "lon": 77.1177399, "satellites": 5, "altitude_gps_m": 197.8000030517578, "groundspeed_mps": 0.5761404633522034}, "flight": {"mode": "STABILIZE", "armed": false}, "ekf": {"attitude": {"roll": -0.13341547548770905, "pitch": -0.24278467893600464, "yaw": -1.5549681186676025}, "local_position": {"x": 12.328783988952637, "y": -12.725903511047363, "z": 9.858195304870605}, "status": {"flags": 33599, "velocity_variance": 0.3189304769039154, "pos_horiz_variance": 0.033263929188251495, "pos_vert_variance": 0.05129806697368622}}, "errors": ["PreArm: Hardware safety switch", "PreArm: Hardware safety switch"]}
{"timestamp": "2026-01-15T11:42:13.021349Z", "telemetry": {"lat": 28.7531791, "lon": 77.1177385, "satellites": 5, "altitude_gps_m": 197.83999633789062, "groundspeed_mps": 0.4169578552246094}, "flight": {"mode": "STABILIZE", "armed": false}, "ekf": {"attitude": {"roll": -0.14842143654823303, "pitch": -0.27685800194740295, "yaw": -1.282016634941101}, "local_position": {"x": 12.205479621887207, "y": -12.576763153076172, "z": 9.818400382995605}, "status": {"flags": 33599, "velocity_variance": 0.5153995156288147, "pos_horiz_variance": 0.03652190417051315, "pos_vert_variance": 0.02898026630282402}}, "errors": ["PreArm: Hardware safety switch", "PreArm: Hardware safety switch"]}
{"timestamp": "2026-01-15T11:42:14.020881Z", "telemetry": {"lat": 28.7531734, "lon": 77.1177401, "satellites": 6, "altitude_gps_m": 197.97999572753906, "groundspeed_mps": 0.23102900385856628}, "flight": {"mode": "STABILIZE", "armed": false}, "ekf": {"attitude": {"roll": -0.11090272665023804, "pitch": -0.1692708134651184, "yaw": -1.3679052591323853}, "local_position": {"x": 11.805063247680664, "y": -12.369694709777832, "z": 9.682659149169922}, "status": {"flags": 33599, "velocity_variance": 0.6303766965866089, "pos_horiz_variance": 0.041795793920755386, "pos_vert_variance": 0.01908903568983078}}, "errors": ["PreArm: Hardware safety switch", "PreArm: Hardware safety switch"]}
{"timestamp": "2026-01-15T11:42:15.020591Z", "telemetry": {"lat": 28.7531637, "lon": 77.1177193, "satellites": 6, "altitude_gps_m": 198.09999084472656, "groundspeed_mps": 0.33622992038726807}, "flight": {"mode": "STABILIZE", "armed": false}, "ekf": {"attitude": {"roll": -0.09222328662872314, "pitch": -0.09116113930940628, "yaw": -1.6284613609313965}, "local_position": {"x": 10.530065536499023, "y": -13.28468132019043, "z": 9.557568550109863}, "status": {"flags": 33599, "velocity_variance": 0.42567694187164307, "pos_horiz_variance": 0.0348968468606472, "pos_vert_variance": 0.009397251531481743}}, "errors": ["PreArm: Hardware safety switch", "PreArm: Hardware safety switch"]}
{"timestamp": "2026-01-15T11:42:16.024330Z", "telemetry": {"lat": 28.7531644, "lon": 77.1177094, "satellites": 7, "altitude_gps_m": 198.13999938964844, "groundspeed_mps": 0.6781601309776306}, "flight": {"mode": "STABILIZE", "armed": false}, "ekf": {"attitude": {"roll": -0.11155645549297333, "pitch": -0.10898062586784363, "yaw": -1.6961086988449097}, "local_position": {"x": 9.854914665222168, "y": -14.73412799835205, "z": 9.511150360107422}, "status": {"flags": 33599, "velocity_variance": 0.27868443727493286, "pos_horiz_variance": 0.026585586369037628, "pos_vert_variance": 0.0885455310344696}}, "errors": ["PreArm: Hardware safety switch", "PreArm: Hardware safety switch"]}
{"timestamp": "2026-01-15T11:42:17.023849Z", "telemetry": {"lat": 28.7531646, "lon": 77.1177077, "satellites": 7, "altitude_gps_m": 198.0699920654297, "groundspeed_mps": 0.8853889107704163}, "flight": {"mode": "STABILIZE", "armed": false}, "ekf": {"attitude": {"roll": -0.14953680336475372, "pitch": -0.10431112349033356, "yaw": -1.654295563697815}, "local_position": {"x": 9.66811466217041, "y": -15.048949241638184, "z": 9.591629028320312}, "status": {"flags": 33599, "velocity_variance": 0.2247665971517563, "pos_horiz_variance": 0.0246999841183424, "pos_vert_variance": 0.06534472107887268}}, "errors": ["PreArm: Hardware safety switch", "PreArm: Hardware safety switch"]}
{"timestamp": "2026-01-15T11:42:17.992959Z", "telemetry": {"lat": 28.7531577, "lon": 77.1177061, "satellites": 7, "altitude_gps_m": 198.12998962402344, "groundspeed_mps": 1.0196940898895264}, "flight": {"mode": "STABILIZE", "armed": false}, "ekf": {"attitude": {"roll": -0.1437055915594101, "pitch": -0.07244995981454849, "yaw": -1.5591926574707031}, "local_position": {"x": 8.986852645874023, "y": -15.423714637756348, "z": 9.521312713623047}, "status": {"flags": 33599, "velocity_variance": 0.3733556270599365, "pos_horiz_variance": 0.027190323919057846, "pos_vert_variance": 0.04430091008543968}}, "errors": ["PreArm: Hardware safety switch", "PreArm: Hardware safety switch"]}
{"timestamp": "2026-01-15T11:42:18.993223Z", "telemetry": {"lat": 28.7531515, "lon": 77.1177109, "satellites": 7, "altitude_gps_m": 198.13999938964844, "groundspeed_mps": 0.6199591159820557}, "flight": {"mode": "STABILIZE", "armed": false}, "ekf": {"attitude": {"roll": -0.1698320209980011, "pitch": -0.08493594080209732, "yaw": -1.6345151662826538}, "local_position": {"x": 8.555334091186523, "y": -15.238777160644531, "z": 9.516316413879395}, "status": {"flags": 33599, "velocity_variance": 0.3517772853374481, "pos_horiz_variance": 0.03175278753042221, "pos_vert_variance": 0.0025278034154325724}}, "errors": ["PreArm: Hardware safety switch", "PreArm: Hardware safety switch"]}
{"timestamp": "2026-01-15T11:42:19.992457Z", "telemetry": {"lat": 28.7531479, "lon": 77.1177124, "satellites": 7, "altitude_gps_m": 198.1199951171875, "groundspeed_mps": 0.773027777671814}, "flight": {"mode": "STABILIZE", "armed": false}, "ekf": {"attitude": {"roll": -0.10320357978343964, "pitch": -0.07208990305662155, "yaw": -1.5334150791168213}, "local_position": {"x": 8.010489463806152, "y": -15.087199211120605, "z": 9.533164024353027}, "status": {"flags": 33599, "velocity_variance": 0.2257699817419052, "pos_horiz_variance": 0.033770158886909485, "pos_vert_variance": 0.043698981404304504}}, "errors": ["PreArm: Hardware safety switch", "PreArm: Hardware safety switch"]}
{"timestamp": "2026-01-15T11:42:20.996294Z", "telemetry": {"lat": 28.7531466, "lon": 77.1177222, "satellites": 7, "altitude_gps_m": 198.13999938964844, "groundspeed_mps": 0.9448724389076233}, "flight": {"mode": "STABILIZE", "armed": false}, "ekf": {"attitude": {"roll": -0.10967093706130981, "pitch": -0.08474645763635635, "yaw": -1.877030372619629}, "local_position": {"x": 7.380483627319336, "y": -14.375528335571289, "z": 9.512970924377441}, "status": {"flags": 33599, "velocity_variance": 0.29202863574028015, "pos_horiz_variance": 0.029318150132894516, "pos_vert_variance": 0.050571829080581665}}, "errors": ["PreArm: Hardware safety switch", "PreArm: Hardware safety switch", "PreArm: Hardware safety switch"]}
{"timestamp": "2026-01-15T11:42:22.026535Z", "telemetry": {"lat": 28.7531486, "lon": 77.1177222, "satellites": 7, "altitude_gps_m": 198.11000061035156, "groundspeed_mps": 0.7583288550376892}, "flight": {"mode": "STABILIZE", "armed": false}, "ekf": {"attitude": {"roll": -0.15361890196800232, "pitch": -0.07563352584838867, "yaw": -2.0110745429992676}, "local_position": {"x": 7.365739345550537, "y": -14.375040054321289, "z": 9.551932334899902}, "status": {"flags": 33599, "velocity_variance": 0.14773252606391907, "pos_horiz_variance": 0.026869559660553932, "pos_vert_variance": 0.015150504186749458}}, "errors": ["PreArm: Hardware safety switch", "PreArm: Hardware safety switch", "PreArm: Hardware safety switch"]}
{"timestamp": "2026-01-15T11:42:23.025843Z", "telemetry": {"lat": 28.7531438, "lon": 77.117709, "satellites": 7, "altitude_gps_m": 198.02999877929688, "groundspeed_mps": 0.9084135293960571}, "flight": {"mode": "STABILIZE", "armed": false}, "ekf": {"attitude": {"roll": -0.18006651103496552, "pitch": -0.07129480689764023, "yaw": -1.9904141426086426}, "local_position": {"x": 6.595391750335693, "y": -15.120644569396973, "z": 9.625092506408691}, "status": {"flags": 33599, "velocity_variance": 0.23464666306972504, "pos_horiz_variance": 0.018097860738635063, "pos_vert_variance": 0.003274469403550029}}, "errors": ["PreArm: Hardware safety switch", "PreArm: Hardware safety switch", "PreArm: Hardware safety switch"]}
