{"timestamp": "2025-12-16T08:38:58.133141Z", "telemetry": {"lat": 28.753124, "lon": 77.1179022, "satellites": 7, "altitude_gps_m": 210.1599884033203, "groundspeed_mps": 0.23334400355815887}, "flight": {"mode": null, "armed": null}, "ekf": {"attitude": {"roll": -0.02763158082962036, "pitch": -0.026967857033014297, "yaw": 2.508760452270508}, "local_position": {"x": null, "y": null, "z": null}, "status": {"flags": 167, "velocity_variance": 0.0, "pos_horiz_variance": 0.06565318256616592, "pos_vert_variance": 0.07030640542507172}}, "errors": []}
{"timestamp": "2025-12-16T08:38:59.082895Z", "telemetry": {"lat": 28.7531229, "lon": 77.1179019, "satellites": 7, "altitude_gps_m": 211.12998962402344, "groundspeed_mps": 0.027001695707440376}, "flight": {"mode": "STABILIZE", "armed": false}, "ekf": {"attitude": {"roll": -0.02764960750937462, "pitch": -0.027243096381425858, "yaw": 2.510199785232544}, "local_position": {"x": -0.2696550488471985, "y": -0.1235206201672554, "z": -1.7095085382461548}, "status": {"flags": 831, "velocity_variance": 0.0705462247133255, "pos_horiz_variance": 0.0013963705860078335, "pos_vert_variance": 0.05303092300891876}}, "errors": ["EKF3 IMU0 is using GPS"]}
{"timestamp": "2025-12-16T08:39:00.073069Z", "telemetry": {"lat": 28.753122, "lon": 77.1179019, "satellites": 7, "altitude_gps_m": 210.97999572753906, "groundspeed_mps": 0.08303789794445038}, "flight": {"mode": "STABILIZE", "armed": false}, "ekf": {"attitude": {"roll": -0.027874350547790527, "pitch": -0.0288180410861969, "yaw": 2.51153826713562}, "local_position": {"x": -0.33914992213249207, "y": -0.12088903039693832, "z": -1.5935876369476318}, "status": {"flags": 831, "velocity_variance": 0.13274382054805756, "pos_horiz_variance": 0.004023645538836718, "pos_vert_variance": 0.021463774144649506}}, "errors": ["EKF3 IMU0 is using GPS", "EKF3 IMU1 is using GPS"]}
{"timestamp": "2025-12-16T08:39:01.064295Z", "telemetry": {"lat": 28.7531213, "lon": 77.1179013, "satellites": 7, "altitude_gps_m": 210.9499969482422, "groundspeed_mps": 0.1388976126909256}, "flight": {"mode": "STABILIZE", "armed": false}, "ekf": {"attitude": {"roll": -0.027813315391540527, "pitch": -0.030022498220205307, "yaw": 2.513090133666992}, "local_position": {"x": -0.44411060214042664, "y": -0.08945847302675247, "z": -1.5328606367111206}, "status": {"flags": 831, "velocity_variance": 0.09996290504932404, "pos_horiz_variance": 0.007971706800162792, "pos_vert_variance": 0.00411268463358283}}, "errors": ["EKF3 IMU0 is using GPS", "EKF3 IMU1 is using GPS"]}
{"timestamp": "2025-12-16T08:39:02.064549Z", "telemetry": {"lat": 28.7531211, "lon": 77.1179011, "satellites": 7, "altitude_gps_m": 211.02999877929688, "groundspeed_mps": 0.19023670256137848}, "flight": {"mode": "STABILIZE", "armed": false}, "ekf": {"attitude": {"roll": -0.027589324861764908, "pitch": -0.03019346296787262, "yaw": 2.514615774154663}, "local_position": {"x": -0.5284644961357117, "y": -0.07782994210720062, "z": -1.600672721862793}, "status": {"flags": 831, "velocity_variance": 0.14032788574695587, "pos_horiz_variance": 0.009286822751164436, "pos_vert_variance": 0.0033406950533390045}}, "errors": ["EKF3 IMU0 is using GPS", "EKF3 IMU1 is using GPS"]}
{"timestamp": "2025-12-16T08:39:03.082188Z", "telemetry": {"lat": 28.7531211, "lon": 77.1179005, "satellites": 7, "altitude_gps_m": 211.09999084472656, "groundspeed_mps": 0.2025839388370514}, "flight": {"mode": "STABILIZE", "armed": false}, "ekf": {"attitude": {"roll": -0.027307651937007904, "pitch": -0.029374167323112488, "yaw": 2.5160346031188965}, "local_position": {"x": -0.5986282825469971, "y": -0.08728604763746262, "z": -1.6769640445709229}, "status": {"flags": 831, "velocity_variance": 0.14111293852329254, "pos_horiz_variance": 0.015227161347866058, "pos_vert_variance": 0.0018748268485069275}}, "errors": ["EKF3 IMU0 is using GPS", "EKF3 IMU1 is using GPS"]}
{"timestamp": "2025-12-16T08:39:04.064344Z", "telemetry": {"lat": 28.7531215, "lon": 77.1179006, "satellites": 7, "altitude_gps_m": 211.1199951171875, "groundspeed_mps": 0.1968999207019806}, "flight": {"mode": "STABILIZE", "armed": false}, "ekf": {"attitude": {"roll": -0.028152231127023697, "pitch": -0.028282485902309418, "yaw": 2.5166823863983154}, "local_position": {"x": -0.6079261302947998, "y": -0.07620935887098312, "z": -1.697172999382019}, "status": {"flags": 831, "velocity_variance": 0.1150553971529007, "pos_horiz_variance": 0.018338151276111603, "pos_vert_variance": 0.008215895853936672}}, "errors": ["EKF3 IMU0 is using GPS", "EKF3 IMU1 is using GPS"]}
{"timestamp": "2025-12-16T08:39:05.064585Z", "telemetry": {"lat": 28.7531222, "lon": 77.1179002, "satellites": 7, "altitude_gps_m": 211.14999389648438, "groundspeed_mps": 0.15600040555000305}, "flight": {"mode": "STABILIZE", "armed": false}, "ekf": {"attitude": {"roll": -0.02768641710281372, "pitch": -0.02668927237391472, "yaw": 2.5175399780273438}, "local_position": {"x": -0.565570592880249, "y": -0.11158856749534607, "z": -1.736204743385315}, "status": {"flags": 831, "velocity_variance": 0.08643832057714462, "pos_horiz_variance": 0.021206071600317955, "pos_vert_variance": 0.021777130663394928}}, "errors": ["EKF3 IMU0 is using GPS", "EKF3 IMU1 is using GPS"]}
{"timestamp": "2025-12-16T08:39:06.077746Z", "telemetry": {"lat": 28.7531226, "lon": 77.1179001, "satellites": 7, "altitude_gps_m": 211.1199951171875, "groundspeed_mps": 0.12364483624696732}, "flight": {"mode": "STABILIZE", "armed": false}, "ekf": {"attitude": {"roll": -0.027626123279333115, "pitch": -0.025861047208309174, "yaw": 2.5181150436401367}, "local_position": {"x": -0.525626003742218, "y": -0.15928635001182556, "z": -1.7172411680221558}, "status": {"flags": 831, "velocity_variance": 0.12750764191150665, "pos_horiz_variance": 0.02074127271771431, "pos_vert_variance": 0.030708126723766327}}, "errors": ["EKF3 IMU0 is using GPS", "EKF3 IMU1 is using GPS"]}
{"timestamp": "2025-12-16T08:39:07.063891Z", "telemetry": {"lat": 28.7531225, "lon": 77.1179004, "satellites": 7, "altitude_gps_m": 211.0399932861328, "groundspeed_mps": 0.134463369846344}, "flight": {"mode": "STABILIZE", "armed": false}, "ekf": {"attitude": {"roll": -0.027934744954109192, "pitch": -0.025886962190270424, "yaw": 2.5182554721832275}, "local_position": {"x": -0.47141343355178833, "y": -0.13159671425819397, "z": -1.6240661144256592}, "status": {"flags": 831, "velocity_variance": 0.05711923539638519, "pos_horiz_variance": 0.016104806214571, "pos_vert_variance": 0.026749009266495705}}, "errors": ["EKF3 IMU0 is using GPS", "EKF3 IMU1 is using GPS"]}
{"timestamp": "2025-12-16T08:39:08.065577Z", "telemetry": {"lat": 28.7531222, "lon": 77.1179003, "satellites": 7, "altitude_gps_m": 210.97999572753906, "groundspeed_mps": 0.14415599405765533}, "flight": {"mode": "STABILIZE", "armed": false}, "ekf": {"attitude": {"roll": -0.027979552745819092, "pitch": -0.025948412716388702, "yaw": 2.518299102783203}, "local_position": {"x": -0.447257936000824, "y": -0.10326913744211197, "z": -1.5629267692565918}, "status": {"flags": 831, "velocity_variance": 0.09483586996793747, "pos_horiz_variance": 0.01588163897395134, "pos_vert_variance": 0.020014671608805656}}, "errors": ["EKF3 IMU0 is using GPS", "EKF3 IMU1 is using GPS"]}
{"timestamp": "2025-12-16T08:39:09.073541Z", "telemetry": {"lat": 28.7531216, "lon": 77.1179001, "satellites": 7, "altitude_gps_m": 210.95999145507812, "groundspeed_mps": 0.15167537331581116}, "flight": {"mode": "STABILIZE", "armed": false}, "ekf": {"attitude": {"roll": -0.02771272510290146, "pitch": -0.0261986181139946, "yaw": 2.518294095993042}, "local_position": {"x": -0.45291852951049805, "y": -0.10241255164146423, "z": -1.5476022958755493}, "status": {"flags": 831, "velocity_variance": 0.05948880687355995, "pos_horiz_variance": 0.016715778037905693, "pos_vert_variance": 0.010566702112555504}}, "errors": ["EKF3 IMU0 is using GPS", "EKF3 IMU1 is using GPS"]}
{"timestamp": "2025-12-16T08:39:10.064193Z", "telemetry": {"lat": 28.7531206, "lon": 77.1178999, "satellites": 7, "altitude_gps_m": 211.01998901367188, "groundspeed_mps": 0.16558657586574554}, "flight": {"mode": "STABILIZE", "armed": false}, "ekf": {"attitude": {"roll": -0.0273674875497818, "pitch": -0.02664976567029953, "yaw": 2.518354892730713}, "local_position": {"x": -0.5130256414413452, "y": -0.11994221806526184, "z": -1.6055976152420044}, "status": {"flags": 831, "velocity_variance": 0.07998588681221008, "pos_horiz_variance": 0.01796921156346798, "pos_vert_variance": 0.0025965883396565914}}, "errors": ["EKF3 IMU0 is using GPS", "EKF3 IMU1 is using GPS"]}
{"timestamp": "2025-12-16T08:39:11.065518Z", "telemetry": {"lat": 28.7531199, "lon": 77.1178996, "satellites": 7, "altitude_gps_m": 211.11000061035156, "groundspeed_mps": 0.16402482986450195}, "flight": {"mode": "STABILIZE", "armed": false}, "ekf": {"attitude": {"roll": -0.027289245277643204, "pitch": -0.026576858013868332, "yaw": 2.5185182094573975}, "local_position": {"x": -0.5358868837356567, "y": -0.13313432037830353, "z": -1.6672855615615845}, "status": {"flags": 831, "velocity_variance": 0.06543274223804474, "pos_horiz_variance": 0.021580297499895096, "pos_vert_variance": 0.008241035975515842}}, "errors": ["EKF3 IMU0 is using GPS", "EKF3 IMU1 is using GPS"]}
{"timestamp": "2025-12-16T08:39:12.071499Z", "telemetry": {"lat": 28.7531186, "lon": 77.1178989, "satellites": 7, "altitude_gps_m": 211.1999969482422, "groundspeed_mps": 0.18047285079956055}, "flight": {"mode": "STABILIZE", "armed": false}, "ekf": {"attitude": {"roll": -0.027027875185012817, "pitch": -0.0270262211561203, "yaw": 2.5186240673065186}, "local_position": {"x": -0.6359097361564636, "y": -0.17628410458564758, "z": -1.7863905429840088}, "status": {"flags": 831, "velocity_variance": 0.07966241240501404, "pos_horiz_variance": 0.026887135580182076, "pos_vert_variance": 0.016755400225520134}}, "errors": ["EKF3 IMU0 is using GPS", "EKF3 IMU1 is using GPS"]}
{"timestamp": "2025-12-16T08:39:13.064189Z", "telemetry": {"lat": 28.7531177, "lon": 77.1178982, "satellites": 7, "altitude_gps_m": 211.29998779296875, "groundspeed_mps": 0.19685359299182892}, "flight": {"mode": "STABILIZE", "armed": false}, "ekf": {"attitude": {"roll": -0.026561684906482697, "pitch": -0.027216654270887375, "yaw": 2.5189197063446045}, "local_position": {"x": -0.7559106349945068, "y": -0.2363833487033844, "z": -1.886476993560791}, "status": {"flags": 831, "velocity_variance": 0.06897253543138504, "pos_horiz_variance": 0.02728346176445484, "pos_vert_variance": 0.01072712242603302}}, "errors": ["EKF3 IMU0 is using GPS", "EKF3 IMU1 is using GPS", "PreArm: RC not found", "PreArm: Hardware safety switch"]}
{"timestamp": "2025-12-16T08:39:14.064742Z", "telemetry": {"lat": 28.7531171, "lon": 77.1178976, "satellites": 7, "altitude_gps_m": 211.39999389648438, "groundspeed_mps": 0.2038906067609787}, "flight": {"mode": "STABILIZE", "armed": false}, "ekf": {"attitude": {"roll": -0.026615235954523087, "pitch": -0.02696230635046959, "yaw": 2.518955707550049}, "local_position": {"x": -0.8441596031188965, "y": -0.28836825489997864, "z": -1.9605058431625366}, "status": {"flags": 831, "velocity_variance": 0.04687825217843056, "pos_horiz_variance": 0.02748478204011917, "pos_vert_variance": 0.011315621435642242}}, "errors": ["EKF3 IMU0 is using GPS", "EKF3 IMU1 is using GPS", "PreArm: RC not found", "PreArm: Hardware safety switch"]}
{"timestamp": "2025-12-16T08:39:15.067376Z", "telemetry": {"lat": 28.7531164, "lon": 77.1178968, "satellites": 7, "altitude_gps_m": 211.42999267578125, "groundspeed_mps": 0.2051542103290558}, "flight": {"mode": "STABILIZE", "armed": false}, "ekf": {"attitude": {"roll": -0.026758696883916855, "pitch": -0.02686101756989956, "yaw": 2.5189149379730225}, "local_position": {"x": -0.9430031776428223, "y": -0.34068670868873596, "z": -2.0112876892089844}, "status": {"flags": 831, "velocity_variance": 0.10514155775308609, "pos_horiz_variance": 0.02818360924720764, "pos_vert_variance": 0.005039585754275322}}, "errors": ["EKF3 IMU0 is using GPS", "EKF3 IMU1 is using GPS", "PreArm: RC not found", "PreArm: Hardware safety switch"]}
{"timestamp": "2025-12-16T08:39:16.086360Z", "telemetry": {"lat": 28.7531161, "lon": 77.1178963, "satellites": 7, "altitude_gps_m": 211.47999572753906, "groundspeed_mps": 0.20488256216049194}, "flight": {"mode": "STABILIZE", "armed": false}, "ekf": {"attitude": {"roll": -0.02714318409562111, "pitch": -0.02685929834842682, "yaw": 2.5187485218048096}, "local_position": {"x": -1.0112855434417725, "y": -0.3646846413612366, "z": -2.069289207458496}, "status": {"flags": 831, "velocity_variance": 0.03774044290184975, "pos_horiz_variance": 0.029189951717853546, "pos_vert_variance": 0.0004021265485789627}}, "errors": ["EKF3 IMU0 is using GPS", "EKF3 IMU1 is using GPS", "PreArm: RC not found", "PreArm: Hardware safety switch"]}
{"timestamp": "2025-12-16T08:39:17.064085Z", "telemetry": {"lat": 28.7531143, "lon": 77.1178951, "satellites": 7, "altitude_gps_m": 211.5399932861328, "groundspeed_mps": 0.20552979409694672}, "flight": {"mode": "STABILIZE", "armed": false}, "ekf": {"attitude": {"roll": -0.02722272276878357, "pitch": -0.026751825585961342, "yaw": 2.5188093185424805}, "local_position": {"x": -1.1153392791748047, "y": -0.43995028734207153, "z": -2.128826379776001}, "status": {"flags": 831, "velocity_variance": 0.06753920018672943, "pos_horiz_variance": 0.03598015010356903, "pos_vert_variance": 0.010465791448950768}}, "errors": ["EKF3 IMU0 is using GPS", "EKF3 IMU1 is using GPS", "PreArm: RC not found", "PreArm: Hardware safety switch"]}
{"timestamp": "2025-12-16T08:39:18.067545Z", "telemetry": {"lat": 28.753113, "lon": 77.117894, "satellites": 7, "altitude_gps_m": 211.63999938964844, "groundspeed_mps": 0.21464377641677856}, "flight": {"mode": "STABILIZE", "armed": false}, "ekf": {"attitude": {"roll": -0.027232583612203598, "pitch": -0.02676740288734436, "yaw": 2.518678665161133}, "local_position": {"x": -1.2498348951339722, "y": -0.5104549527168274, "z": -2.2270219326019287}, "status": {"flags": 831, "velocity_variance": 0.07974020391702652, "pos_horiz_variance": 0.04004145786166191, "pos_vert_variance": 0.010623026639223099}}, "errors": ["EKF3 IMU0 is using GPS", "EKF3 IMU1 is using GPS", "PreArm: RC not found", "PreArm: Hardware safety switch"]}
{"timestamp": "2025-12-16T08:39:19.084694Z", "telemetry": {"lat": 28.7531121, "lon": 77.1178932, "satellites": 7, "altitude_gps_m": 211.72000122070312, "groundspeed_mps": 0.20966748893260956}, "flight": {"mode": "STABILIZE", "armed": false}, "ekf": {"attitude": {"roll": -0.02752191200852394, "pitch": -0.026836039498448372, "yaw": 2.5184195041656494}, "local_position": {"x": -1.3585615158081055, "y": -0.5836197137832642, "z": -2.3051564693450928}, "status": {"flags": 831, "velocity_variance": 0.06891252100467682, "pos_horiz_variance": 0.0405651293694973, "pos_vert_variance": 0.012349244207143784}}, "errors": ["EKF3 IMU0 is using GPS", "EKF3 IMU1 is using GPS", "PreArm: RC not found", "PreArm: Hardware safety switch"]}
{"timestamp": "2025-12-16T08:39:20.064016Z", "telemetry": {"lat": 28.7531115, "lon": 77.1178923, "satellites": 7, "altitude_gps_m": 211.77999877929688, "groundspeed_mps": 0.1999821960926056}, "flight": {"mode": "STABILIZE", "armed": false}, "ekf": {"attitude": {"roll": -0.027644604444503784, "pitch": -0.02632887288928032, "yaw": 2.518472194671631}, "local_position": {"x": -1.4609763622283936, "y": -0.6767463088035583, "z": -2.3683292865753174}, "status": {"flags": 831, "velocity_variance": 0.12893381714820862, "pos_horiz_variance": 0.03914478048682213, "pos_vert_variance": 0.011540751904249191}}, "errors": ["EKF3 IMU0 is using GPS", "EKF3 IMU1 is using GPS", "PreArm: RC not found", "PreArm: Hardware safety switch"]}
{"timestamp": "2025-12-16T08:39:21.067911Z", "telemetry": {"lat": 28.753111, "lon": 77.1178914, "satellites": 7, "altitude_gps_m": 211.79998779296875, "groundspeed_mps": 0.17802336812019348}, "flight": {"mode": "STABILIZE", "armed": false}, "ekf": {"attitude": {"roll": -0.02782924473285675, "pitch": -0.02603517659008503, "yaw": 2.518126964569092}, "local_position": {"x": -1.5181334018707275, "y": -0.7697685956954956, "z": -2.3876230716705322}, "status": {"flags": 831, "velocity_variance": 0.07850377261638641, "pos_horiz_variance": 0.03888364136219025, "pos_vert_variance": 0.015252026729285717}}, "errors": ["EKF3 IMU0 is using GPS", "EKF3 IMU1 is using GPS", "PreArm: RC not found", "PreArm: Hardware safety switch"]}
{"timestamp": "2025-12-16T08:39:22.081817Z", "telemetry": {"lat": 28.7531104, "lon": 77.1178906, "satellites": 7, "altitude_gps_m": 211.8699951171875, "groundspeed_mps": 0.16618220508098602}, "flight": {"mode": "STABILIZE", "armed": false}, "ekf": {"attitude": {"roll": -0.02778187021613121, "pitch": -0.02593788504600525, "yaw": 2.518127918243408}, "local_position": {"x": -1.5888895988464355, "y": -0.8632485270500183, "z": -2.452141284942627}, "status": {"flags": 831, "velocity_variance": 0.07442878186702728, "pos_horiz_variance": 0.036957036703825, "pos_vert_variance": 0.019148709252476692}}, "errors": ["EKF3 IMU0 is using GPS", "EKF3 IMU1 is using GPS", "PreArm: RC not found", "PreArm: Hardware safety switch"]}
{"timestamp": "2025-12-16T08:39:23.063741Z", "telemetry": {"lat": 28.7531102, "lon": 77.1178898, "satellites": 7, "altitude_gps_m": 211.9199981689453, "groundspeed_mps": 0.15288902819156647}, "flight": {"mode": "STABILIZE", "armed": false}, "ekf": {"attitude": {"roll": -0.02827322483062744, "pitch": -0.025845075026154518, "yaw": 2.5180721282958984}, "local_position": {"x": -1.6230255365371704, "y": -0.9403262734413147, "z": -2.5045039653778076}, "status": {"flags": 831, "velocity_variance": 0.10590991377830505, "pos_horiz_variance": 0.03669300675392151, "pos_vert_variance": 0.02165859565138817}}, "errors": ["EKF3 IMU0 is using GPS", "EKF3 IMU1 is using GPS", "PreArm: RC not found", "PreArm: Hardware safety switch"]}
{"timestamp": "2025-12-16T08:39:24.064460Z", "telemetry": {"lat": 28.7531099, "lon": 77.1178891, "satellites": 7, "altitude_gps_m": 212.00999450683594, "groundspeed_mps": 0.1586844027042389}, "flight": {"mode": "STABILIZE", "armed": false}, "ekf": {"attitude": {"roll": -0.028299037367105484, "pitch": -0.026113977655768394, "yaw": 2.5181798934936523}, "local_position": {"x": -1.6823054552078247, "y": -1.0038546323776245, "z": -2.597160816192627}, "status": {"flags": 831, "velocity_variance": 0.0801115334033966, "pos_horiz_variance": 0.036615367978811264, "pos_vert_variance": 0.018016308546066284}}, "errors": ["EKF3 IMU0 is using GPS", "EKF3 IMU1 is using GPS", "PreArm: RC not found", "PreArm: Hardware safety switch"]}
{"timestamp": "2025-12-16T08:39:25.080945Z", "telemetry": {"lat": 28.7531093, "lon": 77.1178883, "satellites": 7, "altitude_gps_m": 212.11000061035156, "groundspeed_mps": 0.1591017246246338}, "flight": {"mode": "STABILIZE", "armed": false}, "ekf": {"attitude": {"roll": -0.028433844447135925, "pitch": -0.026356082409620285, "yaw": 2.517934560775757}, "local_position": {"x": -1.7224024534225464, "y": -1.0684293508529663, "z": -2.6912600994110107}, "status": {"flags": 831, "velocity_variance": 0.09136855602264404, "pos_horiz_variance": 0.03817739710211754, "pos_vert_variance": 0.024700289592146873}}, "errors": ["EKF3 IMU0 is using GPS", "EKF3 IMU1 is using GPS", "PreArm: RC not found", "PreArm: Hardware safety switch"]}
{"timestamp": "2025-12-16T08:39:26.063576Z", "telemetry": {"lat": 28.7531088, "lon": 77.1178875, "satellites": 7, "altitude_gps_m": 212.1699981689453, "groundspeed_mps": 0.16537043452262878}, "flight": {"mode": "STABILIZE", "armed": false}, "ekf": {"attitude": {"roll": -0.02850843220949173, "pitch": -0.026481762528419495, "yaw": 2.518051862716675}, "local_position": {"x": -1.7820603847503662, "y": -1.137510895729065, "z": -2.758733034133911}, "status": {"flags": 831, "velocity_variance": 0.0626102164387703, "pos_horiz_variance": 0.03853204846382141, "pos_vert_variance": 0.026953991502523422}}, "errors": ["EKF3 IMU0 is using GPS", "EKF3 IMU1 is using GPS", "PreArm: RC not found", "PreArm: Hardware safety switch"]}
{"timestamp": "2025-12-16T08:39:27.070095Z", "telemetry": {"lat": 28.7531079, "lon": 77.1178872, "satellites": 7, "altitude_gps_m": 212.26998901367188, "groundspeed_mps": 0.1824895292520523}, "flight": {"mode": "STABILIZE", "armed": false}, "ekf": {"attitude": {"roll": -0.02846834808588028, "pitch": -0.026971926912665367, "yaw": 2.518192768096924}, "local_position": {"x": -1.8552638292312622, "y": -1.187373161315918, "z": -2.853187322616577}, "status": {"flags": 831, "velocity_variance": 0.05605055019259453, "pos_horiz_variance": 0.03716691955924034, "pos_vert_variance": 0.024242328479886055}}, "errors": ["EKF3 IMU0 is using GPS", "EKF3 IMU1 is using GPS", "PreArm: RC not found", "PreArm: Hardware safety switch"]}
{"timestamp": "2025-12-16T08:39:28.082112Z", "telemetry": {"lat": 28.7531068, "lon": 77.1178866, "satellites": 7, "altitude_gps_m": 212.33999633789062, "groundspeed_mps": 0.17927135527133942}, "flight": {"mode": "STABILIZE", "armed": false}, "ekf": {"attitude": {"roll": -0.028052479028701782, "pitch": -0.026842880994081497, "yaw": 2.5181121826171875}, "local_position": {"x": -1.9354521036148071, "y": -1.2755415439605713, "z": -2.9291675090789795}, "status": {"flags": 831, "velocity_variance": 0.07395244389772415, "pos_horiz_variance": 0.03705138713121414, "pos_vert_variance": 0.026861445978283882}}, "errors": ["EKF3 IMU0 is using GPS", "EKF3 IMU1 is using GPS", "PreArm: RC not found", "PreArm: Hardware safety switch"]}
{"timestamp": "2025-12-16T08:39:29.063607Z", "telemetry": {"lat": 28.7531058, "lon": 77.1178855, "satellites": 7, "altitude_gps_m": 212.4199981689453, "groundspeed_mps": 0.16524635255336761}, "flight": {"mode": "STABILIZE", "armed": false}, "ekf": {"attitude": {"roll": -0.027967825531959534, "pitch": -0.02666376158595085, "yaw": 2.5182831287384033}, "local_position": {"x": -2.0025429725646973, "y": -1.3841551542282104, "z": -3.0022802352905273}, "status": {"flags": 831, "velocity_variance": 0.06315890699625015, "pos_horiz_variance": 0.039854325354099274, "pos_vert_variance": 0.028229840099811554}}, "errors": ["EKF3 IMU0 is using GPS", "EKF3 IMU1 is using GPS", "PreArm: RC not found", "PreArm: Hardware safety switch"]}
{"timestamp": "2025-12-16T08:39:30.063844Z", "telemetry": {"lat": 28.7531049, "lon": 77.1178847, "satellites": 7, "altitude_gps_m": 212.5399932861328, "groundspeed_mps": 0.17520956695079803}, "flight": {"mode": "STABILIZE", "armed": false}, "ekf": {"attitude": {"roll": -0.028111007064580917, "pitch": -0.026965703815221786, "yaw": 2.5183303356170654}, "local_position": {"x": -2.0937042236328125, "y": -1.4476555585861206, "z": -3.121659755706787}, "status": {"flags": 831, "velocity_variance": 0.05943605303764343, "pos_horiz_variance": 0.041116245090961456, "pos_vert_variance": 0.027415718883275986}}, "errors": ["EKF3 IMU0 is using GPS", "EKF3 IMU1 is using GPS", "PreArm: RC not found", "PreArm: Hardware safety switch"]}
{"timestamp": "2025-12-16T08:39:31.080440Z", "telemetry": {"lat": 28.7531037, "lon": 77.1178836, "satellites": 7, "altitude_gps_m": 212.6999969482422, "groundspeed_mps": 0.1922190636396408}, "flight": {"mode": "STABILIZE", "armed": false}, "ekf": {"attitude": {"roll": -0.027617670595645905, "pitch": -0.0270506851375103, "yaw": 2.518249273300171}, "local_position": {"x": -2.2362446784973145, "y": -1.539869785308838, "z": -3.285374879837036}, "status": {"flags": 831, "velocity_variance": 0.08708282560110092, "pos_horiz_variance": 0.042218226939439774, "pos_vert_variance": 0.030418099835515022}}, "errors": ["EKF3 IMU0 is using GPS", "EKF3 IMU1 is using GPS", "PreArm: RC not found", "PreArm: Hardware safety switch"]}
{"timestamp": "2025-12-16T08:39:32.063949Z", "telemetry": {"lat": 28.7531032, "lon": 77.1178831, "satellites": 7, "altitude_gps_m": 212.84999084472656, "groundspeed_mps": 0.19034506380558014}, "flight": {"mode": "STABILIZE", "armed": false}, "ekf": {"attitude": {"roll": -0.02779405191540718, "pitch": -0.02694842405617237, "yaw": 2.5185463428497314}, "local_position": {"x": -2.33526873588562, "y": -1.6347414255142212, "z": -3.439363956451416}, "status": {"flags": 831, "velocity_variance": 0.06701086461544037, "pos_horiz_variance": 0.036876529455184937, "pos_vert_variance": 0.02782372571527958}}, "errors": ["EKF3 IMU0 is using GPS", "EKF3 IMU1 is using GPS", "PreArm: RC not found", "PreArm: Hardware safety switch"]}
{"timestamp": "2025-12-16T08:39:33.063628Z", "telemetry": {"lat": 28.753103, "lon": 77.1178825, "satellites": 7, "altitude_gps_m": 213.01998901367188, "groundspeed_mps": 0.18104058504104614}, "flight": {"mode": "STABILIZE", "armed": false}, "ekf": {"attitude": {"roll": -0.027888868004083633, "pitch": -0.026720285415649414, "yaw": 2.5185108184814453}, "local_position": {"x": -2.4004852771759033, "y": -1.708260416984558, "z": -3.578324794769287}, "status": {"flags": 831, "velocity_variance": 0.08897435665130615, "pos_horiz_variance": 0.033380262553691864, "pos_vert_variance": 0.022723229601979256}}, "errors": ["EKF3 IMU0 is using GPS", "EKF3 IMU1 is using GPS", "PreArm: RC not found", "PreArm: Hardware safety switch"]}
{"timestamp": "2025-12-16T08:39:34.075113Z", "telemetry": {"lat": 28.7531033, "lon": 77.1178819, "satellites": 7, "altitude_gps_m": 213.0800018310547, "groundspeed_mps": 0.18540078401565552}, "flight": {"mode": "STABILIZE", "armed": false}, "ekf": {"attitude": {"roll": -0.028100185096263885, "pitch": -0.02668246254324913, "yaw": 2.5184507369995117}, "local_position": {"x": -2.472236394882202, "y": -1.762265920639038, "z": -3.666491746902466}, "status": {"flags": 831, "velocity_variance": 0.07724068313837051, "pos_horiz_variance": 0.03077307716012001, "pos_vert_variance": 0.01735672727227211}}, "errors": ["EKF3 IMU0 is using GPS", "EKF3 IMU1 is using GPS", "PreArm: RC not found", "PreArm: Hardware safety switch"]}
{"timestamp": "2025-12-16T08:39:35.064366Z", "telemetry": {"lat": 28.7531031, "lon": 77.1178812, "satellites": 7, "altitude_gps_m": 213.1699981689453, "groundspeed_mps": 0.1885051727294922}, "flight": {"mode": "STABILIZE", "armed": false}, "ekf": {"attitude": {"roll": -0.028068624436855316, "pitch": -0.026583697646856308, "yaw": 2.5186052322387695}, "local_position": {"x": -2.5318310260772705, "y": -1.8183467388153076, "z": -3.7604990005493164}, "status": {"flags": 831, "velocity_variance": 0.07982511073350906, "pos_horiz_variance": 0.031110363081097603, "pos_vert_variance": 0.01979074813425541}}, "errors": ["EKF3 IMU0 is using GPS", "EKF3 IMU1 is using GPS", "PreArm: RC not found", "PreArm: Hardware safety switch"]}
{"timestamp": "2025-12-16T08:39:36.063606Z", "telemetry": {"lat": 28.7531026, "lon": 77.1178807, "satellites": 7, "altitude_gps_m": 213.30999755859375, "groundspeed_mps": 0.17451749742031097}, "flight": {"mode": "STABILIZE", "armed": false}, "ekf": {"attitude": {"roll": -0.027984727174043655, "pitch": -0.026386288926005363, "yaw": 2.518585205078125}, "local_position": {"x": -2.543226480484009, "y": -1.86704683303833, "z": -3.8570003509521484}, "status": {"flags": 831, "velocity_variance": 0.0813220888376236, "pos_horiz_variance": 0.03045126050710678, "pos_vert_variance": 0.03010496310889721}}, "errors": ["EKF3 IMU0 is using GPS", "EKF3 IMU1 is using GPS", "PreArm: RC not found", "PreArm: Hardware safety switch"]}
{"timestamp": "2025-12-16T08:39:37.073650Z", "telemetry": {"lat": 28.7531024, "lon": 77.1178806, "satellites": 7, "altitude_gps_m": 213.47999572753906, "groundspeed_mps": 0.17254328727722168}, "flight": {"mode": "STABILIZE", "armed": false}, "ekf": {"attitude": {"roll": -0.027931485325098038, "pitch": -0.02648274600505829, "yaw": 2.5185248851776123}, "local_position": {"x": -2.5806307792663574, "y": -1.9248591661453247, "z": -4.065093040466309}, "status": {"flags": 831, "velocity_variance": 0.031370654702186584, "pos_horiz_variance": 0.026776719838380814, "pos_vert_variance": 0.032931022346019745}}, "errors": ["EKF3 IMU0 is using GPS", "EKF3 IMU1 is using GPS", "PreArm: RC not found", "PreArm: Hardware safety switch"]}
{"timestamp": "2025-12-16T08:39:38.064351Z", "telemetry": {"lat": 28.753103, "lon": 77.1178807, "satellites": 7, "altitude_gps_m": 213.67999267578125, "groundspeed_mps": 0.19439615309238434}, "flight": {"mode": "STABILIZE", "armed": false}, "ekf": {"attitude": {"roll": -0.027873445302248, "pitch": -0.026656053960323334, "yaw": 2.518545627593994}, "local_position": {"x": -2.647127628326416, "y": -1.9401607513427734, "z": -4.264798164367676}, "status": {"flags": 831, "velocity_variance": 0.09597623348236084, "pos_horiz_variance": 0.02636726386845112, "pos_vert_variance": 0.015400231815874577}}, "errors": ["EKF3 IMU0 is using GPS", "EKF3 IMU1 is using GPS", "PreArm: RC not found", "PreArm: Hardware safety switch"]}
{"timestamp": "2025-12-16T08:39:39.064201Z", "telemetry": {"lat": 28.7531032, "lon": 77.1178808, "satellites": 7, "altitude_gps_m": 213.80999755859375, "groundspeed_mps": 0.1788163185119629}, "flight": {"mode": "STABILIZE", "armed": false}, "ekf": {"attitude": {"roll": -0.02804604545235634, "pitch": -0.026465661823749542, "yaw": 2.518735647201538}, "local_position": {"x": -2.6305954456329346, "y": -1.9704099893569946, "z": -4.398532867431641}, "status": {"flags": 831, "velocity_variance": 0.097694531083107, "pos_horiz_variance": 0.02277272567152977, "pos_vert_variance": 0.0134122958406806}}, "errors": ["EKF3 IMU0 is using GPS", "EKF3 IMU1 is using GPS", "PreArm: RC not found", "PreArm: Hardware safety switch"]}
{"timestamp": "2025-12-16T08:39:40.071018Z", "telemetry": {"lat": 28.753103, "lon": 77.1178811, "satellites": 7, "altitude_gps_m": 213.97999572753906, "groundspeed_mps": 0.19541935622692108}, "flight": {"mode": "STABILIZE", "armed": false}, "ekf": {"attitude": {"roll": -0.02765696868300438, "pitch": -0.02693048305809498, "yaw": 2.518758773803711}, "local_position": {"x": -2.659466505050659, "y": -1.9678345918655396, "z": -4.566324234008789}, "status": {"flags": 831, "velocity_variance": 0.06982750445604324, "pos_horiz_variance": 0.02104100212454796, "pos_vert_variance": 0.009061310440301895}}, "errors": ["EKF3 IMU0 is using GPS", "EKF3 IMU1 is using GPS", "PreArm: RC not found", "PreArm: Hardware safety switch"]}
{"timestamp": "2025-12-16T08:39:41.064386Z", "telemetry": {"lat": 28.753103, "lon": 77.1178813, "satellites": 7, "altitude_gps_m": 214.1699981689453, "groundspeed_mps": 0.20964419841766357}, "flight": {"mode": "STABILIZE", "armed": false}, "ekf": {"attitude": {"roll": -0.02715940773487091, "pitch": -0.027133075520396233, "yaw": 2.5185770988464355}, "local_position": {"x": -2.7254269123077393, "y": -1.9878809452056885, "z": -4.756631851196289}, "status": {"flags": 831, "velocity_variance": 0.11022976785898209, "pos_horiz_variance": 0.022764239460229874, "pos_vert_variance": 0.005603315774351358}}, "errors": ["EKF3 IMU0 is using GPS", "EKF3 IMU1 is using GPS", "PreArm: RC not found", "PreArm: Hardware safety switch"]}
{"timestamp": "2025-12-16T08:39:42.127185Z", "telemetry": {"lat": 28.7531035, "lon": 77.1178817, "satellites": 7, "altitude_gps_m": 214.29998779296875, "groundspeed_mps": 0.18466390669345856}, "flight": {"mode": "STABILIZE", "armed": false}, "ekf": {"attitude": {"roll": -0.027391869574785233, "pitch": -0.026516646146774292, "yaw": 2.518810749053955}, "local_position": {"x": -2.6648366451263428, "y": -1.986910104751587, "z": -4.8697075843811035}, "status": {"flags": 831, "velocity_variance": 0.12114551663398743, "pos_horiz_variance": 0.02048608288168907, "pos_vert_variance": 0.0032188554760068655}}, "errors": ["EKF3 IMU0 is using GPS", "EKF3 IMU1 is using GPS", "PreArm: RC not found", "PreArm: Hardware safety switch"]}
{"timestamp": "2025-12-16T08:39:43.080985Z", "telemetry": {"lat": 28.7531029, "lon": 77.1178817, "satellites": 7, "altitude_gps_m": 214.3199920654297, "groundspeed_mps": 0.18486890196800232}, "flight": {"mode": "STABILIZE", "armed": false}, "ekf": {"attitude": {"roll": -0.02742621675133705, "pitch": -0.026617329567670822, "yaw": 2.518889904022217}, "local_position": {"x": -2.6432435512542725, "y": -1.9744726419448853, "z": -4.908037185668945}, "status": {"flags": 831, "velocity_variance": 0.11669212579727173, "pos_horiz_variance": 0.015330678783357143, "pos_vert_variance": 0.017473867163062096}}, "errors": ["EKF3 IMU0 is using GPS", "EKF3 IMU1 is using GPS", "PreArm: RC not found", "PreArm: Hardware safety switch", "PreArm: RC not found", "PreArm: Hardware safety switch"]}
{"timestamp": "2025-12-16T08:39:44.086237Z", "telemetry": {"lat": 28.7531036, "lon": 77.1178817, "satellites": 7, "altitude_gps_m": 214.4099884033203, "groundspeed_mps": 0.1902460902929306}, "flight": {"mode": "STABILIZE", "armed": false}, "ekf": {"attitude": {"roll": -0.02703791856765747, "pitch": -0.02686724066734314, "yaw": 2.519085645675659}, "local_position": {"x": -2.6472809314727783, "y": -1.9633443355560303, "z": -4.996969699859619}, "status": {"flags": 831, "velocity_variance": 0.08228430896997452, "pos_horiz_variance": 0.022199394181370735, "pos_vert_variance": 0.005365487188100815}}, "errors": ["EKF3 IMU0 is using GPS", "EKF3 IMU1 is using GPS", "PreArm: RC not found", "PreArm: Hardware safety switch", "PreArm: RC not found", "PreArm: Hardware safety switch"]}
{"timestamp": "2025-12-16T08:39:45.064340Z", "telemetry": {"lat": 28.7531042, "lon": 77.1178821, "satellites": 7, "altitude_gps_m": 214.51998901367188, "groundspeed_mps": 0.19238969683647156}, "flight": {"mode": "STABILIZE", "armed": false}, "ekf": {"attitude": {"roll": -0.026888277381658554, "pitch": -0.02703722193837166, "yaw": 2.51914119720459}, "local_position": {"x": -2.640141010284424, "y": -1.951103687286377, "z": -5.103209495544434}, "status": {"flags": 831, "velocity_variance": 0.07729967683553696, "pos_horiz_variance": 0.026383638381958008, "pos_vert_variance": 0.0010112393647432327}}, "errors": ["EKF3 IMU0 is using GPS", "EKF3 IMU1 is using GPS", "PreArm: RC not found", "PreArm: Hardware safety switch", "PreArm: RC not found", "PreArm: Hardware safety switch"]}
{"timestamp": "2025-12-16T08:39:46.096243Z", "telemetry": {"lat": 28.7531051, "lon": 77.1178829, "satellites": 7, "altitude_gps_m": 214.63999938964844, "groundspeed_mps": 0.18761011958122253}, "flight": {"mode": "STABILIZE", "armed": false}, "ekf": {"attitude": {"roll": -0.026570569723844528, "pitch": -0.026773225516080856, "yaw": 2.519254446029663}, "local_position": {"x": -2.617058515548706, "y": -1.9468945264816284, "z": -5.206028938293457}, "status": {"flags": 831, "velocity_variance": 0.07857580482959747, "pos_horiz_variance": 0.031961437314748764, "pos_vert_variance": 0.00012351415352895856}}, "errors": ["EKF3 IMU0 is using GPS", "EKF3 IMU1 is using GPS", "PreArm: RC not found", "PreArm: Hardware safety switch", "PreArm: RC not found", "PreArm: Hardware safety switch"]}
{"timestamp": "2025-12-16T08:39:47.098767Z", "telemetry": {"lat": 28.753106, "lon": 77.1178838, "satellites": 7, "altitude_gps_m": 214.6599884033203, "groundspeed_mps": 0.16831271350383759}, "flight": {"mode": "STABILIZE", "armed": false}, "ekf": {"attitude": {"roll": -0.02678198739886284, "pitch": -0.02612513303756714, "yaw": 2.5191733837127686}, "local_position": {"x": -2.5330846309661865, "y": -1.9199554920196533, "z": -5.248313903808594}, "status": {"flags": 831, "velocity_variance": 0.09922526031732559, "pos_horiz_variance": 0.03494640439748764, "pos_vert_variance": 0.006209211889654398}}, "errors": ["EKF3 IMU0 is using GPS", "EKF3 IMU1 is using GPS", "PreArm: RC not found", "PreArm: Hardware safety switch", "PreArm: RC not found", "PreArm: Hardware safety switch"]}
{"timestamp": "2025-12-16T08:39:48.077079Z", "telemetry": {"lat": 28.753107, "lon": 77.1178842, "satellites": 7, "altitude_gps_m": 214.64999389648438, "groundspeed_mps": 0.17073439061641693}, "flight": {"mode": "STABILIZE", "armed": false}, "ekf": {"attitude": {"roll": -0.026887431740760803, "pitch": -0.026470769196748734, "yaw": 2.5190987586975098}, "local_position": {"x": -2.4541049003601074, "y": -1.8644345998764038, "z": -5.230823516845703}, "status": {"flags": 831, "velocity_variance": 0.09260720759630203, "pos_horiz_variance": 0.03867597505450249, "pos_vert_variance": 0.016586994752287865}}, "errors": ["EKF3 IMU0 is using GPS", "EKF3 IMU1 is using GPS", "PreArm: RC not found", "PreArm: Hardware safety switch", "PreArm: RC not found", "PreArm: Hardware safety switch"]}
{"timestamp": "2025-12-16T08:39:49.069655Z", "telemetry": {"lat": 28.753108, "lon": 77.1178848, "satellites": 7, "altitude_gps_m": 214.67999267578125, "groundspeed_mps": 0.17104895412921906}, "flight": {"mode": "STABILIZE", "armed": false}, "ekf": {"attitude": {"roll": -0.026616930961608887, "pitch": -0.026404879987239838, "yaw": 2.5191969871520996}, "local_position": {"x": -2.372070550918579, "y": -1.7952536344528198, "z": -5.252191066741943}, "status": {"flags": 831, "velocity_variance": 0.0734364315867424, "pos_horiz_variance": 0.04149526357650757, "pos_vert_variance": 0.00968844536691904}}, "errors": ["EKF3 IMU0 is using GPS", "EKF3 IMU1 is using GPS", "PreArm: RC not found", "PreArm: Hardware safety switch", "PreArm: RC not found", "PreArm: Hardware safety switch"]}
{"timestamp": "2025-12-16T08:39:50.079274Z", "telemetry": {"lat": 28.7531096, "lon": 77.1178849, "satellites": 7, "altitude_gps_m": 214.6999969482422, "groundspeed_mps": 0.15899066627025604}, "flight": {"mode": "STABILIZE", "armed": false}, "ekf": {"attitude": {"roll": -0.02628249302506447, "pitch": -0.026186995208263397, "yaw": 2.519082546234131}, "local_position": {"x": -2.263249397277832, "y": -1.7768194675445557, "z": -5.286559104919434}, "status": {"flags": 831, "velocity_variance": 0.05923662334680557, "pos_horiz_variance": 0.048751842230558395, "pos_vert_variance": 0.02997966669499874}}, "errors": ["EKF3 IMU0 is using GPS", "EKF3 IMU1 is using GPS", "PreArm: RC not found", "PreArm: Hardware safety switch", "PreArm: RC not found", "PreArm: Hardware safety switch"]}
{"timestamp": "2025-12-16T08:39:51.065442Z", "telemetry": {"lat": 28.7531114, "lon": 77.1178851, "satellites": 7, "altitude_gps_m": 214.59999084472656, "groundspeed_mps": 0.14391684532165527}, "flight": {"mode": "STABILIZE", "armed": false}, "ekf": {"attitude": {"roll": -0.026144519448280334, "pitch": -0.02607910893857479, "yaw": 2.5189404487609863}, "local_position": {"x": -2.1215951442718506, "y": -1.7519044876098633, "z": -5.185921669006348}, "status": {"flags": 831, "velocity_variance": 0.11284580826759338, "pos_horiz_variance": 0.05646272748708725, "pos_vert_variance": 0.041239019483327866}}, "errors": ["EKF3 IMU0 is using GPS", "EKF3 IMU1 is using GPS", "PreArm: RC not found", "PreArm: Hardware safety switch", "PreArm: RC not found", "PreArm: Hardware safety switch"]}
{"timestamp": "2025-12-16T08:39:52.078019Z", "telemetry": {"lat": 28.7531128, "lon": 77.1178851, "satellites": 7, "altitude_gps_m": 214.39999389648438, "groundspeed_mps": 0.12372775375843048}, "flight": {"mode": "STABILIZE", "armed": false}, "ekf": {"attitude": {"roll": -0.026127584278583527, "pitch": -0.025828611105680466, "yaw": 2.519124984741211}, "local_position": {"x": -1.9082995653152466, "y": -1.7205724716186523, "z": -5.017784118652344}, "status": {"flags": 831, "velocity_variance": 0.0790075734257698, "pos_horiz_variance": 0.05192326381802559, "pos_vert_variance": 0.04334612563252449}}, "errors": ["EKF3 IMU0 is using GPS", "EKF3 IMU1 is using GPS", "PreArm: RC not found", "PreArm: Hardware safety switch", "PreArm: RC not found", "PreArm: Hardware safety switch"]}
{"timestamp": "2025-12-16T08:39:53.078042Z", "telemetry": {"lat": 28.7531141, "lon": 77.1178853, "satellites": 7, "altitude_gps_m": 214.3199920654297, "groundspeed_mps": 0.12822411954402924}, "flight": {"mode": "STABILIZE", "armed": false}, "ekf": {"attitude": {"roll": -0.02605556696653366, "pitch": -0.026144281029701233, "yaw": 2.5189714431762695}, "local_position": {"x": -1.756131649017334, "y": -1.6926438808441162, "z": -4.904290676116943}, "status": {"flags": 831, "velocity_variance": 0.061099883168935776, "pos_horiz_variance": 0.05106564983725548, "pos_vert_variance": 0.05063345283269882}}, "errors": ["EKF3 IMU0 is using GPS", "EKF3 IMU1 is using GPS", "PreArm: RC not found", "PreArm: Hardware safety switch", "PreArm: RC not found", "PreArm: Hardware safety switch"]}
{"timestamp": "2025-12-16T08:39:54.078656Z", "telemetry": {"lat": 28.7531141, "lon": 77.1178853, "satellites": 7, "altitude_gps_m": 214.29998779296875, "groundspeed_mps": 0.1308087408542633}, "flight": {"mode": "STABILIZE", "armed": false}, "ekf": {"attitude": {"roll": -0.025952409952878952, "pitch": -0.0263509601354599, "yaw": 2.5190815925598145}, "local_position": {"x": -1.756131649017334, "y": -1.6926438808441162, "z": -4.904290676116943}, "status": {"flags": 831, "velocity_variance": 0.061099883168935776, "pos_horiz_variance": 0.05106564983725548, "pos_vert_variance": 0.05063345283269882}}, "errors": ["EKF3 IMU0 is using GPS", "EKF3 IMU1 is using GPS", "PreArm: RC not found", "PreArm: Hardware safety switch", "PreArm: RC not found", "PreArm: Hardware safety switch"]}
{"timestamp": "2025-12-16T08:39:55.063698Z", "telemetry": {"lat": 28.7531169, "lon": 77.1178853, "satellites": 7, "altitude_gps_m": 214.02999877929688, "groundspeed_mps": 0.13382241129875183}, "flight": {"mode": "STABILIZE", "armed": false}, "ekf": {"attitude": {"roll": -0.02536802738904953, "pitch": -0.02688405103981495, "yaw": 2.519010543823242}, "local_position": {"x": -1.4991174936294556, "y": -1.6439272165298462, "z": -4.676232814788818}, "status": {"flags": 831, "velocity_variance": 0.07806925475597382, "pos_horiz_variance": 0.057524919509887695, "pos_vert_variance": 0.0737251341342926}}, "errors": ["EKF3 IMU0 is using GPS", "EKF3 IMU1 is using GPS", "PreArm: RC not found", "PreArm: Hardware safety switch", "PreArm: RC not found", "PreArm: Hardware safety switch"]}
{"timestamp": "2025-12-16T08:39:56.063602Z", "telemetry": {"lat": 28.7531179, "lon": 77.1178851, "satellites": 7, "altitude_gps_m": 213.80999755859375, "groundspeed_mps": 0.12178507447242737}, "flight": {"mode": "STABILIZE", "armed": false}, "ekf": {"attitude": {"roll": -0.02540672942996025, "pitch": -0.026878710836172104, "yaw": 2.518862247467041}, "local_position": {"x": -1.2955873012542725, "y": -1.6561747789382935, "z": -4.395771503448486}, "status": {"flags": 831, "velocity_variance": 0.05791917070746422, "pos_horiz_variance": 0.04926332086324692, "pos_vert_variance": 0.06338509172201157}}, "errors": ["EKF3 IMU0 is using GPS", "EKF3 IMU1 is using GPS", "PreArm: RC not found", "PreArm: Hardware safety switch", "PreArm: RC not found", "PreArm: Hardware safety switch"]}
{"timestamp": "2025-12-16T08:39:57.079213Z", "telemetry": {"lat": 28.7531188, "lon": 77.1178848, "satellites": 7, "altitude_gps_m": 213.58999633789062, "groundspeed_mps": 0.1300201117992401}, "flight": {"mode": "STABILIZE", "armed": false}, "ekf": {"attitude": {"roll": -0.025215402245521545, "pitch": -0.02722937799990177, "yaw": 2.5188381671905518}, "local_position": {"x": -1.1586512327194214, "y": -1.6397372484207153, "z": -4.172173023223877}, "status": {"flags": 831, "velocity_variance": 0.05268632248044014, "pos_horiz_variance": 0.04603702947497368, "pos_vert_variance": 0.05574548989534378}}, "errors": ["EKF3 IMU0 is using GPS", "EKF3 IMU1 is using GPS", "PreArm: RC not found", "PreArm: Hardware safety switch", "PreArm: RC not found", "PreArm: Hardware safety switch"]}
{"timestamp": "2025-12-16T08:39:58.072535Z", "telemetry": {"lat": 28.7531197, "lon": 77.1178846, "satellites": 7, "altitude_gps_m": 213.38999938964844, "groundspeed_mps": 0.14625334739685059}, "flight": {"mode": "STABILIZE", "armed": false}, "ekf": {"attitude": {"roll": -0.024876799434423447, "pitch": -0.027723118662834167, "yaw": 2.5188357830047607}, "local_position": {"x": -1.0501161813735962, "y": -1.6233662366867065, "z": -4.01129674911499}, "status": {"flags": 831, "velocity_variance": 0.07397475093603134, "pos_horiz_variance": 0.04551414027810097, "pos_vert_variance": 0.05097894370555878}}, "errors": ["EKF3 IMU0 is using GPS", "EKF3 IMU1 is using GPS", "PreArm: RC not found", "PreArm: Hardware safety switch", "PreArm: RC not found", "PreArm: Hardware safety switch"]}
{"timestamp": "2025-12-16T08:39:59.087666Z", "telemetry": {"lat": 28.7531202, "lon": 77.1178841, "satellites": 7, "altitude_gps_m": 213.26998901367188, "groundspeed_mps": 0.13428322970867157}, "flight": {"mode": "STABILIZE", "armed": false}, "ekf": {"attitude": {"roll": -0.024805214256048203, "pitch": -0.027347836643457413, "yaw": 2.5186781883239746}, "local_position": {"x": -0.9266772866249084, "y": -1.66536545753479, "z": -3.8565192222595215}, "status": {"flags": 831, "velocity_variance": 0.08210685849189758, "pos_horiz_variance": 0.04012516885995865, "pos_vert_variance": 0.039070699363946915}}, "errors": ["EKF3 IMU0 is using GPS", "EKF3 IMU1 is using GPS", "PreArm: RC not found", "PreArm: Hardware safety switch", "PreArm: RC not found", "PreArm: Hardware safety switch", "RCInput: decoding PPM(1)"]}
{"timestamp": "2025-12-16T08:40:00.077436Z", "telemetry": {"lat": 28.7531208, "lon": 77.1178837, "satellites": 7, "altitude_gps_m": 213.1199951171875, "groundspeed_mps": 0.12049703299999237}, "flight": {"mode": "STABILIZE", "armed": false}, "ekf": {"attitude": {"roll": -0.02462204173207283, "pitch": -0.02712174504995346, "yaw": 2.5184836387634277}, "local_position": {"x": -0.8016377687454224, "y": -1.713757038116455, "z": -3.702409505844116}, "status": {"flags": 831, "velocity_variance": 0.05262451618909836, "pos_horiz_variance": 0.034368060529232025, "pos_vert_variance": 0.0315786674618721}}, "errors": ["EKF3 IMU0 is using GPS", "EKF3 IMU1 is using GPS", "PreArm: RC not found", "PreArm: Hardware safety switch", "PreArm: RC not found", "PreArm: Hardware safety switch", "RCInput: decoding PPM(1)"]}
{"timestamp": "2025-12-16T08:40:01.112879Z", "telemetry": {"lat": 28.7531213, "lon": 77.1178834, "satellites": 7, "altitude_gps_m": 212.95999145507812, "groundspeed_mps": 0.1303798109292984}, "flight": {"mode": "STABILIZE", "armed": false}, "ekf": {"attitude": {"roll": -0.02457405999302864, "pitch": -0.027211235836148262, "yaw": 2.5183753967285156}, "local_position": {"x": -0.7186459898948669, "y": -1.7446454763412476, "z": -3.564837694168091}, "status": {"flags": 831, "velocity_variance": 0.07567315548658371, "pos_horiz_variance": 0.031634021550416946, "pos_vert_variance": 0.02459569275379181}}, "errors": ["EKF3 IMU0 is using GPS", "EKF3 IMU1 is using GPS", "PreArm: RC not found", "PreArm: Hardware safety switch", "PreArm: RC not found", "PreArm: Hardware safety switch", "RCInput: decoding PPM(1)"]}
{"timestamp": "2025-12-16T08:40:02.083837Z", "telemetry": {"lat": 28.7531211, "lon": 77.1178828, "satellites": 7, "altitude_gps_m": 212.92999267578125, "groundspeed_mps": 0.15222430229187012}, "flight": {"mode": "STABILIZE", "armed": false}, "ekf": {"attitude": {"roll": -0.0243711918592453, "pitch": -0.027608051896095276, "yaw": 2.5183749198913574}, "local_position": {"x": -0.6970360279083252, "y": -1.7636221647262573, "z": -3.514096260070801}, "status": {"flags": 831, "velocity_variance": 0.072660431265831, "pos_horiz_variance": 0.029609816148877144, "pos_vert_variance": 0.014275160618126392}}, "errors": ["EKF3 IMU0 is using GPS", "EKF3 IMU1 is using GPS", "PreArm: RC not found", "PreArm: Hardware safety switch", "PreArm: RC not found", "PreArm: Hardware safety switch", "RCInput: decoding PPM(1)"]}
{"timestamp": "2025-12-16T08:40:03.075947Z", "telemetry": {"lat": 28.7531206, "lon": 77.1178819, "satellites": 7, "altitude_gps_m": 212.9499969482422, "groundspeed_mps": 0.18489272892475128}, "flight": {"mode": "STABILIZE", "armed": false}, "ekf": {"attitude": {"roll": -0.024049043655395508, "pitch": -0.028049368411302567, "yaw": 2.518157958984375}, "local_position": {"x": -0.7309227585792542, "y": -1.8068175315856934, "z": -3.53444504737854}, "status": {"flags": 831, "velocity_variance": 0.05915500596165657, "pos_horiz_variance": 0.030750107020139694, "pos_vert_variance": 0.0013799105072394013}}, "errors": ["EKF3 IMU0 is using GPS", "EKF3 IMU1 is using GPS", "PreArm: RC not found", "PreArm: Hardware safety switch", "PreArm: RC not found", "PreArm: Hardware safety switch", "RCInput: decoding PPM(1)"]}
{"timestamp": "2025-12-16T08:40:04.065381Z", "telemetry": {"lat": 28.7531203, "lon": 77.1178813, "satellites": 7, "altitude_gps_m": 212.989990234375, "groundspeed_mps": 0.19239981472492218}, "flight": {"mode": "STABILIZE", "armed": false}, "ekf": {"attitude": {"roll": -0.024647817015647888, "pitch": -0.02806633524596691, "yaw": 2.518134355545044}, "local_position": {"x": -0.7360272407531738, "y": -1.8510560989379883, "z": -3.5737764835357666}, "status": {"flags": 831, "velocity_variance": 0.11076322942972183, "pos_horiz_variance": 0.030545765534043312, "pos_vert_variance": 0.0068587688729166985}}, "errors": ["EKF3 IMU0 is using GPS", "EKF3 IMU1 is using GPS", "PreArm: RC not found", "PreArm: Hardware safety switch", "PreArm: RC not found", "PreArm: Hardware safety switch", "RCInput: decoding PPM(1)"]}
{"timestamp": "2025-12-16T08:40:05.072459Z", "telemetry": {"lat": 28.7531205, "lon": 77.1178811, "satellites": 7, "altitude_gps_m": 212.97999572753906, "groundspeed_mps": 0.1935775876045227}, "flight": {"mode": "STABILIZE", "armed": false}, "ekf": {"attitude": {"roll": -0.02486007660627365, "pitch": -0.028001662343740463, "yaw": 2.5179600715637207}, "local_position": {"x": -0.7110928297042847, "y": -1.8849372863769531, "z": -3.567887783050537}, "status": {"flags": 831, "velocity_variance": 0.06983960419893265, "pos_horiz_variance": 0.028641970828175545, "pos_vert_variance": 0.012094187550246716}}, "errors": ["EKF3 IMU0 is using GPS", "EKF3 IMU1 is using GPS", "PreArm: RC not found", "PreArm: Hardware safety switch", "PreArm: RC not found", "PreArm: Hardware safety switch", "RCInput: decoding PPM(1)"]}
{"timestamp": "2025-12-16T08:40:06.064069Z", "telemetry": {"lat": 28.7531203, "lon": 77.1178809, "satellites": 7, "altitude_gps_m": 213.00999450683594, "groundspeed_mps": 0.22005705535411835}, "flight": {"mode": "STABILIZE", "armed": false}, "ekf": {"attitude": {"roll": -0.02482353150844574, "pitch": -0.028463585302233696, "yaw": 2.5177621841430664}, "local_position": {"x": -0.7524725794792175, "y": -1.9086204767227173, "z": -3.5909852981567383}, "status": {"flags": 831, "velocity_variance": 0.06178027391433716, "pos_horiz_variance": 0.02806042693555355, "pos_vert_variance": 0.009495721198618412}}, "errors": ["EKF3 IMU0 is using GPS", "EKF3 IMU1 is using GPS", "PreArm: RC not found", "PreArm: Hardware safety switch", "PreArm: RC not found", "PreArm: Hardware safety switch", "RCInput: decoding PPM(1)"]}
{"timestamp": "2025-12-16T08:40:07.064022Z", "telemetry": {"lat": 28.7531206, "lon": 77.1178804, "satellites": 7, "altitude_gps_m": 213.0800018310547, "groundspeed_mps": 0.2276497185230255}, "flight": {"mode": "ALT_HOLD", "armed": false}, "ekf": {"attitude": {"roll": -0.024794142693281174, "pitch": -0.028285261243581772, "yaw": 2.5178380012512207}, "local_position": {"x": -0.7914525866508484, "y": -1.9491996765136719, "z": -3.6552603244781494}, "status": {"flags": 831, "velocity_variance": 0.08904106169939041, "pos_horiz_variance": 0.03187728300690651, "pos_vert_variance": 0.0010679697152227163}}, "errors": ["EKF3 IMU0 is using GPS", "EKF3 IMU1 is using GPS", "PreArm: RC not found", "PreArm: Hardware safety switch", "PreArm: RC not found", "PreArm: Hardware safety switch", "RCInput: decoding PPM(1)"]}
{"timestamp": "2025-12-16T08:40:08.084679Z", "telemetry": {"lat": 28.7531218, "lon": 77.11788, "satellites": 7, "altitude_gps_m": 213.0800018310547, "groundspeed_mps": 0.215856671333313}, "flight": {"mode": "ALT_HOLD", "armed": false}, "ekf": {"attitude": {"roll": -0.02510496973991394, "pitch": -0.028120344504714012, "yaw": 2.5175907611846924}, "local_position": {"x": -0.7416815161705017, "y": -1.9835107326507568, "z": -3.6703953742980957}, "status": {"flags": 831, "velocity_variance": 0.10371184349060059, "pos_horiz_variance": 0.03667711094021797, "pos_vert_variance": 0.006135250441730022}}, "errors": ["EKF3 IMU0 is using GPS", "EKF3 IMU1 is using GPS", "PreArm: RC not found", "PreArm: Hardware safety switch", "PreArm: RC not found", "PreArm: Hardware safety switch", "RCInput: decoding PPM(1)"]}
{"timestamp": "2025-12-16T08:40:09.076560Z", "telemetry": {"lat": 28.7531217, "lon": 77.1178796, "satellites": 7, "altitude_gps_m": 213.0399932861328, "groundspeed_mps": 0.20591877400875092}, "flight": {"mode": "STABILIZE", "armed": false}, "ekf": {"attitude": {"roll": -0.02557428926229477, "pitch": -0.02793918177485466, "yaw": 2.5172128677368164}, "local_position": {"x": -0.6854004263877869, "y": -2.0112013816833496, "z": -3.6283318996429443}, "status": {"flags": 831, "velocity_variance": 0.15022096037864685, "pos_horiz_variance": 0.03278867527842522, "pos_vert_variance": 0.003161969128996134}}, "errors": ["EKF3 IMU0 is using GPS", "EKF3 IMU1 is using GPS", "PreArm: RC not found", "PreArm: Hardware safety switch", "PreArm: RC not found", "PreArm: Hardware safety switch", "RCInput: decoding PPM(1)"]}
{"timestamp": "2025-12-16T08:40:10.073971Z", "telemetry": {"lat": 28.7531216, "lon": 77.1178792, "satellites": 7, "altitude_gps_m": 213.02999877929688, "groundspeed_mps": 0.20346249639987946}, "flight": {"mode": "STABILIZE", "armed": false}, "ekf": {"attitude": {"roll": -0.025789085775613785, "pitch": -0.027592740952968597, "yaw": 2.5169506072998047}, "local_position": {"x": -0.6481426358222961, "y": -2.0609850883483887, "z": -3.614917516708374}, "status": {"flags": 831, "velocity_variance": 0.07121121138334274, "pos_horiz_variance": 0.028262212872505188, "pos_vert_variance": 0.0038258484564721584}}, "errors": ["EKF3 IMU0 is using GPS", "EKF3 IMU1 is using GPS", "PreArm: RC not found", "PreArm: Hardware safety switch", "PreArm: RC not found", "PreArm: Hardware safety switch", "RCInput: decoding PPM(1)"]}
{"timestamp": "2025-12-16T08:40:11.068321Z", "telemetry": {"lat": 28.7531219, "lon": 77.1178784, "satellites": 7, "altitude_gps_m": 213.08999633789062, "groundspeed_mps": 0.20873920619487762}, "flight": {"mode": "STABILIZE", "armed": false}, "ekf": {"attitude": {"roll": -0.02544914186000824, "pitch": -0.027652814984321594, "yaw": 2.5168371200561523}, "local_position": {"x": -0.6597117781639099, "y": -2.129610538482666, "z": -3.678654432296753}, "status": {"flags": 831, "velocity_variance": 0.056524649262428284, "pos_horiz_variance": 0.031707361340522766, "pos_vert_variance": 0.012703577056527138}}, "errors": ["EKF3 IMU0 is using GPS", "EKF3 IMU1 is using GPS", "PreArm: RC not found", "PreArm: Hardware safety switch", "PreArm: RC not found", "PreArm: Hardware safety switch", "RCInput: decoding PPM(1)"]}
{"timestamp": "2025-12-16T08:40:12.080224Z", "telemetry": {"lat": 28.7531209, "lon": 77.117878, "satellites": 7, "altitude_gps_m": 213.11000061035156, "groundspeed_mps": 0.19889485836029053}, "flight": {"mode": "STABILIZE", "armed": false}, "ekf": {"attitude": {"roll": -0.025790393352508545, "pitch": -0.027461670339107513, "yaw": 2.5168514251708984}, "local_position": {"x": -0.6364123225212097, "y": -2.19407320022583, "z": -3.692819833755493}, "status": {"flags": 831, "velocity_variance": 0.10333273559808731, "pos_horiz_variance": 0.024583380669355392, "pos_vert_variance": 0.0009083767654374242}}, "errors": ["EKF3 IMU0 is using GPS", "EKF3 IMU1 is using GPS", "PreArm: RC not found", "PreArm: Hardware safety switch", "PreArm: RC not found", "PreArm: Hardware safety switch", "RCInput: decoding PPM(1)"]}
{"timestamp": "2025-12-16T08:40:13.083351Z", "telemetry": {"lat": 28.7531197, "lon": 77.1178777, "satellites": 7, "altitude_gps_m": 213.0800018310547, "groundspeed_mps": 0.18513590097427368}, "flight": {"mode": "ALT_HOLD", "armed": false}, "ekf": {"attitude": {"roll": -0.026121746748685837, "pitch": -0.026826124638319016, "yaw": 2.5165963172912598}, "local_position": {"x": -0.6182675957679749, "y": -2.237398862838745, "z": -3.6688590049743652}, "status": {"flags": 831, "velocity_variance": 0.12411202490329742, "pos_horiz_variance": 0.02217683754861355, "pos_vert_variance": 0.014647439122200012}}, "errors": ["EKF3 IMU0 is using GPS", "EKF3 IMU1 is using GPS", "PreArm: RC not found", "PreArm: Hardware safety switch", "PreArm: RC not found", "PreArm: Hardware safety switch", "RCInput: decoding PPM(1)", "PreArm: Hardware safety switch"]}
{"timestamp": "2025-12-16T08:40:14.064638Z", "telemetry": {"lat": 28.7531182, "lon": 77.1178775, "satellites": 7, "altitude_gps_m": 213.12998962402344, "groundspeed_mps": 0.18966621160507202}, "flight": {"mode": "ALT_HOLD", "armed": false}, "ekf": {"attitude": {"roll": -0.02573563903570175, "pitch": -0.026898019015789032, "yaw": 2.5165610313415527}, "local_position": {"x": -0.6725032925605774, "y": -2.2800357341766357, "z": -3.716726779937744}, "status": {"flags": 831, "velocity_variance": 0.05825069546699524, "pos_horiz_variance": 0.0249831210821867, "pos_vert_variance": 0.030382586643099785}}, "errors": ["EKF3 IMU0 is using GPS", "EKF3 IMU1 is using GPS", "PreArm: RC not found", "PreArm: Hardware safety switch", "PreArm: RC not found", "PreArm: Hardware safety switch", "RCInput: decoding PPM(1)", "PreArm: Hardware safety switch"]}
{"timestamp": "2025-12-16T08:40:15.064308Z", "telemetry": {"lat": 28.7531164, "lon": 77.1178773, "satellites": 7, "altitude_gps_m": 213.33999633789062, "groundspeed_mps": 0.21579429507255554}, "flight": {"mode": "ALT_HOLD", "armed": false}, "ekf": {"attitude": {"roll": -0.025247961282730103, "pitch": -0.02716091461479664, "yaw": 2.516415596008301}, "local_position": {"x": -0.8335239291191101, "y": -2.3392810821533203, "z": -3.9242286682128906}, "status": {"flags": 831, "velocity_variance": 0.04322202503681183, "pos_horiz_variance": 0.025935405865311623, "pos_vert_variance": 0.03337427228689194}}, "errors": ["EKF3 IMU0 is using GPS", "EKF3 IMU1 is using GPS", "PreArm: RC not found", "PreArm: Hardware safety switch", "PreArm: RC not found", "PreArm: Hardware safety switch", "RCInput: decoding PPM(1)", "PreArm: Hardware safety switch"]}
{"timestamp": "2025-12-16T08:40:16.064061Z", "telemetry": {"lat": 28.7531153, "lon": 77.1178767, "satellites": 7, "altitude_gps_m": 213.51998901367188, "groundspeed_mps": 0.21190808713436127}, "flight": {"mode": "ALT_HOLD", "armed": false}, "ekf": {"attitude": {"roll": -0.024992626160383224, "pitch": -0.02690153941512108, "yaw": 2.516599178314209}, "local_position": {"x": -0.959218442440033, "y": -2.407240390777588, "z": -4.102363109588623}, "status": {"flags": 831, "velocity_variance": 0.1338174194097519, "pos_horiz_variance": 0.02553972229361534, "pos_vert_variance": 0.03133704885840416}}, "errors": ["EKF3 IMU0 is using GPS", "EKF3 IMU1 is using GPS", "PreArm: RC not found", "PreArm: Hardware safety switch", "PreArm: RC not found", "PreArm: Hardware safety switch", "RCInput: decoding PPM(1)", "PreArm: Hardware safety switch"]}
{"timestamp": "2025-12-16T08:40:17.081161Z", "telemetry": {"lat": 28.753114, "lon": 77.1178766, "satellites": 7, "altitude_gps_m": 213.5800018310547, "groundspeed_mps": 0.23707886040210724}, "flight": {"mode": "ALT_HOLD", "armed": false}, "ekf": {"attitude": {"roll": -0.023692026734352112, "pitch": -0.0314093753695488, "yaw": 2.517003297805786}, "local_position": {"x": -1.092175006866455, "y": -2.384963035583496, "z": -4.170029640197754}, "status": {"flags": 831, "velocity_variance": 0.1150103285908699, "pos_horiz_variance": 0.028880387544631958, "pos_vert_variance": 0.035906217992305756}}, "errors": ["EKF3 IMU0 is using GPS", "EKF3 IMU1 is using GPS", "PreArm: RC not found", "PreArm: Hardware safety switch", "PreArm: RC not found", "PreArm: Hardware safety switch", "RCInput: decoding PPM(1)", "PreArm: Hardware safety switch"]}
