{"timestamp": "2026-01-07T15:43:20.580773Z", "telemetry": {"lat": 0.0, "lon": 0.0, "satellites": 0, "altitude_gps_m": 0.7400000095367432, "groundspeed_mps": 0.05080315098166466}, "flight": {"mode": null, "armed": null}, "ekf": {"attitude": {"roll": 0.058028511703014374, "pitch": -0.010356567800045013, "yaw": 2.9652833938598633}, "local_position": {"x": null, "y": null, "z": null}, "status": {"flags": 135, "velocity_variance": 0.0, "pos_horiz_variance": 0.011669936589896679, "pos_vert_variance": 0.0031479792669415474}}, "errors": []}
{"timestamp": "2026-01-07T15:43:21.580576Z", "telemetry": {"lat": 0.0, "lon": 0.0, "satellites": 0, "altitude_gps_m": 0.7400000095367432, "groundspeed_mps": 0.049829546362161636}, "flight": {"mode": "STABILIZE", "armed": false}, "ekf": {"attitude": {"roll": 0.057733647525310516, "pitch": -0.010354757308959961, "yaw": 2.965440273284912}, "local_position": {"x": null, "y": null, "z": null}, "status": {"flags": 135, "velocity_variance": 0.0, "pos_horiz_variance": 0.012077114544808865, "pos_vert_variance": 0.038445282727479935}}, "errors": []}
{"timestamp": "2026-01-07T15:43:22.580866Z", "telemetry": {"lat": 0.0, "lon": 0.0, "satellites": 0, "altitude_gps_m": 0.7400000095367432, "groundspeed_mps": 0.053091276437044144}, "flight": {"mode": "STABILIZE", "armed": false}, "ekf": {"attitude": {"roll": 0.05750931799411774, "pitch": -0.010309940204024315, "yaw": 2.9652435779571533}, "local_position": {"x": null, "y": null, "z": null}, "status": {"flags": 135, "velocity_variance": 0.0, "pos_horiz_variance": 0.012215976603329182, "pos_vert_variance": 0.06987142562866211}}, "errors": []}
{"timestamp": "2026-01-07T15:43:23.580394Z", "telemetry": {"lat": 0.0, "lon": 0.0, "satellites": 0, "altitude_gps_m": 0.7400000095367432, "groundspeed_mps": 0.05060338228940964}, "flight": {"mode": "STABILIZE", "armed": false}, "ekf": {"attitude": {"roll": 0.05771198123693466, "pitch": -0.010838273912668228, "yaw": 2.963437557220459}, "local_position": {"x": null, "y": null, "z": null}, "status": {"flags": 135, "velocity_variance": 0.0, "pos_horiz_variance": 0.012650375254452229, "pos_vert_variance": 0.00853662844747305}}, "errors": []}
{"timestamp": "2026-01-07T15:43:24.580947Z", "telemetry": {"lat": 0.0, "lon": 0.0, "satellites": 0, "altitude_gps_m": 0.7400000095367432, "groundspeed_mps": 0.05381317064166069}, "flight": {"mode": "STABILIZE", "armed": false}, "ekf": {"attitude": {"roll": 0.05784358084201813, "pitch": -0.010861139744520187, "yaw": 2.963198184967041}, "local_position": {"x": null, "y": null, "z": null}, "status": {"flags": 135, "velocity_variance": 0.0, "pos_horiz_variance": 0.01298538874834776, "pos_vert_variance": 0.006870837416499853}}, "errors": []}
{"timestamp": "2026-01-07T15:43:25.580287Z", "telemetry": {"lat": 0.0, "lon": 0.0, "satellites": 0, "altitude_gps_m": 0.7400000095367432, "groundspeed_mps": 0.05238136276602745}, "flight": {"mode": "STABILIZE", "armed": false}, "ekf": {"attitude": {"roll": 0.057948097586631775, "pitch": -0.010800778865814209, "yaw": 2.962938070297241}, "local_position": {"x": null, "y": null, "z": null}, "status": {"flags": 135, "velocity_variance": 0.0, "pos_horiz_variance": 0.012944878078997135, "pos_vert_variance": 0.05525282397866249}}, "errors": []}
{"timestamp": "2026-01-07T15:43:26.580465Z", "telemetry": {"lat": 0.0, "lon": 0.0, "satellites": 0, "altitude_gps_m": 0.7400000095367432, "groundspeed_mps": 0.05946049466729164}, "flight": {"mode": "STABILIZE", "armed": false}, "ekf": {"attitude": {"roll": 0.059767767786979675, "pitch": -0.012607010081410408, "yaw": 2.9616200923919678}, "local_position": {"x": null, "y": null, "z": null}, "status": {"flags": 135, "velocity_variance": 0.0, "pos_horiz_variance": 0.012748879380524158, "pos_vert_variance": 0.00578372972086072}}, "errors": []}
{"timestamp": "2026-01-07T15:43:27.581206Z", "telemetry": {"lat": 0.0, "lon": 0.0, "satellites": 0, "altitude_gps_m": 0.7400000095367432, "groundspeed_mps": 0.04502834752202034}, "flight": {"mode": "STABILIZE", "armed": false}, "ekf": {"attitude": {"roll": 0.060050733387470245, "pitch": -0.0126531682908535, "yaw": 2.9617836475372314}, "local_position": {"x": null, "y": null, "z": null}, "status": {"flags": 135, "velocity_variance": 0.0, "pos_horiz_variance": 0.01218115072697401, "pos_vert_variance": 0.04432811215519905}}, "errors": []}
{"timestamp": "2026-01-07T15:43:28.580611Z", "telemetry": {"lat": 0.0, "lon": 0.0, "satellites": 0, "altitude_gps_m": 0.7400000095367432, "groundspeed_mps": 0.04733218252658844}, "flight": {"mode": "STABILIZE", "armed": false}, "ekf": {"attitude": {"roll": 0.060154423117637634, "pitch": -0.012730300426483154, "yaw": 2.9618704319000244}, "local_position": {"x": null, "y": null, "z": null}, "status": {"flags": 135, "velocity_variance": 0.0, "pos_horiz_variance": 0.011636964976787567, "pos_vert_variance": 0.02711292915046215}}, "errors": []}
{"timestamp": "2026-01-07T15:43:29.580299Z", "telemetry": {"lat": 0.0, "lon": 0.0, "satellites": 0, "altitude_gps_m": 0.7400000095367432, "groundspeed_mps": 0.0460105761885643}, "flight": {"mode": "STABILIZE", "armed": false}, "ekf": {"attitude": {"roll": 0.060084834694862366, "pitch": -0.01258883811533451, "yaw": 2.9620909690856934}, "local_position": {"x": null, "y": null, "z": null}, "status": {"flags": 135, "velocity_variance": 0.0, "pos_horiz_variance": 0.01153971441090107, "pos_vert_variance": 0.02725643664598465}}, "errors": []}
{"timestamp": "2026-01-07T15:43:30.581993Z", "telemetry": {"lat": 0.0, "lon": 0.0, "satellites": 0, "altitude_gps_m": 0.7400000095367432, "groundspeed_mps": 0.04569081962108612}, "flight": {"mode": "STABILIZE", "armed": false}, "ekf": {"attitude": {"roll": 0.06018465384840965, "pitch": -0.012408878654241562, "yaw": 2.9625484943389893}, "local_position": {"x": null, "y": null, "z": null}, "status": {"flags": 135, "velocity_variance": 0.0, "pos_horiz_variance": 0.011402783915400505, "pos_vert_variance": 0.04308902099728584}}, "errors": []}
{"timestamp": "2026-01-07T15:43:31.580329Z", "telemetry": {"lat": 0.0, "lon": 0.0, "satellites": 0, "altitude_gps_m": 0.7400000095367432, "groundspeed_mps": 0.047445621341466904}, "flight": {"mode": "STABILIZE", "armed": false}, "ekf": {"attitude": {"roll": 0.06088811904191971, "pitch": -0.01315774954855442, "yaw": 2.9615426063537598}, "local_position": {"x": null, "y": null, "z": null}, "status": {"flags": 135, "velocity_variance": 0.0, "pos_horiz_variance": 0.01152204442769289, "pos_vert_variance": 0.012874037958681583}}, "errors": []}
{"timestamp": "2026-01-07T15:43:32.580397Z", "telemetry": {"lat": 0.0, "lon": 0.0, "satellites": 0, "altitude_gps_m": 0.7400000095367432, "groundspeed_mps": 0.05006451904773712}, "flight": {"mode": "STABILIZE", "armed": false}, "ekf": {"attitude": {"roll": 0.06019541993737221, "pitch": -0.013031898066401482, "yaw": 2.961643934249878}, "local_position": {"x": null, "y": null, "z": null}, "status": {"flags": 135, "velocity_variance": 0.0, "pos_horiz_variance": 0.011578449048101902, "pos_vert_variance": 0.05444397032260895}}, "errors": []}
{"timestamp": "2026-01-07T15:43:33.582004Z", "telemetry": {"lat": 0.0, "lon": 0.0, "satellites": 0, "altitude_gps_m": 0.7400000095367432, "groundspeed_mps": 0.057548247277736664}, "flight": {"mode": "STABILIZE", "armed": false}, "ekf": {"attitude": {"roll": 0.06050446256995201, "pitch": -0.013502147048711777, "yaw": 2.9615070819854736}, "local_position": {"x": null, "y": null, "z": null}, "status": {"flags": 135, "velocity_variance": 0.0, "pos_horiz_variance": 0.011940710246562958, "pos_vert_variance": 0.0417756587266922}}, "errors": []}
{"timestamp": "2026-01-07T15:43:34.580906Z", "telemetry": {"lat": 0.0, "lon": 0.0, "satellites": 0, "altitude_gps_m": 0.7400000095367432, "groundspeed_mps": 0.043896835297346115}, "flight": {"mode": "STABILIZE", "armed": false}, "ekf": {"attitude": {"roll": 0.06149483472108841, "pitch": -0.018239807337522507, "yaw": -3.0936501026153564}, "local_position": {"x": null, "y": null, "z": null}, "status": {"flags": 135, "velocity_variance": 0.0, "pos_horiz_variance": 0.012971150688827038, "pos_vert_variance": 0.06512299180030823}}, "errors": []}
{"timestamp": "2026-01-07T15:43:35.580364Z", "telemetry": {"lat": 0.0, "lon": 0.0, "satellites": 0, "altitude_gps_m": 0.7400000095367432, "groundspeed_mps": 0.04827535152435303}, "flight": {"mode": "STABILIZE", "armed": false}, "ekf": {"attitude": {"roll": 0.06136264652013779, "pitch": -0.01793360523879528, "yaw": -3.0954041481018066}, "local_position": {"x": null, "y": null, "z": null}, "status": {"flags": 135, "velocity_variance": 0.0, "pos_horiz_variance": 0.010314228013157845, "pos_vert_variance": 0.015132147818803787}}, "errors": []}
{"timestamp": "2026-01-07T15:43:36.583334Z", "telemetry": {"lat": 0.0, "lon": 0.0, "satellites": 0, "altitude_gps_m": 0.7400000095367432, "groundspeed_mps": 0.05216130614280701}, "flight": {"mode": "STABILIZE", "armed": false}, "ekf": {"attitude": {"roll": 0.0612095445394516, "pitch": -0.0179904792457819, "yaw": -3.096903085708618}, "local_position": {"x": null, "y": null, "z": null}, "status": {"flags": 135, "velocity_variance": 0.0, "pos_horiz_variance": 0.010383273474872112, "pos_vert_variance": 0.048424117267131805}}, "errors": ["PreArm: Hardware safety switch"]}
{"timestamp": "2026-01-07T15:43:37.581201Z", "telemetry": {"lat": 0.0, "lon": 0.0, "satellites": 0, "altitude_gps_m": 0.7400000095367432, "groundspeed_mps": 0.04756613075733185}, "flight": {"mode": "STABILIZE", "armed": false}, "ekf": {"attitude": {"roll": 0.062153272330760956, "pitch": -0.0198354609310627, "yaw": -3.0986146926879883}, "local_position": {"x": null, "y": null, "z": null}, "status": {"flags": 135, "velocity_variance": 0.0, "pos_horiz_variance": 0.01094630267471075, "pos_vert_variance": 0.02067198045551777}}, "errors": ["PreArm: Hardware safety switch"]}
{"timestamp": "2026-01-07T15:43:38.587102Z", "telemetry": {"lat": 0.0, "lon": 0.0, "satellites": 0, "altitude_gps_m": 0.7400000095367432, "groundspeed_mps": 0.04408784955739975}, "flight": {"mode": "STABILIZE", "armed": false}, "ekf": {"attitude": {"roll": 0.061743490397930145, "pitch": -0.02036026306450367, "yaw": -3.099956512451172}, "local_position": {"x": null, "y": null, "z": null}, "status": {"flags": 135, "velocity_variance": 0.0, "pos_horiz_variance": 0.010816383175551891, "pos_vert_variance": 0.04100701957941055}}, "errors": ["PreArm: Hardware safety switch"]}
{"timestamp": "2026-01-07T15:43:39.581517Z", "telemetry": {"lat": 0.0, "lon": 0.0, "satellites": 0, "altitude_gps_m": 0.7400000095367432, "groundspeed_mps": 0.04478022828698158}, "flight": {"mode": "STABILIZE", "armed": false}, "ekf": {"attitude": {"roll": 0.06135241687297821, "pitch": -0.020624907687306404, "yaw": -3.1010890007019043}, "local_position": {"x": null, "y": null, "z": null}, "status": {"flags": 135, "velocity_variance": 0.0, "pos_horiz_variance": 0.010853715240955353, "pos_vert_variance": 0.032379161566495895}}, "errors": ["PreArm: Hardware safety switch"]}
{"timestamp": "2026-01-07T15:43:40.580394Z", "telemetry": {"lat": 0.0, "lon": 0.0, "satellites": 0, "altitude_gps_m": 0.7400000095367432, "groundspeed_mps": 0.04851403459906578}, "flight": {"mode": "STABILIZE", "armed": false}, "ekf": {"attitude": {"roll": 0.06081710755825043, "pitch": -0.02105109393596649, "yaw": -3.102302312850952}, "local_position": {"x": null, "y": null, "z": null}, "status": {"flags": 135, "velocity_variance": 0.0, "pos_horiz_variance": 0.010849706828594208, "pos_vert_variance": 0.01898135431110859}}, "errors": ["PreArm: Hardware safety switch"]}
