{"timestamp": "2025-12-27T08:10:04.965749Z", "telemetry": {"lat": 28.7531259, "lon": 77.1178108, "satellites": 5, "altitude_gps_m": 207.7899932861328, "groundspeed_mps": 0.04601927101612091}, "flight": {"mode": null, "armed": null}, "ekf": {"attitude": {"roll": 0.02225353941321373, "pitch": 0.032426316291093826, "yaw": 0.5110021233558655}, "local_position": {"x": null, "y": null, "z": null}, "status": {"flags": 135, "velocity_variance": 0.0, "pos_horiz_variance": 0.012507950887084007, "pos_vert_variance": 0.02924756146967411}}, "errors": []}
{"timestamp": "2025-12-27T08:10:05.915521Z", "telemetry": {"lat": 28.753124, "lon": 77.1178114, "satellites": 5, "altitude_gps_m": 207.84999084472656, "groundspeed_mps": 0.04715496301651001}, "flight": {"mode": "STABILIZE", "armed": false}, "ekf": {"attitude": {"roll": 0.02218201383948326, "pitch": 0.03235698863863945, "yaw": 0.5109652876853943}, "local_position": {"x": null, "y": null, "z": null}, "status": {"flags": 135, "velocity_variance": 0.0, "pos_horiz_variance": 0.012687736190855503, "pos_vert_variance": 0.03420069068670273}}, "errors": []}
{"timestamp": "2025-12-27T08:10:06.867577Z", "telemetry": {"lat": 28.7531215, "lon": 77.1178108, "satellites": 5, "altitude_gps_m": 208.37998962402344, "groundspeed_mps": 0.05202962085604668}, "flight": {"mode": "STABILIZE", "armed": false}, "ekf": {"attitude": {"roll": 0.022155923768877983, "pitch": 0.032287612557411194, "yaw": 0.5110113620758057}, "local_position": {"x": null, "y": null, "z": null}, "status": {"flags": 135, "velocity_variance": 0.0, "pos_horiz_variance": 0.013341614976525307, "pos_vert_variance": 0.022300152108073235}}, "errors": []}
{"timestamp": "2025-12-27T08:10:07.816560Z", "telemetry": {"lat": 28.7531229, "lon": 77.1178111, "satellites": 5, "altitude_gps_m": 208.83999633789062, "groundspeed_mps": 0.052250899374485016}, "flight": {"mode": "STABILIZE", "armed": false}, "ekf": {"attitude": {"roll": 0.0221930630505085, "pitch": 0.032194606959819794, "yaw": 0.5108654499053955}, "local_position": {"x": null, "y": null, "z": null}, "status": {"flags": 135, "velocity_variance": 0.0, "pos_horiz_variance": 0.013941073790192604, "pos_vert_variance": 0.029669450595974922}}, "errors": []}
{"timestamp": "2025-12-27T08:10:08.812758Z", "telemetry": {"lat": 28.7531257, "lon": 77.1178075, "satellites": 6, "altitude_gps_m": 208.33999633789062, "groundspeed_mps": 0.051838506013154984}, "flight": {"mode": "STABILIZE", "armed": false}, "ekf": {"attitude": {"roll": 0.0221207644790411, "pitch": 0.03227152302861214, "yaw": 0.5107723474502563}, "local_position": {"x": null, "y": null, "z": null}, "status": {"flags": 135, "velocity_variance": 0.0, "pos_horiz_variance": 0.01428722869604826, "pos_vert_variance": 0.018037838861346245}}, "errors": []}
{"timestamp": "2025-12-27T08:10:09.812990Z", "telemetry": {"lat": 28.7531268, "lon": 77.1178041, "satellites": 7, "altitude_gps_m": 208.29998779296875, "groundspeed_mps": 0.05215069279074669}, "flight": {"mode": "STABILIZE", "armed": false}, "ekf": {"attitude": {"roll": 0.022001689299941063, "pitch": 0.032325100153684616, "yaw": 0.5105146169662476}, "local_position": {"x": null, "y": null, "z": null}, "status": {"flags": 135, "velocity_variance": 0.0, "pos_horiz_variance": 0.014551391825079918, "pos_vert_variance": 0.005205174442380667}}, "errors": []}
{"timestamp": "2025-12-27T08:10:10.813044Z", "telemetry": {"lat": 28.7531215, "lon": 77.1178028, "satellites": 7, "altitude_gps_m": 208.0800018310547, "groundspeed_mps": 0.05160602927207947}, "flight": {"mode": "STABILIZE", "armed": false}, "ekf": {"attitude": {"roll": 0.021823840215802193, "pitch": 0.03255443274974823, "yaw": 0.5106430649757385}, "local_position": {"x": null, "y": null, "z": null}, "status": {"flags": 135, "velocity_variance": 0.0, "pos_horiz_variance": 0.01450163684785366, "pos_vert_variance": 0.012908762320876122}}, "errors": []}
{"timestamp": "2025-12-27T08:10:11.818716Z", "telemetry": {"lat": 28.7531223, "lon": 77.1178004, "satellites": 7, "altitude_gps_m": 208.4199981689453, "groundspeed_mps": 0.04947977885603905}, "flight": {"mode": "STABILIZE", "armed": false}, "ekf": {"attitude": {"roll": 0.021894633769989014, "pitch": 0.032647427171468735, "yaw": 0.5107269287109375}, "local_position": {"x": null, "y": null, "z": null}, "status": {"flags": 135, "velocity_variance": 0.0, "pos_horiz_variance": 0.01440751925110817, "pos_vert_variance": 0.020452849566936493}}, "errors": []}
{"timestamp": "2025-12-27T08:10:12.815312Z", "telemetry": {"lat": 28.7531245, "lon": 77.1177993, "satellites": 7, "altitude_gps_m": 207.92999267578125, "groundspeed_mps": 0.04474906623363495}, "flight": {"mode": "STABILIZE", "armed": false}, "ekf": {"attitude": {"roll": 0.02188912220299244, "pitch": 0.03274986892938614, "yaw": 0.510948121547699}, "local_position": {"x": null, "y": null, "z": null}, "status": {"flags": 135, "velocity_variance": 0.0, "pos_horiz_variance": 0.013870174065232277, "pos_vert_variance": 0.015101775527000427}}, "errors": []}
{"timestamp": "2025-12-27T08:10:13.814696Z", "telemetry": {"lat": 28.7531199, "lon": 77.1178012, "satellites": 7, "altitude_gps_m": 207.75, "groundspeed_mps": 0.04165540635585785}, "flight": {"mode": "STABILIZE", "armed": false}, "ekf": {"attitude": {"roll": 0.021861808374524117, "pitch": 0.03269726037979126, "yaw": 0.5110278129577637}, "local_position": {"x": null, "y": null, "z": null}, "status": {"flags": 135, "velocity_variance": 0.0, "pos_horiz_variance": 0.013070137239992619, "pos_vert_variance": 0.0032895472832024097}}, "errors": []}
{"timestamp": "2025-12-27T08:10:14.813135Z", "telemetry": {"lat": 28.753112, "lon": 77.1178053, "satellites": 7, "altitude_gps_m": 208.0399932861328, "groundspeed_mps": 0.04076911509037018}, "flight": {"mode": "STABILIZE", "armed": false}, "ekf": {"attitude": {"roll": 0.021923180669546127, "pitch": 0.03288780525326729, "yaw": 0.511143684387207}, "local_position": {"x": null, "y": null, "z": null}, "status": {"flags": 135, "velocity_variance": 0.0, "pos_horiz_variance": 0.012212110683321953, "pos_vert_variance": 0.017078658565878868}}, "errors": []}
{"timestamp": "2025-12-27T08:10:15.818192Z", "telemetry": {"lat": 28.753108, "lon": 77.117807, "satellites": 7, "altitude_gps_m": 208.80999755859375, "groundspeed_mps": 0.0415344163775444}, "flight": {"mode": "STABILIZE", "armed": false}, "ekf": {"attitude": {"roll": 0.022086087614297867, "pitch": 0.032676056027412415, "yaw": 0.5112134218215942}, "local_position": {"x": null, "y": null, "z": null}, "status": {"flags": 135, "velocity_variance": 0.0, "pos_horiz_variance": 0.011997749097645283, "pos_vert_variance": 0.019729334861040115}}, "errors": []}
{"timestamp": "2025-12-27T08:10:16.812619Z", "telemetry": {"lat": 28.7531029, "lon": 77.1178088, "satellites": 7, "altitude_gps_m": 209.29998779296875, "groundspeed_mps": 0.042944032698869705}, "flight": {"mode": "STABILIZE", "armed": false}, "ekf": {"attitude": {"roll": 0.022067323327064514, "pitch": 0.032574351876974106, "yaw": 0.5112168192863464}, "local_position": {"x": null, "y": null, "z": null}, "status": {"flags": 135, "velocity_variance": 0.0, "pos_horiz_variance": 0.011935367248952389, "pos_vert_variance": 0.03760587424039841}}, "errors": []}
{"timestamp": "2025-12-27T08:10:17.813661Z", "telemetry": {"lat": 28.7531004, "lon": 77.1178093, "satellites": 7, "altitude_gps_m": 209.37998962402344, "groundspeed_mps": 0.045382674783468246}, "flight": {"mode": "STABILIZE", "armed": false}, "ekf": {"attitude": {"roll": 0.02213011495769024, "pitch": 0.03244388476014137, "yaw": 0.5112611651420593}, "local_position": {"x": null, "y": null, "z": null}, "status": {"flags": 135, "velocity_variance": 0.0, "pos_horiz_variance": 0.012318036518990993, "pos_vert_variance": 0.034699954092502594}}, "errors": []}
{"timestamp": "2025-12-27T08:10:18.813115Z", "telemetry": {"lat": 28.7530953, "lon": 77.1178109, "satellites": 7, "altitude_gps_m": 210.0, "groundspeed_mps": 0.04633999988436699}, "flight": {"mode": "STABILIZE", "armed": false}, "ekf": {"attitude": {"roll": 0.022072311490774155, "pitch": 0.03234223276376724, "yaw": 0.5113914012908936}, "local_position": {"x": null, "y": null, "z": null}, "status": {"flags": 135, "velocity_variance": 0.0, "pos_horiz_variance": 0.012735024094581604, "pos_vert_variance": 0.025121456012129784}}, "errors": []}
{"timestamp": "2025-12-27T08:10:19.813357Z", "telemetry": {"lat": 28.7530906, "lon": 77.1178106, "satellites": 7, "altitude_gps_m": 209.8300018310547, "groundspeed_mps": 0.05070851370692253}, "flight": {"mode": "STABILIZE", "armed": false}, "ekf": {"attitude": {"roll": 0.02193848229944706, "pitch": 0.032392777502536774, "yaw": 0.5114771127700806}, "local_position": {"x": null, "y": null, "z": null}, "status": {"flags": 135, "velocity_variance": 0.0, "pos_horiz_variance": 0.01326015591621399, "pos_vert_variance": 0.06852585822343826}}, "errors": []}
{"timestamp": "2025-12-27T08:10:20.812867Z", "telemetry": {"lat": 28.7530832, "lon": 77.1178106, "satellites": 7, "altitude_gps_m": 209.1599884033203, "groundspeed_mps": 0.05001211166381836}, "flight": {"mode": "STABILIZE", "armed": false}, "ekf": {"attitude": {"roll": 0.021941863000392914, "pitch": 0.03243686258792877, "yaw": 0.5115026235580444}, "local_position": {"x": null, "y": null, "z": null}, "status": {"flags": 135, "velocity_variance": 0.0, "pos_horiz_variance": 0.01393814291805029, "pos_vert_variance": 0.01647287607192993}}, "errors": []}
{"timestamp": "2025-12-27T08:10:21.813205Z", "telemetry": {"lat": 28.7530747, "lon": 77.1178133, "satellites": 7, "altitude_gps_m": 209.72999572753906, "groundspeed_mps": 0.04838702082633972}, "flight": {"mode": "STABILIZE", "armed": false}, "ekf": {"attitude": {"roll": 0.021772995591163635, "pitch": 0.03237435221672058, "yaw": 0.5114884376525879}, "local_position": {"x": null, "y": null, "z": null}, "status": {"flags": 135, "velocity_variance": 0.0, "pos_horiz_variance": 0.013900309801101685, "pos_vert_variance": 0.06959602236747742}}, "errors": []}
{"timestamp": "2025-12-27T08:10:22.816931Z", "telemetry": {"lat": 28.7530678, "lon": 77.1178163, "satellites": 7, "altitude_gps_m": 210.47999572753906, "groundspeed_mps": 0.05102457106113434}, "flight": {"mode": "STABILIZE", "armed": false}, "ekf": {"attitude": {"roll": 0.021661315113306046, "pitch": 0.03227705508470535, "yaw": 0.5113839507102966}, "local_position": {"x": null, "y": null, "z": null}, "status": {"flags": 135, "velocity_variance": 0.0, "pos_horiz_variance": 0.013858665712177753, "pos_vert_variance": 0.024295415729284286}}, "errors": []}
{"timestamp": "2025-12-27T08:10:23.813575Z", "telemetry": {"lat": 28.7530599, "lon": 77.1178198, "satellites": 7, "altitude_gps_m": 210.76998901367188, "groundspeed_mps": 0.05210847407579422}, "flight": {"mode": "STABILIZE", "armed": false}, "ekf": {"attitude": {"roll": 0.02158084698021412, "pitch": 0.03233400732278824, "yaw": 0.5114966034889221}, "local_position": {"x": null, "y": null, "z": null}, "status": {"flags": 135, "velocity_variance": 0.0, "pos_horiz_variance": 0.014349809847772121, "pos_vert_variance": 0.04856851324439049}}, "errors": []}
{"timestamp": "2025-12-27T08:10:24.812832Z", "telemetry": {"lat": 28.7530559, "lon": 77.1178193, "satellites": 7, "altitude_gps_m": 210.92999267578125, "groundspeed_mps": 0.051477402448654175}, "flight": {"mode": "STABILIZE", "armed": false}, "ekf": {"attitude": {"roll": 0.02157520316541195, "pitch": 0.03243836387991905, "yaw": 0.5114001035690308}, "local_position": {"x": null, "y": null, "z": null}, "status": {"flags": 135, "velocity_variance": 0.0, "pos_horiz_variance": 0.014482331462204456, "pos_vert_variance": 0.01923738792538643}}, "errors": []}
{"timestamp": "2025-12-27T08:10:25.813411Z", "telemetry": {"lat": 28.753049, "lon": 77.1178213, "satellites": 7, "altitude_gps_m": 211.489990234375, "groundspeed_mps": 0.048128191381692886}, "flight": {"mode": "STABILIZE", "armed": false}, "ekf": {"attitude": {"roll": 0.021512022241950035, "pitch": 0.03250321373343468, "yaw": 0.5114854574203491}, "local_position": {"x": null, "y": null, "z": null}, "status": {"flags": 135, "velocity_variance": 0.0, "pos_horiz_variance": 0.014166252687573433, "pos_vert_variance": 0.04636342450976372}}, "errors": []}
{"timestamp": "2025-12-27T08:10:26.812662Z", "telemetry": {"lat": 28.7530404, "lon": 77.1178257, "satellites": 7, "altitude_gps_m": 211.6999969482422, "groundspeed_mps": 0.04724864661693573}, "flight": {"mode": "STABILIZE", "armed": false}, "ekf": {"attitude": {"roll": 0.02148250862956047, "pitch": 0.03256464749574661, "yaw": 0.5115585327148438}, "local_position": {"x": null, "y": null, "z": null}, "status": {"flags": 135, "velocity_variance": 0.0, "pos_horiz_variance": 0.013684703037142754, "pos_vert_variance": 0.07542787492275238}}, "errors": []}
{"timestamp": "2025-12-27T08:10:27.813359Z", "telemetry": {"lat": 28.7530376, "lon": 77.1178267, "satellites": 7, "altitude_gps_m": 210.989990234375, "groundspeed_mps": 0.04714337736368179}, "flight": {"mode": "STABILIZE", "armed": false}, "ekf": {"attitude": {"roll": 0.021498283371329308, "pitch": 0.03274338319897652, "yaw": 0.511517345905304}, "local_position": {"x": null, "y": null, "z": null}, "status": {"flags": 135, "velocity_variance": 0.0, "pos_horiz_variance": 0.013627265579998493, "pos_vert_variance": 0.024337155744433403}}, "errors": []}
{"timestamp": "2025-12-27T08:10:28.812615Z", "telemetry": {"lat": 28.7530414, "lon": 77.1178252, "satellites": 7, "altitude_gps_m": 210.9099884033203, "groundspeed_mps": 0.04654857516288757}, "flight": {"mode": "STABILIZE", "armed": false}, "ekf": {"attitude": {"roll": 0.021523138508200645, "pitch": 0.03279230371117592, "yaw": 0.5114786028862}, "local_position": {"x": null, "y": null, "z": null}, "status": {"flags": 135, "velocity_variance": 0.0, "pos_horiz_variance": 0.013442582450807095, "pos_vert_variance": 0.05131353437900543}}, "errors": []}
{"timestamp": "2025-12-27T08:10:29.813558Z", "telemetry": {"lat": 28.7530467, "lon": 77.1178223, "satellites": 7, "altitude_gps_m": 211.33999633789062, "groundspeed_mps": 0.04394031688570976}, "flight": {"mode": "STABILIZE", "armed": false}, "ekf": {"attitude": {"roll": 0.021523280069231987, "pitch": 0.03290662169456482, "yaw": 0.5114758014678955}, "local_position": {"x": null, "y": null, "z": null}, "status": {"flags": 135, "velocity_variance": 0.0, "pos_horiz_variance": 0.013043122366070747, "pos_vert_variance": 0.023599624633789062}}, "errors": []}
{"timestamp": "2025-12-27T08:10:30.812801Z", "telemetry": {"lat": 28.7530552, "lon": 77.1178191, "satellites": 6, "altitude_gps_m": 211.30999755859375, "groundspeed_mps": 0.043058041483163834}, "flight": {"mode": "STABILIZE", "armed": false}, "ekf": {"attitude": {"roll": 0.02152778021991253, "pitch": 0.032806396484375, "yaw": 0.5115806460380554}, "local_position": {"x": null, "y": null, "z": null}, "status": {"flags": 135, "velocity_variance": 0.0, "pos_horiz_variance": 0.012713141739368439, "pos_vert_variance": 0.031772252172231674}}, "errors": []}
{"timestamp": "2025-12-27T08:10:31.820003Z", "telemetry": {"lat": 28.7530623, "lon": 77.1178144, "satellites": 6, "altitude_gps_m": 210.52999877929688, "groundspeed_mps": 0.04337528347969055}, "flight": {"mode": "STABILIZE", "armed": false}, "ekf": {"attitude": {"roll": 0.021596113219857216, "pitch": 0.03284473344683647, "yaw": 0.5115031003952026}, "local_position": {"x": null, "y": null, "z": null}, "status": {"flags": 135, "velocity_variance": 0.0, "pos_horiz_variance": 0.012450139969587326, "pos_vert_variance": 0.02757183648645878}}, "errors": ["PreArm: Hardware safety switch"]}
{"timestamp": "2025-12-27T08:10:32.816057Z", "telemetry": {"lat": 28.753077, "lon": 77.117808, "satellites": 7, "altitude_gps_m": 210.11000061035156, "groundspeed_mps": 0.04429812356829643}, "flight": {"mode": "STABILIZE", "armed": false}, "ekf": {"attitude": {"roll": 0.021569039672613144, "pitch": 0.032911304384469986, "yaw": 0.5112863183021545}, "local_position": {"x": null, "y": null, "z": null}, "status": {"flags": 135, "velocity_variance": 0.0, "pos_horiz_variance": 0.012411044910550117, "pos_vert_variance": 0.08353111892938614}}, "errors": ["PreArm: Hardware safety switch"]}
{"timestamp": "2025-12-27T08:10:33.816371Z", "telemetry": {"lat": 28.7530866, "lon": 77.1178038, "satellites": 7, "altitude_gps_m": 208.989990234375, "groundspeed_mps": 0.044306330382823944}, "flight": {"mode": "STABILIZE", "armed": false}, "ekf": {"attitude": {"roll": 0.021608859300613403, "pitch": 0.032921548932790756, "yaw": 0.5112101435661316}, "local_position": {"x": null, "y": null, "z": null}, "status": {"flags": 135, "velocity_variance": 0.0, "pos_horiz_variance": 0.012506291270256042, "pos_vert_variance": 0.026358090341091156}}, "errors": ["PreArm: Hardware safety switch"]}
{"timestamp": "2025-12-27T08:10:34.813461Z", "telemetry": {"lat": 28.7530866, "lon": 77.1178013, "satellites": 7, "altitude_gps_m": 207.1999969482422, "groundspeed_mps": 0.04139238968491554}, "flight": {"mode": "STABILIZE", "armed": false}, "ekf": {"attitude": {"roll": 0.021567758172750473, "pitch": 0.03297372907400131, "yaw": 0.5111232995986938}, "local_position": {"x": null, "y": null, "z": null}, "status": {"flags": 135, "velocity_variance": 0.0, "pos_horiz_variance": 0.012418258935213089, "pos_vert_variance": 0.031754784286022186}}, "errors": ["PreArm: Hardware safety switch"]}
{"timestamp": "2025-12-27T08:10:35.814984Z", "telemetry": {"lat": 28.7530891, "lon": 77.1177962, "satellites": 6, "altitude_gps_m": 206.4099884033203, "groundspeed_mps": 0.039781469851732254}, "flight": {"mode": "STABILIZE", "armed": false}, "ekf": {"attitude": {"roll": 0.02161555178463459, "pitch": 0.03302893415093422, "yaw": 0.5110678672790527}, "local_position": {"x": null, "y": null, "z": null}, "status": {"flags": 135, "velocity_variance": 0.0, "pos_horiz_variance": 0.011841882951557636, "pos_vert_variance": 0.003571749897673726}}, "errors": ["PreArm: Hardware safety switch"]}
{"timestamp": "2025-12-27T08:10:36.813491Z", "telemetry": {"lat": 28.7530943, "lon": 77.117796, "satellites": 6, "altitude_gps_m": 206.01998901367188, "groundspeed_mps": 0.03940808027982712}, "flight": {"mode": "STABILIZE", "armed": false}, "ekf": {"attitude": {"roll": 0.02151377499103546, "pitch": 0.03305983170866966, "yaw": 0.5110042095184326}, "local_position": {"x": null, "y": null, "z": null}, "status": {"flags": 135, "velocity_variance": 0.0, "pos_horiz_variance": 0.011627567932009697, "pos_vert_variance": 0.00863662175834179}}, "errors": ["PreArm: Hardware safety switch"]}
{"timestamp": "2025-12-27T08:10:37.813472Z", "telemetry": {"lat": 28.7530972, "lon": 77.1177936, "satellites": 6, "altitude_gps_m": 204.4499969482422, "groundspeed_mps": 0.03606666252017021}, "flight": {"mode": "STABILIZE", "armed": false}, "ekf": {"attitude": {"roll": 0.021530985832214355, "pitch": 0.03304622694849968, "yaw": 0.5109966397285461}, "local_position": {"x": null, "y": null, "z": null}, "status": {"flags": 135, "velocity_variance": 0.0, "pos_horiz_variance": 0.011254279874265194, "pos_vert_variance": 0.11100415885448456}}, "errors": ["PreArm: Hardware safety switch"]}
{"timestamp": "2025-12-27T08:10:38.812827Z", "telemetry": {"lat": 28.753088, "lon": 77.1177978, "satellites": 6, "altitude_gps_m": 204.0500030517578, "groundspeed_mps": 0.03910975903272629}, "flight": {"mode": "STABILIZE", "armed": false}, "ekf": {"attitude": {"roll": 0.02150404267013073, "pitch": 0.0330742783844471, "yaw": 0.5110085606575012}, "local_position": {"x": null, "y": null, "z": null}, "status": {"flags": 135, "velocity_variance": 0.0, "pos_horiz_variance": 0.010838688351213932, "pos_vert_variance": 0.025293488055467606}}, "errors": ["PreArm: Hardware safety switch"]}
{"timestamp": "2025-12-27T08:10:39.812955Z", "telemetry": {"lat": 28.7530804, "lon": 77.1178035, "satellites": 6, "altitude_gps_m": 204.47999572753906, "groundspeed_mps": 0.0367041751742363}, "flight": {"mode": "STABILIZE", "armed": false}, "ekf": {"attitude": {"roll": 0.021539663895964622, "pitch": 0.03333130478858948, "yaw": 0.5110650658607483}, "local_position": {"x": null, "y": null, "z": null}, "status": {"flags": 135, "velocity_variance": 0.0, "pos_horiz_variance": 0.010934612713754177, "pos_vert_variance": 0.03908010572195053}}, "errors": ["PreArm: Hardware safety switch"]}
{"timestamp": "2025-12-27T08:10:40.812689Z", "telemetry": {"lat": 28.753073, "lon": 77.1178061, "satellites": 6, "altitude_gps_m": 203.8699951171875, "groundspeed_mps": 0.034711986780166626}, "flight": {"mode": "STABILIZE", "armed": false}, "ekf": {"attitude": {"roll": 0.021579358726739883, "pitch": 0.033462267369031906, "yaw": 0.5111196041107178}, "local_position": {"x": null, "y": null, "z": null}, "status": {"flags": 135, "velocity_variance": 0.0, "pos_horiz_variance": 0.01062338799238205, "pos_vert_variance": 0.02757037803530693}}, "errors": ["PreArm: Hardware safety switch"]}
{"timestamp": "2025-12-27T08:10:41.812920Z", "telemetry": {"lat": 28.7530623, "lon": 77.1178116, "satellites": 6, "altitude_gps_m": 203.4099884033203, "groundspeed_mps": 0.031265027821063995}, "flight": {"mode": "STABILIZE", "armed": false}, "ekf": {"attitude": {"roll": 0.021602317690849304, "pitch": 0.03349212929606438, "yaw": 0.510975182056427}, "local_position": {"x": null, "y": null, "z": null}, "status": {"flags": 135, "velocity_variance": 0.0, "pos_horiz_variance": 0.01015536580234766, "pos_vert_variance": 0.01144377887248993}}, "errors": ["PreArm: Hardware safety switch"]}
{"timestamp": "2025-12-27T08:10:42.819207Z", "telemetry": {"lat": 28.7530582, "lon": 77.1178185, "satellites": 6, "altitude_gps_m": 202.77999877929688, "groundspeed_mps": 0.030762141570448875}, "flight": {"mode": "STABILIZE", "armed": false}, "ekf": {"attitude": {"roll": 0.021528419107198715, "pitch": 0.033374905586242676, "yaw": 0.5110248327255249}, "local_position": {"x": null, "y": null, "z": null}, "status": {"flags": 135, "velocity_variance": 0.0, "pos_horiz_variance": 0.0094277523458004, "pos_vert_variance": 0.006748485378921032}}, "errors": ["PreArm: Hardware safety switch"]}
{"timestamp": "2025-12-27T08:10:43.813270Z", "telemetry": {"lat": 28.7530516, "lon": 77.1178249, "satellites": 6, "altitude_gps_m": 203.97000122070312, "groundspeed_mps": 0.030238041654229164}, "flight": {"mode": "STABILIZE", "armed": false}, "ekf": {"attitude": {"roll": 0.021525243297219276, "pitch": 0.033248066902160645, "yaw": 0.5111139416694641}, "local_position": {"x": null, "y": null, "z": null}, "status": {"flags": 135, "velocity_variance": 0.0, "pos_horiz_variance": 0.009034035727381706, "pos_vert_variance": 0.003450926626101136}}, "errors": ["PreArm: Hardware safety switch"]}
{"timestamp": "2025-12-27T08:10:44.813542Z", "telemetry": {"lat": 28.7530451, "lon": 77.1178282, "satellites": 6, "altitude_gps_m": 202.4199981689453, "groundspeed_mps": 0.03096417523920536}, "flight": {"mode": "STABILIZE", "armed": false}, "ekf": {"attitude": {"roll": 0.021566122770309448, "pitch": 0.03301900252699852, "yaw": 0.5112128257751465}, "local_position": {"x": null, "y": null, "z": null}, "status": {"flags": 135, "velocity_variance": 0.0, "pos_horiz_variance": 0.008713170886039734, "pos_vert_variance": 0.10453909635543823}}, "errors": ["PreArm: Hardware safety switch"]}
{"timestamp": "2025-12-27T08:10:45.813313Z", "telemetry": {"lat": 28.753037, "lon": 77.1178286, "satellites": 6, "altitude_gps_m": 201.83999633789062, "groundspeed_mps": 0.03404054418206215}, "flight": {"mode": "STABILIZE", "armed": false}, "ekf": {"attitude": {"roll": 0.021713845431804657, "pitch": 0.03273823484778404, "yaw": 0.5112484097480774}, "local_position": {"x": null, "y": null, "z": null}, "status": {"flags": 135, "velocity_variance": 0.0, "pos_horiz_variance": 0.008895134553313255, "pos_vert_variance": 0.059098657220602036}}, "errors": ["PreArm: Hardware safety switch"]}
{"timestamp": "2025-12-27T08:10:46.812762Z", "telemetry": {"lat": 28.7530335, "lon": 77.1178293, "satellites": 6, "altitude_gps_m": 201.0699920654297, "groundspeed_mps": 0.040912531316280365}, "flight": {"mode": "STABILIZE", "armed": false}, "ekf": {"attitude": {"roll": 0.021826503798365593, "pitch": 0.032552190124988556, "yaw": 0.5112820267677307}, "local_position": {"x": null, "y": null, "z": null}, "status": {"flags": 135, "velocity_variance": 0.0, "pos_horiz_variance": 0.009484725072979927, "pos_vert_variance": 0.011691320687532425}}, "errors": ["PreArm: Hardware safety switch"]}
{"timestamp": "2025-12-27T08:10:47.813448Z", "telemetry": {"lat": 28.7530305, "lon": 77.117829, "satellites": 6, "altitude_gps_m": 199.37998962402344, "groundspeed_mps": 0.045268330723047256}, "flight": {"mode": "STABILIZE", "armed": false}, "ekf": {"attitude": {"roll": 0.02188442274928093, "pitch": 0.032459210604429245, "yaw": 0.5112617015838623}, "local_position": {"x": null, "y": null, "z": null}, "status": {"flags": 135, "velocity_variance": 0.0, "pos_horiz_variance": 0.01078625489026308, "pos_vert_variance": 0.07002038508653641}}, "errors": ["PreArm: Hardware safety switch"]}
{"timestamp": "2025-12-27T08:10:48.812706Z", "telemetry": {"lat": 28.7530317, "lon": 77.1178315, "satellites": 6, "altitude_gps_m": 199.38999938964844, "groundspeed_mps": 0.051645029336214066}, "flight": {"mode": "STABILIZE", "armed": false}, "ekf": {"attitude": {"roll": 0.02196665108203888, "pitch": 0.03234005346894264, "yaw": 0.5112677216529846}, "local_position": {"x": null, "y": null, "z": null}, "status": {"flags": 135, "velocity_variance": 0.0, "pos_horiz_variance": 0.012508910149335861, "pos_vert_variance": 0.028312835842370987}}, "errors": ["PreArm: Hardware safety switch"]}
{"timestamp": "2025-12-27T08:10:49.813556Z", "telemetry": {"lat": 28.7530315, "lon": 77.1178297, "satellites": 6, "altitude_gps_m": 198.3000030517578, "groundspeed_mps": 0.052450306713581085}, "flight": {"mode": "STABILIZE", "armed": false}, "ekf": {"attitude": {"roll": 0.022027326747775078, "pitch": 0.03249511122703552, "yaw": 0.5114291906356812}, "local_position": {"x": null, "y": null, "z": null}, "status": {"flags": 135, "velocity_variance": 0.0, "pos_horiz_variance": 0.013484925031661987, "pos_vert_variance": 0.047044944018125534}}, "errors": ["PreArm: Hardware safety switch"]}
{"timestamp": "2025-12-27T08:10:50.813402Z", "telemetry": {"lat": 28.7530316, "lon": 77.1178277, "satellites": 6, "altitude_gps_m": 197.51998901367188, "groundspeed_mps": 0.05107802897691727}, "flight": {"mode": "STABILIZE", "armed": false}, "ekf": {"attitude": {"roll": 0.022076258435845375, "pitch": 0.03262228146195412, "yaw": 0.5114346742630005}, "local_position": {"x": null, "y": null, "z": null}, "status": {"flags": 135, "velocity_variance": 0.0, "pos_horiz_variance": 0.014040875248610973, "pos_vert_variance": 0.013860803097486496}}, "errors": ["PreArm: Hardware safety switch"]}
{"timestamp": "2025-12-27T08:10:51.812703Z", "telemetry": {"lat": 28.7530353, "lon": 77.117828, "satellites": 6, "altitude_gps_m": 197.09999084472656, "groundspeed_mps": 0.05081857740879059}, "flight": {"mode": "STABILIZE", "armed": false}, "ekf": {"attitude": {"roll": 0.02210739068686962, "pitch": 0.032625116407871246, "yaw": 0.5116020441055298}, "local_position": {"x": null, "y": null, "z": null}, "status": {"flags": 135, "velocity_variance": 0.0, "pos_horiz_variance": 0.013946807943284512, "pos_vert_variance": 0.04116370901465416}}, "errors": ["PreArm: Hardware safety switch"]}
{"timestamp": "2025-12-27T08:10:52.817249Z", "telemetry": {"lat": 28.7530338, "lon": 77.117831, "satellites": 6, "altitude_gps_m": 196.00999450683594, "groundspeed_mps": 0.047874607145786285}, "flight": {"mode": "STABILIZE", "armed": false}, "ekf": {"attitude": {"roll": 0.021973606199026108, "pitch": 0.03263448551297188, "yaw": 0.5116475224494934}, "local_position": {"x": null, "y": null, "z": null}, "status": {"flags": 135, "velocity_variance": 0.0, "pos_horiz_variance": 0.014013519510626793, "pos_vert_variance": 0.02792271040380001}}, "errors": ["PreArm: Hardware safety switch"]}
{"timestamp": "2025-12-27T08:10:53.812617Z", "telemetry": {"lat": 28.7530424, "lon": 77.1178269, "satellites": 6, "altitude_gps_m": 194.52999877929688, "groundspeed_mps": 0.046657394617795944}, "flight": {"mode": "STABILIZE", "armed": false}, "ekf": {"attitude": {"roll": 0.021906014531850815, "pitch": 0.03252462297677994, "yaw": 0.5116633772850037}, "local_position": {"x": null, "y": null, "z": null}, "status": {"flags": 135, "velocity_variance": 0.0, "pos_horiz_variance": 0.013596665114164352, "pos_vert_variance": 0.009334678761661053}}, "errors": ["PreArm: Hardware safety switch"]}
{"timestamp": "2025-12-27T08:10:54.813518Z", "telemetry": {"lat": 28.7530533, "lon": 77.1178205, "satellites": 6, "altitude_gps_m": 193.0800018310547, "groundspeed_mps": 0.04553183913230896}, "flight": {"mode": "STABILIZE", "armed": false}, "ekf": {"attitude": {"roll": 0.021807624027132988, "pitch": 0.03253813832998276, "yaw": 0.5117119550704956}, "local_position": {"x": null, "y": null, "z": null}, "status": {"flags": 135, "velocity_variance": 0.0, "pos_horiz_variance": 0.013193130493164062, "pos_vert_variance": 0.020368259400129318}}, "errors": ["PreArm: Hardware safety switch"]}
{"timestamp": "2025-12-27T08:10:55.813413Z", "telemetry": {"lat": 28.7530615, "lon": 77.117815, "satellites": 6, "altitude_gps_m": 192.3199920654297, "groundspeed_mps": 0.046371445059776306}, "flight": {"mode": "STABILIZE", "armed": false}, "ekf": {"attitude": {"roll": 0.021731918677687645, "pitch": 0.03255993500351906, "yaw": 0.5116265416145325}, "local_position": {"x": null, "y": null, "z": null}, "status": {"flags": 135, "velocity_variance": 0.0, "pos_horiz_variance": 0.013061280362308025, "pos_vert_variance": 0.04784596338868141}}, "errors": ["PreArm: Hardware safety switch"]}
{"timestamp": "2025-12-27T08:10:56.813582Z", "telemetry": {"lat": 28.7530673, "lon": 77.1178126, "satellites": 6, "altitude_gps_m": 192.5699920654297, "groundspeed_mps": 0.04822336509823799}, "flight": {"mode": "STABILIZE", "armed": false}, "ekf": {"attitude": {"roll": 0.02165675163269043, "pitch": 0.03253701329231262, "yaw": 0.5115007162094116}, "local_position": {"x": null, "y": null, "z": null}, "status": {"flags": 135, "velocity_variance": 0.0, "pos_horiz_variance": 0.013259347528219223, "pos_vert_variance": 0.01829257607460022}}, "errors": ["PreArm: Hardware safety switch"]}
{"timestamp": "2025-12-27T08:10:57.813197Z", "telemetry": {"lat": 28.7530767, "lon": 77.1178084, "satellites": 6, "altitude_gps_m": 192.5699920654297, "groundspeed_mps": 0.049400318413972855}, "flight": {"mode": "STABILIZE", "armed": false}, "ekf": {"attitude": {"roll": 0.021698787808418274, "pitch": 0.03246878832578659, "yaw": 0.5115439891815186}, "local_position": {"x": null, "y": null, "z": null}, "status": {"flags": 135, "velocity_variance": 0.0, "pos_horiz_variance": 0.013500925153493881, "pos_vert_variance": 0.07468041032552719}}, "errors": ["PreArm: Hardware safety switch"]}
{"timestamp": "2025-12-27T08:10:58.813262Z", "telemetry": {"lat": 28.7530856, "lon": 77.1178033, "satellites": 6, "altitude_gps_m": 192.37998962402344, "groundspeed_mps": 0.050445929169654846}, "flight": {"mode": "STABILIZE", "armed": false}, "ekf": {"attitude": {"roll": 0.021560033783316612, "pitch": 0.032597076147794724, "yaw": 0.5115686058998108}, "local_position": {"x": null, "y": null, "z": null}, "status": {"flags": 135, "velocity_variance": 0.0, "pos_horiz_variance": 0.013775334693491459, "pos_vert_variance": 0.021362630650401115}}, "errors": ["PreArm: Hardware safety switch"]}
{"timestamp": "2025-12-27T08:10:59.813110Z", "telemetry": {"lat": 28.7530867, "lon": 77.1178022, "satellites": 6, "altitude_gps_m": 192.20999145507812, "groundspeed_mps": 0.04973984137177467}, "flight": {"mode": "STABILIZE", "armed": false}, "ekf": {"attitude": {"roll": 0.021522993221879005, "pitch": 0.032784268260002136, "yaw": 0.5115222930908203}, "local_position": {"x": null, "y": null, "z": null}, "status": {"flags": 135, "velocity_variance": 0.0, "pos_horiz_variance": 0.014165197499096394, "pos_vert_variance": 0.00976999569684267}}, "errors": ["PreArm: Hardware safety switch"]}
{"timestamp": "2025-12-27T08:11:00.813596Z", "telemetry": {"lat": 28.7530848, "lon": 77.1178018, "satellites": 7, "altitude_gps_m": 192.83999633789062, "groundspeed_mps": 0.04844210669398308}, "flight": {"mode": "STABILIZE", "armed": false}, "ekf": {"attitude": {"roll": 0.021425608545541763, "pitch": 0.03286553546786308, "yaw": 0.5114428997039795}, "local_position": {"x": null, "y": null, "z": null}, "status": {"flags": 135, "velocity_variance": 0.0, "pos_horiz_variance": 0.013994592241942883, "pos_vert_variance": 0.06553523242473602}}, "errors": ["PreArm: Hardware safety switch"]}
{"timestamp": "2025-12-27T08:11:01.812741Z", "telemetry": {"lat": 28.7530823, "lon": 77.1178057, "satellites": 7, "altitude_gps_m": 193.5800018310547, "groundspeed_mps": 0.04822365567088127}, "flight": {"mode": "STABILIZE", "armed": false}, "ekf": {"attitude": {"roll": 0.021484578028321266, "pitch": 0.03288935124874115, "yaw": 0.5114108324050903}, "local_position": {"x": null, "y": null, "z": null}, "status": {"flags": 135, "velocity_variance": 0.0, "pos_horiz_variance": 0.013872086070477962, "pos_vert_variance": 0.03121376596391201}}, "errors": ["PreArm: Hardware safety switch"]}
{"timestamp": "2025-12-27T08:11:02.812634Z", "telemetry": {"lat": 28.7530923, "lon": 77.1177953, "satellites": 7, "altitude_gps_m": 193.489990234375, "groundspeed_mps": 0.043766096234321594}, "flight": {"mode": "STABILIZE", "armed": false}, "ekf": {"attitude": {"roll": 0.02162272483110428, "pitch": 0.033063456416130066, "yaw": 0.511484682559967}, "local_position": {"x": null, "y": null, "z": null}, "status": {"flags": 135, "velocity_variance": 0.0, "pos_horiz_variance": 0.013548832386732101, "pos_vert_variance": 0.002344684675335884}}, "errors": ["PreArm: Hardware safety switch", "PreArm: Hardware safety switch"]}
{"timestamp": "2025-12-27T08:11:03.816670Z", "telemetry": {"lat": 28.7530973, "lon": 77.1177913, "satellites": 7, "altitude_gps_m": 193.69000244140625, "groundspeed_mps": 0.04099870100617409}, "flight": {"mode": "STABILIZE", "armed": false}, "ekf": {"attitude": {"roll": 0.021860705688595772, "pitch": 0.03309490159153938, "yaw": 0.5116643905639648}, "local_position": {"x": null, "y": null, "z": null}, "status": {"flags": 135, "velocity_variance": 0.0, "pos_horiz_variance": 0.012565440498292446, "pos_vert_variance": 0.025498470291495323}}, "errors": ["PreArm: Hardware safety switch", "PreArm: Hardware safety switch"]}
{"timestamp": "2025-12-27T08:11:04.812962Z", "telemetry": {"lat": 28.7530973, "lon": 77.1177903, "satellites": 7, "altitude_gps_m": 193.94000244140625, "groundspeed_mps": 0.03746077045798302}, "flight": {"mode": "STABILIZE", "armed": false}, "ekf": {"attitude": {"roll": 0.02199176326394081, "pitch": 0.03320343419909477, "yaw": 0.5116546154022217}, "local_position": {"x": null, "y": null, "z": null}, "status": {"flags": 135, "velocity_variance": 0.0, "pos_horiz_variance": 0.012107866816222668, "pos_vert_variance": 0.005427665542811155}}, "errors": ["PreArm: Hardware safety switch", "PreArm: Hardware safety switch"]}
{"timestamp": "2025-12-27T08:11:05.813464Z", "telemetry": {"lat": 28.7530982, "lon": 77.1177902, "satellites": 7, "altitude_gps_m": 195.0699920654297, "groundspeed_mps": 0.03534414991736412}, "flight": {"mode": "STABILIZE", "armed": false}, "ekf": {"attitude": {"roll": 0.02209007926285267, "pitch": 0.03338310495018959, "yaw": 0.5117577314376831}, "local_position": {"x": null, "y": null, "z": null}, "status": {"flags": 135, "velocity_variance": 0.0, "pos_horiz_variance": 0.011351265013217926, "pos_vert_variance": 0.005727377720177174}}, "errors": ["PreArm: Hardware safety switch", "PreArm: Hardware safety switch"]}
{"timestamp": "2025-12-27T08:11:06.813338Z", "telemetry": {"lat": 28.7530976, "lon": 77.1177897, "satellites": 7, "altitude_gps_m": 195.62998962402344, "groundspeed_mps": 0.03284499794244766}, "flight": {"mode": "STABILIZE", "armed": false}, "ekf": {"attitude": {"roll": 0.02222571149468422, "pitch": 0.033272635191679, "yaw": 0.511850118637085}, "local_position": {"x": null, "y": null, "z": null}, "status": {"flags": 135, "velocity_variance": 0.0, "pos_horiz_variance": 0.010193527676165104, "pos_vert_variance": 0.03864917904138565}}, "errors": ["PreArm: Hardware safety switch", "PreArm: Hardware safety switch"]}
{"timestamp": "2025-12-27T08:11:07.813576Z", "telemetry": {"lat": 28.7530997, "lon": 77.1177887, "satellites": 7, "altitude_gps_m": 195.75999450683594, "groundspeed_mps": 0.03271137923002243}, "flight": {"mode": "STABILIZE", "armed": false}, "ekf": {"attitude": {"roll": 0.02235308662056923, "pitch": 0.03329331427812576, "yaw": 0.5119016170501709}, "local_position": {"x": null, "y": null, "z": null}, "status": {"flags": 135, "velocity_variance": 0.0, "pos_horiz_variance": 0.009888251312077045, "pos_vert_variance": 0.030391201376914978}}, "errors": ["PreArm: Hardware safety switch", "PreArm: Hardware safety switch"]}
{"timestamp": "2025-12-27T08:11:08.813084Z", "telemetry": {"lat": 28.7531072, "lon": 77.1177838, "satellites": 7, "altitude_gps_m": 195.84999084472656, "groundspeed_mps": 0.03267047926783562}, "flight": {"mode": "STABILIZE", "armed": false}, "ekf": {"attitude": {"roll": 0.022277606651186943, "pitch": 0.0334414578974247, "yaw": 0.5118333697319031}, "local_position": {"x": null, "y": null, "z": null}, "status": {"flags": 135, "velocity_variance": 0.0, "pos_horiz_variance": 0.009599051438272, "pos_vert_variance": 0.005628369748592377}}, "errors": ["PreArm: Hardware safety switch", "PreArm: Hardware safety switch"]}
{"timestamp": "2025-12-27T08:11:09.812929Z", "telemetry": {"lat": 28.7531073, "lon": 77.117782, "satellites": 7, "altitude_gps_m": 196.14999389648438, "groundspeed_mps": 0.029290327802300453}, "flight": {"mode": "STABILIZE", "armed": false}, "ekf": {"attitude": {"roll": 0.022207465022802353, "pitch": 0.033556804060935974, "yaw": 0.5120031237602234}, "local_position": {"x": null, "y": null, "z": null}, "status": {"flags": 135, "velocity_variance": 0.0, "pos_horiz_variance": 0.009113378822803497, "pos_vert_variance": 0.017075790092349052}}, "errors": ["PreArm: Hardware safety switch", "PreArm: Hardware safety switch"]}
{"timestamp": "2025-12-27T08:11:10.812652Z", "telemetry": {"lat": 28.7531094, "lon": 77.1177803, "satellites": 7, "altitude_gps_m": 195.97000122070312, "groundspeed_mps": 0.025411490350961685}, "flight": {"mode": "STABILIZE", "armed": false}, "ekf": {"attitude": {"roll": 0.02222244068980217, "pitch": 0.0334518700838089, "yaw": 0.512035608291626}, "local_position": {"x": null, "y": null, "z": null}, "status": {"flags": 135, "velocity_variance": 0.0, "pos_horiz_variance": 0.008678303100168705, "pos_vert_variance": 0.01282305084168911}}, "errors": ["PreArm: Hardware safety switch", "PreArm: Hardware safety switch"]}
{"timestamp": "2025-12-27T08:11:11.813508Z", "telemetry": {"lat": 28.7531076, "lon": 77.1177803, "satellites": 7, "altitude_gps_m": 195.64999389648438, "groundspeed_mps": 0.022363990545272827}, "flight": {"mode": "STABILIZE", "armed": false}, "ekf": {"attitude": {"roll": 0.02212759293615818, "pitch": 0.03355433791875839, "yaw": 0.5119444131851196}, "local_position": {"x": null, "y": null, "z": null}, "status": {"flags": 135, "velocity_variance": 0.0, "pos_horiz_variance": 0.007891001179814339, "pos_vert_variance": 0.020824769511818886}}, "errors": ["PreArm: Hardware safety switch", "PreArm: Hardware safety switch"]}
{"timestamp": "2025-12-27T08:11:12.817821Z", "telemetry": {"lat": 28.753101, "lon": 77.1177853, "satellites": 7, "altitude_gps_m": 195.5800018310547, "groundspeed_mps": 0.022794708609580994}, "flight": {"mode": "STABILIZE", "armed": false}, "ekf": {"attitude": {"roll": 0.02197227068245411, "pitch": 0.033517658710479736, "yaw": 0.511897623538971}, "local_position": {"x": null, "y": null, "z": null}, "status": {"flags": 135, "velocity_variance": 0.0, "pos_horiz_variance": 0.007028954569250345, "pos_vert_variance": 0.04181564599275589}}, "errors": ["PreArm: Hardware safety switch", "PreArm: Hardware safety switch"]}
{"timestamp": "2025-12-27T08:11:13.815124Z", "telemetry": {"lat": 28.7531041, "lon": 77.117785, "satellites": 6, "altitude_gps_m": 195.17999267578125, "groundspeed_mps": 0.02434556558728218}, "flight": {"mode": "STABILIZE", "armed": false}, "ekf": {"attitude": {"roll": 0.021848905831575394, "pitch": 0.033356957137584686, "yaw": 0.5119576454162598}, "local_position": {"x": null, "y": null, "z": null}, "status": {"flags": 135, "velocity_variance": 0.0, "pos_horiz_variance": 0.006832865532487631, "pos_vert_variance": 0.023986147716641426}}, "errors": ["PreArm: Hardware safety switch", "PreArm: Hardware safety switch"]}
{"timestamp": "2025-12-27T08:11:14.815223Z", "telemetry": {"lat": 28.7531068, "lon": 77.1177861, "satellites": 7, "altitude_gps_m": 195.3000030517578, "groundspeed_mps": 0.027317430824041367}, "flight": {"mode": "STABILIZE", "armed": false}, "ekf": {"attitude": {"roll": 0.02189909666776657, "pitch": 0.033267825841903687, "yaw": 0.5119938850402832}, "local_position": {"x": null, "y": null, "z": null}, "status": {"flags": 135, "velocity_variance": 0.0, "pos_horiz_variance": 0.00690378388389945, "pos_vert_variance": 0.018315071240067482}}, "errors": ["PreArm: Hardware safety switch", "PreArm: Hardware safety switch"]}
{"timestamp": "2025-12-27T08:11:15.812920Z", "telemetry": {"lat": 28.7531174, "lon": 77.1177791, "satellites": 7, "altitude_gps_m": 195.0500030517578, "groundspeed_mps": 0.0320611372590065}, "flight": {"mode": "STABILIZE", "armed": false}, "ekf": {"attitude": {"roll": 0.021918578073382378, "pitch": 0.03348150476813316, "yaw": 0.5119211673736572}, "local_position": {"x": null, "y": null, "z": null}, "status": {"flags": 135, "velocity_variance": 0.0, "pos_horiz_variance": 0.007845099084079266, "pos_vert_variance": 0.005065965466201305}}, "errors": ["PreArm: Hardware safety switch", "PreArm: Hardware safety switch"]}
{"timestamp": "2025-12-27T08:11:16.813095Z", "telemetry": {"lat": 28.7531277, "lon": 77.1177709, "satellites": 7, "altitude_gps_m": 194.62998962402344, "groundspeed_mps": 0.03515985608100891}, "flight": {"mode": "STABILIZE", "armed": false}, "ekf": {"attitude": {"roll": 0.022108275443315506, "pitch": 0.033657725900411606, "yaw": 0.5119171142578125}, "local_position": {"x": null, "y": null, "z": null}, "status": {"flags": 135, "velocity_variance": 0.0, "pos_horiz_variance": 0.008727737702429295, "pos_vert_variance": 0.020492173731327057}}, "errors": ["PreArm: Hardware safety switch", "PreArm: Hardware safety switch"]}
{"timestamp": "2025-12-27T08:11:17.813147Z", "telemetry": {"lat": 28.753131, "lon": 77.1177699, "satellites": 7, "altitude_gps_m": 194.37998962402344, "groundspeed_mps": 0.033445604145526886}, "flight": {"mode": "STABILIZE", "armed": false}, "ekf": {"attitude": {"roll": 0.02210325002670288, "pitch": 0.0336877778172493, "yaw": 0.5118399262428284}, "local_position": {"x": null, "y": null, "z": null}, "status": {"flags": 135, "velocity_variance": 0.0, "pos_horiz_variance": 0.009195498190820217, "pos_vert_variance": 0.027074934914708138}}, "errors": ["PreArm: Hardware safety switch", "PreArm: Hardware safety switch"]}
{"timestamp": "2025-12-27T08:11:18.813140Z", "telemetry": {"lat": 28.7531325, "lon": 77.1177678, "satellites": 7, "altitude_gps_m": 193.94000244140625, "groundspeed_mps": 0.028668351471424103}, "flight": {"mode": "STABILIZE", "armed": false}, "ekf": {"attitude": {"roll": 0.022072890773415565, "pitch": 0.033559173345565796, "yaw": 0.511874794960022}, "local_position": {"x": null, "y": null, "z": null}, "status": {"flags": 135, "velocity_variance": 0.0, "pos_horiz_variance": 0.008804963901638985, "pos_vert_variance": 0.02262657880783081}}, "errors": ["PreArm: Hardware safety switch", "PreArm: Hardware safety switch"]}
{"timestamp": "2025-12-27T08:11:19.812910Z", "telemetry": {"lat": 28.7531425, "lon": 77.1177593, "satellites": 7, "altitude_gps_m": 193.20999145507812, "groundspeed_mps": 0.02669255994260311}, "flight": {"mode": "STABILIZE", "armed": false}, "ekf": {"attitude": {"roll": 0.022054601460695267, "pitch": 0.03354676812887192, "yaw": 0.5119967460632324}, "local_position": {"x": null, "y": null, "z": null}, "status": {"flags": 135, "velocity_variance": 0.0, "pos_horiz_variance": 0.008348373696208, "pos_vert_variance": 0.06323513388633728}}, "errors": ["PreArm: Hardware safety switch", "PreArm: Hardware safety switch"]}
{"timestamp": "2025-12-27T08:11:20.812785Z", "telemetry": {"lat": 28.7531469, "lon": 77.1177551, "satellites": 7, "altitude_gps_m": 192.94000244140625, "groundspeed_mps": 0.02567959390580654}, "flight": {"mode": "STABILIZE", "armed": false}, "ekf": {"attitude": {"roll": 0.022159092128276825, "pitch": 0.03348734974861145, "yaw": 0.5121265649795532}, "local_position": {"x": null, "y": null, "z": null}, "status": {"flags": 135, "velocity_variance": 0.0, "pos_horiz_variance": 0.007849793881177902, "pos_vert_variance": 0.09982963651418686}}, "errors": ["PreArm: Hardware safety switch", "PreArm: Hardware safety switch"]}
{"timestamp": "2025-12-27T08:11:21.813311Z", "telemetry": {"lat": 28.7531503, "lon": 77.117756, "satellites": 7, "altitude_gps_m": 193.00999450683594, "groundspeed_mps": 0.025791164487600327}, "flight": {"mode": "STABILIZE", "armed": false}, "ekf": {"attitude": {"roll": 0.022181203588843346, "pitch": 0.03346773982048035, "yaw": 0.5120135545730591}, "local_position": {"x": null, "y": null, "z": null}, "status": {"flags": 135, "velocity_variance": 0.0, "pos_horiz_variance": 0.007589373271912336, "pos_vert_variance": 0.018383517861366272}}, "errors": ["PreArm: Hardware safety switch", "PreArm: Hardware safety switch"]}
{"timestamp": "2025-12-27T08:11:22.812742Z", "telemetry": {"lat": 28.7531532, "lon": 77.1177546, "satellites": 7, "altitude_gps_m": 192.94000244140625, "groundspeed_mps": 0.026919860392808914}, "flight": {"mode": "STABILIZE", "armed": false}, "ekf": {"attitude": {"roll": 0.022237230092287064, "pitch": 0.03340208902955055, "yaw": 0.5120019912719727}, "local_position": {"x": null, "y": null, "z": null}, "status": {"flags": 135, "velocity_variance": 0.0, "pos_horiz_variance": 0.007587026804685593, "pos_vert_variance": 0.027322918176651}}, "errors": ["PreArm: Hardware safety switch", "PreArm: Hardware safety switch"]}
{"timestamp": "2025-12-27T08:11:23.818141Z", "telemetry": {"lat": 28.7531525, "lon": 77.1177531, "satellites": 7, "altitude_gps_m": 192.739990234375, "groundspeed_mps": 0.03050367347896099}, "flight": {"mode": "STABILIZE", "armed": false}, "ekf": {"attitude": {"roll": 0.02222621440887451, "pitch": 0.0333888940513134, "yaw": 0.5119251608848572}, "local_position": {"x": null, "y": null, "z": null}, "status": {"flags": 135, "velocity_variance": 0.0, "pos_horiz_variance": 0.007792289834469557, "pos_vert_variance": 0.0016343899769708514}}, "errors": ["PreArm: Hardware safety switch", "PreArm: Hardware safety switch"]}
{"timestamp": "2025-12-27T08:11:24.815189Z", "telemetry": {"lat": 28.7531548, "lon": 77.1177498, "satellites": 7, "altitude_gps_m": 192.9099884033203, "groundspeed_mps": 0.0320940762758255}, "flight": {"mode": "STABILIZE", "armed": false}, "ekf": {"attitude": {"roll": 0.02217838540673256, "pitch": 0.03342421352863312, "yaw": 0.5119983553886414}, "local_position": {"x": null, "y": null, "z": null}, "status": {"flags": 135, "velocity_variance": 0.0, "pos_horiz_variance": 0.00836679432541132, "pos_vert_variance": 0.06375626474618912}}, "errors": ["PreArm: Hardware safety switch", "PreArm: Hardware safety switch"]}
{"timestamp": "2025-12-27T08:11:25.813075Z", "telemetry": {"lat": 28.7531683, "lon": 77.1177405, "satellites": 7, "altitude_gps_m": 192.4499969482422, "groundspeed_mps": 0.03274356946349144}, "flight": {"mode": "STABILIZE", "armed": false}, "ekf": {"attitude": {"roll": 0.022243129089474678, "pitch": 0.0333373099565506, "yaw": 0.5120288133621216}, "local_position": {"x": null, "y": null, "z": null}, "status": {"flags": 135, "velocity_variance": 0.0, "pos_horiz_variance": 0.009013062343001366, "pos_vert_variance": 0.07977128773927689}}, "errors": ["PreArm: Hardware safety switch", "PreArm: Hardware safety switch"]}
{"timestamp": "2025-12-27T08:11:26.812926Z", "telemetry": {"lat": 28.7531657, "lon": 77.1177433, "satellites": 7, "altitude_gps_m": 192.5699920654297, "groundspeed_mps": 0.033098068088293076}, "flight": {"mode": "STABILIZE", "armed": false}, "ekf": {"attitude": {"roll": 0.02239125221967697, "pitch": 0.03327290713787079, "yaw": 0.5119662284851074}, "local_position": {"x": null, "y": null, "z": null}, "status": {"flags": 135, "velocity_variance": 0.0, "pos_horiz_variance": 0.00907827913761139, "pos_vert_variance": 0.00041741001768969}}, "errors": ["PreArm: Hardware safety switch", "PreArm: Hardware safety switch"]}
{"timestamp": "2025-12-27T08:11:27.816211Z", "telemetry": {"lat": 28.7531713, "lon": 77.1177392, "satellites": 7, "altitude_gps_m": 192.59999084472656, "groundspeed_mps": 0.03298860043287277}, "flight": {"mode": "STABILIZE", "armed": false}, "ekf": {"attitude": {"roll": 0.022379780188202858, "pitch": 0.03316935524344444, "yaw": 0.5118143558502197}, "local_position": {"x": null, "y": null, "z": null}, "status": {"flags": 135, "velocity_variance": 0.0, "pos_horiz_variance": 0.009283741004765034, "pos_vert_variance": 0.00822441279888153}}, "errors": ["PreArm: Hardware safety switch", "PreArm: Hardware safety switch"]}
{"timestamp": "2025-12-27T08:11:28.813349Z", "telemetry": {"lat": 28.7531783, "lon": 77.1177374, "satellites": 7, "altitude_gps_m": 192.6199951171875, "groundspeed_mps": 0.03545098006725311}, "flight": {"mode": "STABILIZE", "armed": false}, "ekf": {"attitude": {"roll": 0.022368665784597397, "pitch": 0.03295339271426201, "yaw": 0.5117860436439514}, "local_position": {"x": null, "y": null, "z": null}, "status": {"flags": 135, "velocity_variance": 0.0, "pos_horiz_variance": 0.009599810466170311, "pos_vert_variance": 0.004164358135312796}}, "errors": ["PreArm: Hardware safety switch", "PreArm: Hardware safety switch"]}
{"timestamp": "2025-12-27T08:11:29.813218Z", "telemetry": {"lat": 28.7531847, "lon": 77.1177389, "satellites": 7, "altitude_gps_m": 192.97000122070312, "groundspeed_mps": 0.04077949747443199}, "flight": {"mode": "STABILIZE", "armed": false}, "ekf": {"attitude": {"roll": 0.02229645848274231, "pitch": 0.032863784581422806, "yaw": 0.5118744969367981}, "local_position": {"x": null, "y": null, "z": null}, "status": {"flags": 135, "velocity_variance": 0.0, "pos_horiz_variance": 0.009936496615409851, "pos_vert_variance": 0.049431078135967255}}, "errors": ["PreArm: Hardware safety switch", "PreArm: Hardware safety switch"]}
{"timestamp": "2025-12-27T08:11:30.812871Z", "telemetry": {"lat": 28.7531891, "lon": 77.1177366, "satellites": 7, "altitude_gps_m": 193.2899932861328, "groundspeed_mps": 0.04492330178618431}, "flight": {"mode": "STABILIZE", "armed": false}, "ekf": {"attitude": {"roll": 0.02229316346347332, "pitch": 0.03289591893553734, "yaw": 0.5119102001190186}, "local_position": {"x": null, "y": null, "z": null}, "status": {"flags": 135, "velocity_variance": 0.0, "pos_horiz_variance": 0.010925419628620148, "pos_vert_variance": 0.05070030689239502}}, "errors": ["PreArm: Hardware safety switch", "PreArm: Hardware safety switch"]}
{"timestamp": "2025-12-27T08:11:31.813089Z", "telemetry": {"lat": 28.7531823, "lon": 77.1177388, "satellites": 7, "altitude_gps_m": 193.4099884033203, "groundspeed_mps": 0.04374280571937561}, "flight": {"mode": "STABILIZE", "armed": false}, "ekf": {"attitude": {"roll": 0.02233593724668026, "pitch": 0.03303917497396469, "yaw": 0.5120594501495361}, "local_position": {"x": null, "y": null, "z": null}, "status": {"flags": 135, "velocity_variance": 0.0, "pos_horiz_variance": 0.012093177996575832, "pos_vert_variance": 0.012795588001608849}}, "errors": ["PreArm: Hardware safety switch", "PreArm: Hardware safety switch"]}
{"timestamp": "2025-12-27T08:11:32.812656Z", "telemetry": {"lat": 28.7531813, "lon": 77.1177401, "satellites": 7, "altitude_gps_m": 193.5399932861328, "groundspeed_mps": 0.04353281855583191}, "flight": {"mode": "STABILIZE", "armed": false}, "ekf": {"attitude": {"roll": 0.02233358658850193, "pitch": 0.03300498053431511, "yaw": 0.512129545211792}, "local_position": {"x": null, "y": null, "z": null}, "status": {"flags": 135, "velocity_variance": 0.0, "pos_horiz_variance": 0.012187479063868523, "pos_vert_variance": 0.006420896388590336}}, "errors": ["PreArm: Hardware safety switch", "PreArm: Hardware safety switch"]}
{"timestamp": "2025-12-27T08:11:33.817288Z", "telemetry": {"lat": 28.7531837, "lon": 77.1177364, "satellites": 7, "altitude_gps_m": 193.5, "groundspeed_mps": 0.04113340005278587}, "flight": {"mode": "STABILIZE", "armed": false}, "ekf": {"attitude": {"roll": 0.022301126271486282, "pitch": 0.033030442893505096, "yaw": 0.5121424794197083}, "local_position": {"x": null, "y": null, "z": null}, "status": {"flags": 135, "velocity_variance": 0.0, "pos_horiz_variance": 0.012070025317370892, "pos_vert_variance": 0.010982527397572994}}, "errors": ["PreArm: Hardware safety switch", "PreArm: Hardware safety switch", "PreArm: Hardware safety switch"]}
{"timestamp": "2025-12-27T08:11:34.817056Z", "telemetry": {"lat": 28.7531798, "lon": 77.1177371, "satellites": 7, "altitude_gps_m": 193.33999633789062, "groundspeed_mps": 0.04218883812427521}, "flight": {"mode": "STABILIZE", "armed": false}, "ekf": {"attitude": {"roll": 0.02221708931028843, "pitch": 0.03294740617275238, "yaw": 0.5121142268180847}, "local_position": {"x": null, "y": null, "z": null}, "status": {"flags": 135, "velocity_variance": 0.0, "pos_horiz_variance": 0.011877201497554779, "pos_vert_variance": 0.04310100898146629}}, "errors": ["PreArm: Hardware safety switch", "PreArm: Hardware safety switch", "PreArm: Hardware safety switch"]}
{"timestamp": "2025-12-27T08:11:35.813289Z", "telemetry": {"lat": 28.7531731, "lon": 77.1177419, "satellites": 6, "altitude_gps_m": 193.739990234375, "groundspeed_mps": 0.04210696369409561}, "flight": {"mode": "STABILIZE", "armed": false}, "ekf": {"attitude": {"roll": 0.022332938387989998, "pitch": 0.03310214355587959, "yaw": 0.5121847987174988}, "local_position": {"x": null, "y": null, "z": null}, "status": {"flags": 135, "velocity_variance": 0.0, "pos_horiz_variance": 0.011996426619589329, "pos_vert_variance": 0.006596967112272978}}, "errors": ["PreArm: Hardware safety switch", "PreArm: Hardware safety switch", "PreArm: Hardware safety switch"]}
{"timestamp": "2025-12-27T08:11:36.813425Z", "telemetry": {"lat": 28.7531769, "lon": 77.1177392, "satellites": 6, "altitude_gps_m": 193.6699981689453, "groundspeed_mps": 0.03830575942993164}, "flight": {"mode": "STABILIZE", "armed": false}, "ekf": {"attitude": {"roll": 0.02238684892654419, "pitch": 0.033347565680742264, "yaw": 0.5122108459472656}, "local_position": {"x": null, "y": null, "z": null}, "status": {"flags": 135, "velocity_variance": 0.0, "pos_horiz_variance": 0.011878162622451782, "pos_vert_variance": 0.0055883764289319515}}, "errors": ["PreArm: Hardware safety switch", "PreArm: Hardware safety switch", "PreArm: Hardware safety switch"]}
{"timestamp": "2025-12-27T08:11:37.813156Z", "telemetry": {"lat": 28.7531823, "lon": 77.1177353, "satellites": 6, "altitude_gps_m": 193.69000244140625, "groundspeed_mps": 0.03589366003870964}, "flight": {"mode": "STABILIZE", "armed": false}, "ekf": {"attitude": {"roll": 0.022420506924390793, "pitch": 0.03330833464860916, "yaw": 0.5121887922286987}, "local_position": {"x": null, "y": null, "z": null}, "status": {"flags": 135, "velocity_variance": 0.0, "pos_horiz_variance": 0.01109257247298956, "pos_vert_variance": 0.039838407188653946}}, "errors": ["PreArm: Hardware safety switch", "PreArm: Hardware safety switch", "PreArm: Hardware safety switch"]}
{"timestamp": "2025-12-27T08:11:38.813588Z", "telemetry": {"lat": 28.7531865, "lon": 77.1177308, "satellites": 6, "altitude_gps_m": 193.6999969482422, "groundspeed_mps": 0.03324994817376137}, "flight": {"mode": "STABILIZE", "armed": false}, "ekf": {"attitude": {"roll": 0.022317782044410706, "pitch": 0.03327934816479683, "yaw": 0.5121791362762451}, "local_position": {"x": null, "y": null, "z": null}, "status": {"flags": 135, "velocity_variance": 0.0, "pos_horiz_variance": 0.010634219273924828, "pos_vert_variance": 0.0060296137817204}}, "errors": ["PreArm: Hardware safety switch", "PreArm: Hardware safety switch", "PreArm: Hardware safety switch"]}
{"timestamp": "2025-12-27T08:11:39.813383Z", "telemetry": {"lat": 28.7531829, "lon": 77.1177347, "satellites": 6, "altitude_gps_m": 194.33999633789062, "groundspeed_mps": 0.03219126909971237}, "flight": {"mode": "STABILIZE", "armed": false}, "ekf": {"attitude": {"roll": 0.022422263398766518, "pitch": 0.03323374688625336, "yaw": 0.5122003555297852}, "local_position": {"x": null, "y": null, "z": null}, "status": {"flags": 135, "velocity_variance": 0.0, "pos_horiz_variance": 0.01003202609717846, "pos_vert_variance": 0.01621580682694912}}, "errors": ["PreArm: Hardware safety switch", "PreArm: Hardware safety switch", "PreArm: Hardware safety switch"]}
{"timestamp": "2025-12-27T08:11:40.813166Z", "telemetry": {"lat": 28.7531786, "lon": 77.1177374, "satellites": 6, "altitude_gps_m": 194.5, "groundspeed_mps": 0.035654228180646896}, "flight": {"mode": "STABILIZE", "armed": false}, "ekf": {"attitude": {"roll": 0.02238793671131134, "pitch": 0.03310500085353851, "yaw": 0.5121855735778809}, "local_position": {"x": null, "y": null, "z": null}, "status": {"flags": 135, "velocity_variance": 0.0, "pos_horiz_variance": 0.009793967939913273, "pos_vert_variance": 0.027131324633955956}}, "errors": ["PreArm: Hardware safety switch", "PreArm: Hardware safety switch", "PreArm: Hardware safety switch"]}
{"timestamp": "2025-12-27T08:11:41.812970Z", "telemetry": {"lat": 28.7531739, "lon": 77.1177422, "satellites": 6, "altitude_gps_m": 194.50999450683594, "groundspeed_mps": 0.03699275851249695}, "flight": {"mode": "STABILIZE", "armed": false}, "ekf": {"attitude": {"roll": 0.022314174100756645, "pitch": 0.032944392412900925, "yaw": 0.5122395157814026}, "local_position": {"x": null, "y": null, "z": null}, "status": {"flags": 135, "velocity_variance": 0.0, "pos_horiz_variance": 0.01021953858435154, "pos_vert_variance": 0.06758609414100647}}, "errors": ["PreArm: Hardware safety switch", "PreArm: Hardware safety switch", "PreArm: Hardware safety switch"]}
{"timestamp": "2025-12-27T08:11:42.813375Z", "telemetry": {"lat": 28.75318, "lon": 77.1177362, "satellites": 6, "altitude_gps_m": 194.30999755859375, "groundspeed_mps": 0.039946962147951126}, "flight": {"mode": "STABILIZE", "armed": false}, "ekf": {"attitude": {"roll": 0.022321121767163277, "pitch": 0.032591819763183594, "yaw": 0.5120800733566284}, "local_position": {"x": null, "y": null, "z": null}, "status": {"flags": 135, "velocity_variance": 0.0, "pos_horiz_variance": 0.010450970381498337, "pos_vert_variance": 0.043403949588537216}}, "errors": ["PreArm: Hardware safety switch", "PreArm: Hardware safety switch", "PreArm: Hardware safety switch"]}
{"timestamp": "2025-12-27T08:11:43.813129Z", "telemetry": {"lat": 28.7531768, "lon": 77.1177393, "satellites": 7, "altitude_gps_m": 194.55999755859375, "groundspeed_mps": 0.04624108970165253}, "flight": {"mode": "STABILIZE", "armed": false}, "ekf": {"attitude": {"roll": 0.022224590182304382, "pitch": 0.032491326332092285, "yaw": 0.5120159387588501}, "local_position": {"x": null, "y": null, "z": null}, "status": {"flags": 135, "velocity_variance": 0.0, "pos_horiz_variance": 0.011486569419503212, "pos_vert_variance": 0.04127899557352066}}, "errors": ["PreArm: Hardware safety switch", "PreArm: Hardware safety switch", "PreArm: Hardware safety switch"]}
