{"timestamp": "2026-01-15T12:53:39.626657Z", "telemetry": {"lat": 28.753079, "lon": 77.1179082, "satellites": 8, "altitude_gps_m": 210.739990234375, "groundspeed_mps": 0.2953934669494629}, "flight": {"mode": "STABILIZE", "armed": false}, "ekf": {"attitude": {"roll": 0.05242178589105606, "pitch": -0.005130634177476168, "yaw": -1.8936744928359985}, "local_position": {"x": -0.9557979106903076, "y": 2.276790142059326, "z": 1.5859967470169067}, "status": {"flags": 33599, "velocity_variance": 0.22634592652320862, "pos_horiz_variance": 0.005919210147112608, "pos_vert_variance": 0.029005000367760658}}, "errors": []}
{"timestamp": "2026-01-15T12:53:40.606435Z", "telemetry": {"lat": 28.7530775, "lon": 77.1179081, "satellites": 8, "altitude_gps_m": 210.75, "groundspeed_mps": 0.25189805030822754}, "flight": {"mode": "STABILIZE", "armed": false}, "ekf": {"attitude": {"roll": 0.051677536219358444, "pitch": -0.004721290897578001, "yaw": -1.8936940431594849}, "local_position": {"x": -0.9906653761863708, "y": 2.1886181831359863, "z": 1.573121190071106}, "status": {"flags": 33599, "velocity_variance": 0.07695966213941574, "pos_horiz_variance": 0.007810315117239952, "pos_vert_variance": 0.032571956515312195}}, "errors": []}
{"timestamp": "2026-01-15T12:53:41.564685Z", "telemetry": {"lat": 28.7530751, "lon": 77.11791, "satellites": 8, "altitude_gps_m": 210.67999267578125, "groundspeed_mps": 0.20294319093227386}, "flight": {"mode": "STABILIZE", "armed": false}, "ekf": {"attitude": {"roll": 0.050649262964725494, "pitch": -0.004500687588006258, "yaw": -1.8937433958053589}, "local_position": {"x": -1.1394867897033691, "y": 2.1250360012054443, "z": 1.6474913358688354}, "status": {"flags": 33599, "velocity_variance": 0.2536255121231079, "pos_horiz_variance": 0.012557175941765308, "pos_vert_variance": 0.05322237312793732}}, "errors": []}
{"timestamp": "2026-01-15T12:53:42.511668Z", "telemetry": {"lat": 28.7530735, "lon": 77.1179114, "satellites": 8, "altitude_gps_m": 210.63999938964844, "groundspeed_mps": 0.13143110275268555}, "flight": {"mode": "STABILIZE", "armed": false}, "ekf": {"attitude": {"roll": 0.049545012414455414, "pitch": -0.004054232034832239, "yaw": -1.8937872648239136}, "local_position": {"x": -1.3518105745315552, "y": 2.188716173171997, "z": 1.6831252574920654}, "status": {"flags": 33599, "velocity_variance": 0.11453605443239212, "pos_horiz_variance": 0.013260766863822937, "pos_vert_variance": 0.0019652657210826874}}, "errors": []}
{"timestamp": "2026-01-15T12:53:43.500161Z", "telemetry": {"lat": 28.7530721, "lon": 77.1179128, "satellites": 8, "altitude_gps_m": 210.55999755859375, "groundspeed_mps": 0.08371994644403458}, "flight": {"mode": "STABILIZE", "armed": false}, "ekf": {"attitude": {"roll": 0.04882510378956795, "pitch": -0.0035765529610216618, "yaw": -1.8937872648239136}, "local_position": {"x": -1.495653510093689, "y": 2.278531551361084, "z": 1.7669179439544678}, "status": {"flags": 33599, "velocity_variance": 0.09753736853599548, "pos_horiz_variance": 0.014331704936921597, "pos_vert_variance": 0.029979011043906212}}, "errors": []}
{"timestamp": "2026-01-15T12:53:44.477282Z", "telemetry": {"lat": 28.7530727, "lon": 77.1179118, "satellites": 8, "altitude_gps_m": 210.61000061035156, "groundspeed_mps": 0.07087995857000351}, "flight": {"mode": "STABILIZE", "armed": false}, "ekf": {"attitude": {"roll": 0.048939839005470276, "pitch": -0.003571313340216875, "yaw": -1.8939062356948853}, "local_position": {"x": -1.626275658607483, "y": 2.3112809658050537, "z": 1.7124011516571045}, "status": {"flags": 33599, "velocity_variance": 0.03995576500892639, "pos_horiz_variance": 0.010314560495316982, "pos_vert_variance": 0.01416460145264864}}, "errors": []}
{"timestamp": "2026-01-15T12:53:45.474882Z", "telemetry": {"lat": 28.7530729, "lon": 77.1179108, "satellites": 8, "altitude_gps_m": 210.6599884033203, "groundspeed_mps": 0.05460686236619949}, "flight": {"mode": "STABILIZE", "armed": false}, "ekf": {"attitude": {"roll": 0.04919518157839775, "pitch": -0.003603703808039427, "yaw": -1.8938543796539307}, "local_position": {"x": -1.6391464471817017, "y": 2.2848758697509766, "z": 1.667210340499878}, "status": {"flags": 33599, "velocity_variance": 0.09635463356971741, "pos_horiz_variance": 0.007854527793824673, "pos_vert_variance": 0.029496369883418083}}, "errors": []}
{"timestamp": "2026-01-15T12:53:46.477110Z", "telemetry": {"lat": 28.753069, "lon": 77.1179111, "satellites": 9, "altitude_gps_m": 210.67999267578125, "groundspeed_mps": 0.036813244223594666}, "flight": {"mode": "STABILIZE", "armed": false}, "ekf": {"attitude": {"roll": 0.04934174194931984, "pitch": -0.0033478965051472187, "yaw": -1.8938100337982178}, "local_position": {"x": -1.8356080055236816, "y": 2.3014931678771973, "z": 1.656590461730957}, "status": {"flags": 33599, "velocity_variance": 0.04925274848937988, "pos_horiz_variance": 0.01186157763004303, "pos_vert_variance": 0.04351542517542839}}, "errors": []}
{"timestamp": "2026-01-15T12:53:47.471097Z", "telemetry": {"lat": 28.7530675, "lon": 77.1179123, "satellites": 9, "altitude_gps_m": 210.6199951171875, "groundspeed_mps": 0.10047879815101624}, "flight": {"mode": "STABILIZE", "armed": false}, "ekf": {"attitude": {"roll": 0.04853725805878639, "pitch": -0.003491851966828108, "yaw": -1.8937698602676392}, "local_position": {"x": -1.9925514459609985, "y": 2.3318066596984863, "z": 1.7011964321136475}, "status": {"flags": 33599, "velocity_variance": 0.08864821493625641, "pos_horiz_variance": 0.014005484990775585, "pos_vert_variance": 0.08911872655153275}}, "errors": []}
{"timestamp": "2026-01-15T12:53:48.469033Z", "telemetry": {"lat": 28.7530656, "lon": 77.1179156, "satellites": 9, "altitude_gps_m": 210.6199951171875, "groundspeed_mps": 0.11409031599760056}, "flight": {"mode": "STABILIZE", "armed": false}, "ekf": {"attitude": {"roll": 0.04861621558666229, "pitch": -0.0032418989576399326, "yaw": -1.893830418586731}, "local_position": {"x": -2.1170036792755127, "y": 2.4078640937805176, "z": 1.7097320556640625}, "status": {"flags": 33599, "velocity_variance": 0.169936865568161, "pos_horiz_variance": 0.019889138638973236, "pos_vert_variance": 0.01614215411245823}}, "errors": []}
{"timestamp": "2026-01-15T12:53:49.468543Z", "telemetry": {"lat": 28.7530645, "lon": 77.1179144, "satellites": 8, "altitude_gps_m": 210.6699981689453, "groundspeed_mps": 0.1256217062473297}, "flight": {"mode": "STABILIZE", "armed": false}, "ekf": {"attitude": {"roll": 0.04928617924451828, "pitch": -0.0032298709265887737, "yaw": -1.8939067125320435}, "local_position": {"x": -2.30578351020813, "y": 2.5805771350860596, "z": 1.6525957584381104}, "status": {"flags": 33599, "velocity_variance": 0.04244010150432587, "pos_horiz_variance": 0.014555473811924458, "pos_vert_variance": 0.00547040393576026}}, "errors": []}
{"timestamp": "2026-01-15T12:53:50.469026Z", "telemetry": {"lat": 28.7530625, "lon": 77.1179167, "satellites": 8, "altitude_gps_m": 210.77999877929688, "groundspeed_mps": 0.16031575202941895}, "flight": {"mode": "STABILIZE", "armed": false}, "ekf": {"attitude": {"roll": 0.049136050045490265, "pitch": -0.0029849964193999767, "yaw": -1.893844723701477}, "local_position": {"x": -2.5244784355163574, "y": 2.7261803150177, "z": 1.5474274158477783}, "status": {"flags": 33599, "velocity_variance": 0.17062100768089294, "pos_horiz_variance": 0.015545347705483437, "pos_vert_variance": 0.07024233043193817}}, "errors": []}
{"timestamp": "2026-01-15T12:53:51.494423Z", "telemetry": {"lat": 28.7530626, "lon": 77.1179166, "satellites": 8, "altitude_gps_m": 210.75999450683594, "groundspeed_mps": 0.16807740926742554}, "flight": {"mode": "STABILIZE", "armed": false}, "ekf": {"attitude": {"roll": 0.049490008503198624, "pitch": -0.0031923572532832623, "yaw": -1.8940638303756714}, "local_position": {"x": -2.6891725063323975, "y": 2.8554880619049072, "z": 1.5665346384048462}, "status": {"flags": 33599, "velocity_variance": 0.08004358410835266, "pos_horiz_variance": 0.010487624444067478, "pos_vert_variance": 0.05684474855661392}}, "errors": ["PreArm: Hardware safety switch"]}
{"timestamp": "2026-01-15T12:53:52.501211Z", "telemetry": {"lat": 28.7530611, "lon": 77.1179177, "satellites": 8, "altitude_gps_m": 210.77999877929688, "groundspeed_mps": 0.17831748723983765}, "flight": {"mode": "STABILIZE", "armed": false}, "ekf": {"attitude": {"roll": 0.04938705265522003, "pitch": -0.0031453664414584637, "yaw": -1.8941650390625}, "local_position": {"x": -2.7868642807006836, "y": 2.9131689071655273, "z": 1.537624716758728}, "status": {"flags": 33599, "velocity_variance": 0.07476848363876343, "pos_horiz_variance": 0.010335045866668224, "pos_vert_variance": 0.027965135872364044}}, "errors": ["PreArm: Hardware safety switch"]}
{"timestamp": "2026-01-15T12:53:53.479862Z", "telemetry": {"lat": 28.753062, "lon": 77.1179175, "satellites": 8, "altitude_gps_m": 210.72999572753906, "groundspeed_mps": 0.18956297636032104}, "flight": {"mode": "STABILIZE", "armed": false}, "ekf": {"attitude": {"roll": 0.04998587444424629, "pitch": -0.0028768866322934628, "yaw": -1.8942148685455322}, "local_position": {"x": -2.930983543395996, "y": 3.1755807399749756, "z": 1.5958387851715088}, "status": {"flags": 33599, "velocity_variance": 0.130214124917984, "pos_horiz_variance": 0.004271354526281357, "pos_vert_variance": 0.020510796457529068}}, "errors": ["PreArm: Hardware safety switch"]}
{"timestamp": "2026-01-15T12:53:54.482420Z", "telemetry": {"lat": 28.7530631, "lon": 77.1179152, "satellites": 8, "altitude_gps_m": 210.72000122070312, "groundspeed_mps": 0.12944568693637848}, "flight": {"mode": "STABILIZE", "armed": false}, "ekf": {"attitude": {"roll": 0.05092082545161247, "pitch": -0.003382729832082987, "yaw": -1.8942915201187134}, "local_position": {"x": -2.9110755920410156, "y": 3.13659405708313, "z": 1.6065173149108887}, "status": {"flags": 33599, "velocity_variance": 0.05808384716510773, "pos_horiz_variance": 0.004685361869633198, "pos_vert_variance": 0.036582715809345245}}, "errors": ["PreArm: Hardware safety switch"]}
{"timestamp": "2026-01-15T12:53:55.490860Z", "telemetry": {"lat": 28.7530654, "lon": 77.1179132, "satellites": 8, "altitude_gps_m": 210.77999877929688, "groundspeed_mps": 0.08089710026979446}, "flight": {"mode": "STABILIZE", "armed": false}, "ekf": {"attitude": {"roll": 0.05174842104315758, "pitch": -0.003544956911355257, "yaw": -1.8945149183273315}, "local_position": {"x": -2.768350839614868, "y": 3.030319929122925, "z": 1.5461064577102661}, "status": {"flags": 33599, "velocity_variance": 0.1445542722940445, "pos_horiz_variance": 0.008241236209869385, "pos_vert_variance": 0.04644579440355301}}, "errors": ["PreArm: Hardware safety switch"]}
{"timestamp": "2026-01-15T12:53:56.488195Z", "telemetry": {"lat": 28.7530666, "lon": 77.1179155, "satellites": 8, "altitude_gps_m": 210.8300018310547, "groundspeed_mps": 0.0874871239066124}, "flight": {"mode": "STABILIZE", "armed": false}, "ekf": {"attitude": {"roll": 0.05232410877943039, "pitch": -0.003604292403906584, "yaw": -1.8947901725769043}, "local_position": {"x": -2.6794047355651855, "y": 3.0412986278533936, "z": 1.4985151290893555}, "status": {"flags": 33599, "velocity_variance": 0.01808423548936844, "pos_horiz_variance": 0.004176019225269556, "pos_vert_variance": 0.04205034300684929}}, "errors": ["PreArm: Hardware safety switch"]}
{"timestamp": "2026-01-15T12:53:57.469922Z", "telemetry": {"lat": 28.753068, "lon": 77.1179141, "satellites": 8, "altitude_gps_m": 210.79998779296875, "groundspeed_mps": 0.11000112444162369}, "flight": {"mode": "STABILIZE", "armed": false}, "ekf": {"attitude": {"roll": 0.05327297002077103, "pitch": -0.0042986576445400715, "yaw": -1.894877314567566}, "local_position": {"x": -2.5268564224243164, "y": 2.9725000858306885, "z": 1.5205036401748657}, "status": {"flags": 33599, "velocity_variance": 0.11108638346195221, "pos_horiz_variance": 0.005537504330277443, "pos_vert_variance": 0.016807567328214645}}, "errors": ["PreArm: Hardware safety switch"]}
{"timestamp": "2026-01-15T12:53:58.498028Z", "telemetry": {"lat": 28.7530661, "lon": 77.117914, "satellites": 8, "altitude_gps_m": 210.72999572753906, "groundspeed_mps": 0.1032663881778717}, "flight": {"mode": "STABILIZE", "armed": false}, "ekf": {"attitude": {"roll": 0.052843064069747925, "pitch": -0.004980954807251692, "yaw": -1.8950889110565186}, "local_position": {"x": -2.417245864868164, "y": 2.791447401046753, "z": 1.5958651304244995}, "status": {"flags": 33599, "velocity_variance": 0.11420618742704391, "pos_horiz_variance": 0.003419275162741542, "pos_vert_variance": 0.010620387271046638}}, "errors": ["PreArm: Hardware safety switch"]}
{"timestamp": "2026-01-15T12:53:59.500637Z", "telemetry": {"lat": 28.7530633, "lon": 77.1179161, "satellites": 8, "altitude_gps_m": 210.72000122070312, "groundspeed_mps": 0.06670677661895752}, "flight": {"mode": "STABILIZE", "armed": false}, "ekf": {"attitude": {"roll": 0.052310775965452194, "pitch": -0.00480395695194602, "yaw": -1.8954346179962158}, "local_position": {"x": -2.5711050033569336, "y": 2.867507219314575, "z": 1.6011606454849243}, "status": {"flags": 33599, "velocity_variance": 0.20249608159065247, "pos_horiz_variance": 0.009278184734284878, "pos_vert_variance": 0.023335741832852364}}, "errors": ["PreArm: Hardware safety switch"]}
{"timestamp": "2026-01-15T12:54:00.475113Z", "telemetry": {"lat": 28.7530608, "lon": 77.117919, "satellites": 8, "altitude_gps_m": 210.70999145507812, "groundspeed_mps": 0.04659887030720711}, "flight": {"mode": "STABILIZE", "armed": false}, "ekf": {"attitude": {"roll": 0.05133146047592163, "pitch": -0.0046850345097482204, "yaw": -1.8957295417785645}, "local_position": {"x": -2.7302513122558594, "y": 3.0089993476867676, "z": 1.606602668762207}, "status": {"flags": 33599, "velocity_variance": 0.0918857529759407, "pos_horiz_variance": 0.01338631846010685, "pos_vert_variance": 0.03358437865972519}}, "errors": ["PreArm: Hardware safety switch"]}
{"timestamp": "2026-01-15T12:54:01.475224Z", "telemetry": {"lat": 28.7530588, "lon": 77.1179215, "satellites": 8, "altitude_gps_m": 210.72000122070312, "groundspeed_mps": 0.06945710629224777}, "flight": {"mode": "STABILIZE", "armed": false}, "ekf": {"attitude": {"roll": 0.05089684948325157, "pitch": -0.004682053346186876, "yaw": -1.895971417427063}, "local_position": {"x": -2.954279899597168, "y": 3.2215962409973145, "z": 1.6074820756912231}, "status": {"flags": 33599, "velocity_variance": 0.3109997510910034, "pos_horiz_variance": 0.015549973584711552, "pos_vert_variance": 0.0248826015740633}}, "errors": ["PreArm: Hardware safety switch"]}
{"timestamp": "2026-01-15T12:54:02.475669Z", "telemetry": {"lat": 28.7530571, "lon": 77.1179243, "satellites": 8, "altitude_gps_m": 210.67999267578125, "groundspeed_mps": 0.13621403276920319}, "flight": {"mode": "STABILIZE", "armed": false}, "ekf": {"attitude": {"roll": 0.0500684455037117, "pitch": -0.004470215644687414, "yaw": -1.8962149620056152}, "local_position": {"x": -3.2331671714782715, "y": 3.4983272552490234, "z": 1.64276123046875}, "status": {"flags": 33599, "velocity_variance": 0.12153273820877075, "pos_horiz_variance": 0.012796694412827492, "pos_vert_variance": 0.043020766228437424}}, "errors": ["PreArm: Hardware safety switch"]}
{"timestamp": "2026-01-15T12:54:03.503872Z", "telemetry": {"lat": 28.7530579, "lon": 77.1179235, "satellites": 8, "altitude_gps_m": 210.67999267578125, "groundspeed_mps": 0.1063467338681221}, "flight": {"mode": "STABILIZE", "armed": false}, "ekf": {"attitude": {"roll": 0.0507066510617733, "pitch": -0.004896347876638174, "yaw": -1.8964457511901855}, "local_position": {"x": -3.2700695991516113, "y": 3.5739564895629883, "z": 1.6476942300796509}, "status": {"flags": 33599, "velocity_variance": 0.19319745898246765, "pos_horiz_variance": 0.009218077175319195, "pos_vert_variance": 0.0572330579161644}}, "errors": ["PreArm: Hardware safety switch"]}
{"timestamp": "2026-01-15T12:54:04.502328Z", "telemetry": {"lat": 28.7530563, "lon": 77.1179258, "satellites": 8, "altitude_gps_m": 210.739990234375, "groundspeed_mps": 0.15249672532081604}, "flight": {"mode": "STABILIZE", "armed": false}, "ekf": {"attitude": {"roll": 0.050186049193143845, "pitch": -0.004502927418798208, "yaw": -1.8968092203140259}, "local_position": {"x": -3.426133394241333, "y": 3.720669984817505, "z": 1.5768115520477295}, "status": {"flags": 33599, "velocity_variance": 0.057629842311143875, "pos_horiz_variance": 0.006752749439328909, "pos_vert_variance": 0.06004772335290909}}, "errors": ["PreArm: Hardware safety switch"]}
{"timestamp": "2026-01-15T12:54:05.504653Z", "telemetry": {"lat": 28.7530561, "lon": 77.1179258, "satellites": 8, "altitude_gps_m": 210.63999938964844, "groundspeed_mps": 0.14990174770355225}, "flight": {"mode": "STABILIZE", "armed": false}, "ekf": {"attitude": {"roll": 0.05041152983903885, "pitch": -0.0049853879027068615, "yaw": -1.8969612121582031}, "local_position": {"x": -3.584383964538574, "y": 3.9265763759613037, "z": 1.682742953300476}, "status": {"flags": 33599, "velocity_variance": 0.05626948922872543, "pos_horiz_variance": 0.004567801486700773, "pos_vert_variance": 0.04426519572734833}}, "errors": ["PreArm: Hardware safety switch"]}
{"timestamp": "2026-01-15T12:54:06.504162Z", "telemetry": {"lat": 28.7530562, "lon": 77.1179263, "satellites": 8, "altitude_gps_m": 210.64999389648438, "groundspeed_mps": 0.11945851892232895}, "flight": {"mode": "STABILIZE", "armed": false}, "ekf": {"attitude": {"roll": 0.05066320672631264, "pitch": -0.005208813119679689, "yaw": -1.8971827030181885}, "local_position": {"x": -3.657470941543579, "y": 3.963308095932007, "z": 1.702518105506897}, "status": {"flags": 33599, "velocity_variance": 0.25383344292640686, "pos_horiz_variance": 0.0021763169206678867, "pos_vert_variance": 0.00753454864025116}}, "errors": ["PreArm: Hardware safety switch"]}
{"timestamp": "2026-01-15T12:54:07.475926Z", "telemetry": {"lat": 28.753062, "lon": 77.1179199, "satellites": 8, "altitude_gps_m": 210.69000244140625, "groundspeed_mps": 0.04634930193424225}, "flight": {"mode": "STABILIZE", "armed": false}, "ekf": {"attitude": {"roll": 0.05279530584812164, "pitch": -0.006506540346890688, "yaw": -1.8974303007125854}, "local_position": {"x": -3.334886312484741, "y": 3.68809175491333, "z": 1.6335935592651367}, "status": {"flags": 33599, "velocity_variance": 0.2585151791572571, "pos_horiz_variance": 0.010213960893452168, "pos_vert_variance": 0.010107982903718948}}, "errors": ["PreArm: Hardware safety switch"]}
{"timestamp": "2026-01-15T12:54:08.484864Z", "telemetry": {"lat": 28.7530634, "lon": 77.117921, "satellites": 8, "altitude_gps_m": 210.69000244140625, "groundspeed_mps": 0.11893149465322495}, "flight": {"mode": "STABILIZE", "armed": false}, "ekf": {"attitude": {"roll": 0.053102582693099976, "pitch": -0.006477510090917349, "yaw": -1.897761344909668}, "local_position": {"x": -3.1024956703186035, "y": 3.532057523727417, "z": 1.632993459701538}, "status": {"flags": 33599, "velocity_variance": 0.09745944291353226, "pos_horiz_variance": 0.006623539142310619, "pos_vert_variance": 0.013985294848680496}}, "errors": ["PreArm: Hardware safety switch"]}
{"timestamp": "2026-01-15T12:54:09.484441Z", "telemetry": {"lat": 28.7530654, "lon": 77.1179211, "satellites": 8, "altitude_gps_m": 210.6999969482422, "groundspeed_mps": 0.17381879687309265}, "flight": {"mode": "STABILIZE", "armed": false}, "ekf": {"attitude": {"roll": 0.05355437472462654, "pitch": -0.006659423466771841, "yaw": -1.898026466369629}, "local_position": {"x": -2.9184648990631104, "y": 3.457533121109009, "z": 1.631723403930664}, "status": {"flags": 33599, "velocity_variance": 0.1565767526626587, "pos_horiz_variance": 0.006064168177545071, "pos_vert_variance": 0.00012197027535876259}}, "errors": ["PreArm: Hardware safety switch"]}
{"timestamp": "2026-01-15T12:54:10.506972Z", "telemetry": {"lat": 28.7530659, "lon": 77.1179212, "satellites": 8, "altitude_gps_m": 210.67999267578125, "groundspeed_mps": 0.17259977757930756}, "flight": {"mode": "STABILIZE", "armed": false}, "ekf": {"attitude": {"roll": 0.05320808291435242, "pitch": -0.0064541068859398365, "yaw": -1.8983187675476074}, "local_position": {"x": -2.7669851779937744, "y": 3.4676764011383057, "z": 1.6454100608825684}, "status": {"flags": 33599, "velocity_variance": 0.11384586244821548, "pos_horiz_variance": 0.004343158565461636, "pos_vert_variance": 0.03694911673665047}}, "errors": ["PreArm: Hardware safety switch"]}
{"timestamp": "2026-01-15T12:54:11.511290Z", "telemetry": {"lat": 28.7530641, "lon": 77.1179231, "satellites": 8, "altitude_gps_m": 210.69000244140625, "groundspeed_mps": 0.11549798399209976}, "flight": {"mode": "STABILIZE", "armed": false}, "ekf": {"attitude": {"roll": 0.052096448838710785, "pitch": -0.00607135659083724, "yaw": -1.898659348487854}, "local_position": {"x": -2.8244197368621826, "y": 3.6046481132507324, "z": 1.6315672397613525}, "status": {"flags": 33599, "velocity_variance": 0.04656413197517395, "pos_horiz_variance": 0.00197038846090436, "pos_vert_variance": 0.10547862946987152}}, "errors": ["PreArm: Hardware safety switch"]}
{"timestamp": "2026-01-15T12:54:12.487463Z", "telemetry": {"lat": 28.7530663, "lon": 77.1179214, "satellites": 8, "altitude_gps_m": 210.70999145507812, "groundspeed_mps": 0.1257987767457962}, "flight": {"mode": "STABILIZE", "armed": false}, "ekf": {"attitude": {"roll": 0.05227331072092056, "pitch": -0.006162595469504595, "yaw": -1.8990039825439453}, "local_position": {"x": -2.7650911808013916, "y": 3.6028220653533936, "z": 1.5996766090393066}, "status": {"flags": 33599, "velocity_variance": 0.061604440212249756, "pos_horiz_variance": 0.0037855850532650948, "pos_vert_variance": 0.004672572948038578}}, "errors": ["PreArm: Hardware safety switch"]}
{"timestamp": "2026-01-15T12:54:13.486021Z", "telemetry": {"lat": 28.7530664, "lon": 77.1179218, "satellites": 8, "altitude_gps_m": 210.63999938964844, "groundspeed_mps": 0.12945619225502014}, "flight": {"mode": "STABILIZE", "armed": false}, "ekf": {"attitude": {"roll": 0.05180758610367775, "pitch": -0.006293411832302809, "yaw": -1.8992271423339844}, "local_position": {"x": -2.6559369564056396, "y": 3.493147134780884, "z": 1.6566559076309204}, "status": {"flags": 33599, "velocity_variance": 0.10002214461565018, "pos_horiz_variance": 0.0030102855525910854, "pos_vert_variance": 0.03939668461680412}}, "errors": ["PreArm: Hardware safety switch"]}
{"timestamp": "2026-01-15T12:54:14.488996Z", "telemetry": {"lat": 28.7530653, "lon": 77.117925, "satellites": 8, "altitude_gps_m": 210.62998962402344, "groundspeed_mps": 0.09308016300201416}, "flight": {"mode": "STABILIZE", "armed": false}, "ekf": {"attitude": {"roll": 0.05116191506385803, "pitch": -0.00593023793771863, "yaw": -1.8995163440704346}, "local_position": {"x": -2.636309862136841, "y": 3.5795037746429443, "z": 1.6938995122909546}, "status": {"flags": 33599, "velocity_variance": 0.07656709849834442, "pos_horiz_variance": 0.006588481832295656, "pos_vert_variance": 0.05313153192400932}}, "errors": ["PreArm: Hardware safety switch"]}
{"timestamp": "2026-01-15T12:54:15.489629Z", "telemetry": {"lat": 28.7530635, "lon": 77.1179259, "satellites": 8, "altitude_gps_m": 210.55999755859375, "groundspeed_mps": 0.04778121039271355}, "flight": {"mode": "STABILIZE", "armed": false}, "ekf": {"attitude": {"roll": 0.05048304796218872, "pitch": -0.005988567601889372, "yaw": -1.8997589349746704}, "local_position": {"x": -2.6824493408203125, "y": 3.609741687774658, "z": 1.7530057430267334}, "status": {"flags": 33599, "velocity_variance": 0.26248985528945923, "pos_horiz_variance": 0.010024105198681355, "pos_vert_variance": 0.022666363045573235}}, "errors": ["PreArm: Hardware safety switch"]}
{"timestamp": "2026-01-15T12:54:16.492730Z", "telemetry": {"lat": 28.7530647, "lon": 77.1179244, "satellites": 8, "altitude_gps_m": 210.59999084472656, "groundspeed_mps": 0.04583818092942238}, "flight": {"mode": "STABILIZE", "armed": false}, "ekf": {"attitude": {"roll": 0.050627194344997406, "pitch": -0.005841987673193216, "yaw": -1.899917483329773}, "local_position": {"x": -2.68847918510437, "y": 3.650758743286133, "z": 1.7257462739944458}, "status": {"flags": 33599, "velocity_variance": 0.08622925728559494, "pos_horiz_variance": 0.0047571235336363316, "pos_vert_variance": 0.01283915713429451}}, "errors": ["PreArm: Hardware safety switch"]}
{"timestamp": "2026-01-15T12:54:17.490565Z", "telemetry": {"lat": 28.7530638, "lon": 77.1179243, "satellites": 9, "altitude_gps_m": 210.6199951171875, "groundspeed_mps": 0.015143590047955513}, "flight": {"mode": "STABILIZE", "armed": false}, "ekf": {"attitude": {"roll": 0.0501740463078022, "pitch": -0.005494283977895975, "yaw": -1.9001487493515015}, "local_position": {"x": -2.7388672828674316, "y": 3.76554274559021, "z": 1.7006473541259766}, "status": {"flags": 33599, "velocity_variance": 0.20472979545593262, "pos_horiz_variance": 0.003627958009019494, "pos_vert_variance": 0.020056212320923805}}, "errors": ["PreArm: Hardware safety switch"]}
{"timestamp": "2026-01-15T12:54:18.475367Z", "telemetry": {"lat": 28.7530656, "lon": 77.1179225, "satellites": 9, "altitude_gps_m": 210.64999389648438, "groundspeed_mps": 0.02535422332584858}, "flight": {"mode": "STABILIZE", "armed": false}, "ekf": {"attitude": {"roll": 0.05039427429437637, "pitch": -0.005416409578174353, "yaw": -1.9004255533218384}, "local_position": {"x": -2.704633951187134, "y": 3.802105188369751, "z": 1.6753262281417847}, "status": {"flags": 33599, "velocity_variance": 0.2478557974100113, "pos_horiz_variance": 0.0039128754287958145, "pos_vert_variance": 0.018347719684243202}}, "errors": ["PreArm: Hardware safety switch"]}
