{"timestamp": "2025-12-28T10:54:35.757136Z", "telemetry": {"lat": 28.75317, "lon": 77.1177926, "satellites": 9, "altitude_gps_m": 213.19000244140625, "groundspeed_mps": 0.45188024640083313}, "flight": {"mode": null, "armed": null}, "ekf": {"attitude": {"roll": -0.03400624170899391, "pitch": -0.004750132095068693, "yaw": 3.047145128250122}, "local_position": {"x": 11.106205940246582, "y": -8.268908500671387, "z": -4.268078327178955}, "status": {"flags": 33599, "velocity_variance": 0.0909472405910492, "pos_horiz_variance": 0.013750405050814152, "pos_vert_variance": 0.0849481150507927}}, "errors": []}
{"timestamp": "2025-12-28T10:54:36.807513Z", "telemetry": {"lat": 28.7531628, "lon": 77.1177957, "satellites": 9, "altitude_gps_m": 213.22999572753906, "groundspeed_mps": 0.4331096410751343}, "flight": {"mode": "LOITER", "armed": false}, "ekf": {"attitude": {"roll": -0.03384604677557945, "pitch": -0.0043363128788769245, "yaw": 3.047106981277466}, "local_position": {"x": 10.665289878845215, "y": -7.967257499694824, "z": -4.307676315307617}, "status": {"flags": 33599, "velocity_variance": 0.12471073865890503, "pos_horiz_variance": 0.019527079537510872, "pos_vert_variance": 0.0018076584674417973}}, "errors": []}
{"timestamp": "2025-12-28T10:54:37.857953Z", "telemetry": {"lat": 28.7531595, "lon": 77.1177958, "satellites": 9, "altitude_gps_m": 213.33999633789062, "groundspeed_mps": 0.39093104004859924}, "flight": {"mode": "LOITER", "armed": false}, "ekf": {"attitude": {"roll": -0.0330023430287838, "pitch": -0.0036161686293780804, "yaw": 3.047116279602051}, "local_position": {"x": 10.295276641845703, "y": -7.824628829956055, "z": -4.413632392883301}, "status": {"flags": 33599, "velocity_variance": 0.20228998363018036, "pos_horiz_variance": 0.019494032487273216, "pos_vert_variance": 0.01651492528617382}}, "errors": []}
{"timestamp": "2025-12-28T10:54:38.868215Z", "telemetry": {"lat": 28.7531521, "lon": 77.1177967, "satellites": 9, "altitude_gps_m": 213.42999267578125, "groundspeed_mps": 0.3821263313293457}, "flight": {"mode": "LOITER", "armed": false}, "ekf": {"attitude": {"roll": -0.03253917023539543, "pitch": -0.00373615650460124, "yaw": 3.046973705291748}, "local_position": {"x": 9.905379295349121, "y": -7.707406044006348, "z": -4.504776954650879}, "status": {"flags": 33599, "velocity_variance": 0.23634427785873413, "pos_horiz_variance": 0.02683595009148121, "pos_vert_variance": 0.022586040198802948}}, "errors": []}
{"timestamp": "2025-12-28T10:54:39.868174Z", "telemetry": {"lat": 28.7531469, "lon": 77.1177974, "satellites": 9, "altitude_gps_m": 213.45999145507812, "groundspeed_mps": 0.4121856987476349}, "flight": {"mode": "LOITER", "armed": false}, "ekf": {"attitude": {"roll": -0.032019902020692825, "pitch": -0.003951421473175287, "yaw": 3.0470194816589355}, "local_position": {"x": 9.086134910583496, "y": -7.591402053833008, "z": -4.537680625915527}, "status": {"flags": 33599, "velocity_variance": 0.31732091307640076, "pos_horiz_variance": 0.022372739389538765, "pos_vert_variance": 0.005081688519567251}}, "errors": []}
{"timestamp": "2025-12-28T10:54:40.868227Z", "telemetry": {"lat": 28.7531462, "lon": 77.1177947, "satellites": 9, "altitude_gps_m": 213.5, "groundspeed_mps": 0.3085695803165436}, "flight": {"mode": "LOITER", "armed": false}, "ekf": {"attitude": {"roll": -0.030807610601186752, "pitch": -0.002468410413712263, "yaw": 3.046792507171631}, "local_position": {"x": 8.81261157989502, "y": -7.722282409667969, "z": -4.575562953948975}, "status": {"flags": 33599, "velocity_variance": 0.289140522480011, "pos_horiz_variance": 0.019540434703230858, "pos_vert_variance": 0.043103210628032684}}, "errors": []}
{"timestamp": "2025-12-28T10:54:41.868069Z", "telemetry": {"lat": 28.7531436, "lon": 77.117796, "satellites": 8, "altitude_gps_m": 213.50999450683594, "groundspeed_mps": 0.28473734855651855}, "flight": {"mode": "LOITER", "armed": false}, "ekf": {"attitude": {"roll": -0.030952047556638718, "pitch": -0.0022618970833718777, "yaw": 3.0466861724853516}, "local_position": {"x": 8.524669647216797, "y": -7.699570655822754, "z": -4.604186534881592}, "status": {"flags": 33599, "velocity_variance": 0.13601717352867126, "pos_horiz_variance": 0.017907017841935158, "pos_vert_variance": 0.061702702194452286}}, "errors": []}
{"timestamp": "2025-12-28T10:54:42.867997Z", "telemetry": {"lat": 28.753137, "lon": 77.117799, "satellites": 8, "altitude_gps_m": 213.45999145507812, "groundspeed_mps": 0.2871965169906616}, "flight": {"mode": "LOITER", "armed": false}, "ekf": {"attitude": {"roll": -0.031022343784570694, "pitch": -0.002379172947257757, "yaw": 3.0465877056121826}, "local_position": {"x": 7.908570289611816, "y": -7.613744735717773, "z": -4.529955863952637}, "status": {"flags": 33599, "velocity_variance": 0.3007369339466095, "pos_horiz_variance": 0.020899729803204536, "pos_vert_variance": 0.0013099652715027332}}, "errors": []}
{"timestamp": "2025-12-28T10:54:43.867964Z", "telemetry": {"lat": 28.7531384, "lon": 77.117798, "satellites": 9, "altitude_gps_m": 213.3199920654297, "groundspeed_mps": 0.2791084945201874}, "flight": {"mode": "LOITER", "armed": false}, "ekf": {"attitude": {"roll": -0.031129736453294754, "pitch": -0.0016697337850928307, "yaw": 3.0464205741882324}, "local_position": {"x": 7.432982921600342, "y": -7.529254913330078, "z": -4.390135765075684}, "status": {"flags": 33599, "velocity_variance": 0.12083905935287476, "pos_horiz_variance": 0.01066726353019476, "pos_vert_variance": 0.04823357239365578}}, "errors": []}
{"timestamp": "2025-12-28T10:54:44.868051Z", "telemetry": {"lat": 28.7531412, "lon": 77.1177968, "satellites": 9, "altitude_gps_m": 213.22999572753906, "groundspeed_mps": 0.18766409158706665}, "flight": {"mode": "LOITER", "armed": false}, "ekf": {"attitude": {"roll": -0.030537288635969162, "pitch": -0.0004978016950190067, "yaw": 3.046196937561035}, "local_position": {"x": 7.3136210441589355, "y": -7.616238117218018, "z": -4.308837890625}, "status": {"flags": 33599, "velocity_variance": 0.05883488431572914, "pos_horiz_variance": 0.002223558258265257, "pos_vert_variance": 0.019849656149744987}}, "errors": []}
{"timestamp": "2025-12-28T10:54:45.868341Z", "telemetry": {"lat": 28.7531372, "lon": 77.1178005, "satellites": 9, "altitude_gps_m": 213.27999877929688, "groundspeed_mps": 0.16802729666233063}, "flight": {"mode": "LOITER", "armed": false}, "ekf": {"attitude": {"roll": -0.030658219009637833, "pitch": -0.0009011016227304935, "yaw": 3.0461232662200928}, "local_position": {"x": 7.075131416320801, "y": -7.5417985916137695, "z": -4.349626064300537}, "status": {"flags": 33599, "velocity_variance": 0.15999238193035126, "pos_horiz_variance": 0.005765974055975676, "pos_vert_variance": 0.07177243381738663}}, "errors": []}
{"timestamp": "2025-12-28T10:54:46.868198Z", "telemetry": {"lat": 28.7531389, "lon": 77.1178, "satellites": 9, "altitude_gps_m": 213.25999450683594, "groundspeed_mps": 0.11398347467184067}, "flight": {"mode": "LOITER", "armed": false}, "ekf": {"attitude": {"roll": -0.03041369840502739, "pitch": -7.602432742714882e-05, "yaw": 3.0460963249206543}, "local_position": {"x": 6.936996936798096, "y": -7.4972333908081055, "z": -4.333441257476807}, "status": {"flags": 33599, "velocity_variance": 0.063033826649189, "pos_horiz_variance": 0.0027500127907842398, "pos_vert_variance": 0.0019378948491066694}}, "errors": []}
{"timestamp": "2025-12-28T10:54:47.868132Z", "telemetry": {"lat": 28.7531387, "lon": 77.1178007, "satellites": 9, "altitude_gps_m": 213.25999450683594, "groundspeed_mps": 0.04540501534938812}, "flight": {"mode": "LOITER", "armed": false}, "ekf": {"attitude": {"roll": -0.03032497689127922, "pitch": 0.00043954793363809586, "yaw": 3.0459842681884766}, "local_position": {"x": 6.969221591949463, "y": -7.506573677062988, "z": -4.333498001098633}, "status": {"flags": 33599, "velocity_variance": 0.10622619837522507, "pos_horiz_variance": 0.0037202106323093176, "pos_vert_variance": 0.004804916679859161}}, "errors": []}
{"timestamp": "2025-12-28T10:54:48.867872Z", "telemetry": {"lat": 28.7531395, "lon": 77.1178011, "satellites": 10, "altitude_gps_m": 213.2899932861328, "groundspeed_mps": 0.03331629931926727}, "flight": {"mode": "LOITER", "armed": false}, "ekf": {"attitude": {"roll": -0.030319523066282272, "pitch": 0.0005237450823187828, "yaw": 3.0456178188323975}, "local_position": {"x": 6.862789630889893, "y": -7.444920063018799, "z": -4.374565124511719}, "status": {"flags": 33599, "velocity_variance": 0.20478004217147827, "pos_horiz_variance": 0.006053430959582329, "pos_vert_variance": 0.07909256219863892}}, "errors": []}
{"timestamp": "2025-12-28T10:54:49.867868Z", "telemetry": {"lat": 28.7531403, "lon": 77.1177998, "satellites": 10, "altitude_gps_m": 213.25, "groundspeed_mps": 0.066834457218647}, "flight": {"mode": "LOITER", "armed": false}, "ekf": {"attitude": {"roll": -0.030251789838075638, "pitch": 0.0009087868966162205, "yaw": 3.0454514026641846}, "local_position": {"x": 6.905592918395996, "y": -7.481414318084717, "z": -4.327097415924072}, "status": {"flags": 33599, "velocity_variance": 0.1831081062555313, "pos_horiz_variance": 0.00550314225256443, "pos_vert_variance": 0.06781797111034393}}, "errors": []}
{"timestamp": "2025-12-28T10:54:50.868619Z", "telemetry": {"lat": 28.7531425, "lon": 77.1177999, "satellites": 9, "altitude_gps_m": 213.29998779296875, "groundspeed_mps": 0.16196247935295105}, "flight": {"mode": "LOITER", "armed": false}, "ekf": {"attitude": {"roll": -0.030046667903661728, "pitch": 0.0016575001645833254, "yaw": 3.045300245285034}, "local_position": {"x": 7.145719528198242, "y": -7.563249111175537, "z": -4.3719072341918945}, "status": {"flags": 33599, "velocity_variance": 0.21004284918308258, "pos_horiz_variance": 0.006445078179240227, "pos_vert_variance": 0.04619752988219261}}, "errors": []}
{"timestamp": "2025-12-28T10:54:51.868770Z", "telemetry": {"lat": 28.75314, "lon": 77.1178017, "satellites": 8, "altitude_gps_m": 213.30999755859375, "groundspeed_mps": 0.19128039479255676}, "flight": {"mode": "LOITER", "armed": false}, "ekf": {"attitude": {"roll": -0.030351106077432632, "pitch": 0.0013953540474176407, "yaw": 3.045182704925537}, "local_position": {"x": 7.220522880554199, "y": -7.547172546386719, "z": -4.383164405822754}, "status": {"flags": 33599, "velocity_variance": 0.17749367654323578, "pos_horiz_variance": 0.006321357097476721, "pos_vert_variance": 0.08344139903783798}}, "errors": []}
{"timestamp": "2025-12-28T10:54:52.868540Z", "telemetry": {"lat": 28.7531431, "lon": 77.1178012, "satellites": 8, "altitude_gps_m": 213.239990234375, "groundspeed_mps": 0.26961761713027954}, "flight": {"mode": "LOITER", "armed": false}, "ekf": {"attitude": {"roll": -0.030400503426790237, "pitch": 0.0021985527127981186, "yaw": 3.0451793670654297}, "local_position": {"x": 7.484445095062256, "y": -7.550018310546875, "z": -4.310686111450195}, "status": {"flags": 33599, "velocity_variance": 0.16217735409736633, "pos_horiz_variance": 0.005976508371531963, "pos_vert_variance": 0.05271925404667854}}, "errors": []}
{"timestamp": "2025-12-28T10:54:53.870753Z", "telemetry": {"lat": 28.7531397, "lon": 77.1178041, "satellites": 8, "altitude_gps_m": 213.20999145507812, "groundspeed_mps": 0.26682859659194946}, "flight": {"mode": "LOITER", "armed": false}, "ekf": {"attitude": {"roll": -0.031058866530656815, "pitch": 0.0013638101518154144, "yaw": 3.0451419353485107}, "local_position": {"x": 7.527467250823975, "y": -7.466102123260498, "z": -4.283051013946533}, "status": {"flags": 33599, "velocity_variance": 0.10570923984050751, "pos_horiz_variance": 0.011407765559852123, "pos_vert_variance": 0.0044637564569711685}}, "errors": []}
{"timestamp": "2025-12-28T10:54:54.867906Z", "telemetry": {"lat": 28.7531347, "lon": 77.1178064, "satellites": 8, "altitude_gps_m": 213.2899932861328, "groundspeed_mps": 0.229204460978508}, "flight": {"mode": "LOITER", "armed": false}, "ekf": {"attitude": {"roll": -0.0312020443379879, "pitch": 0.0002923673018813133, "yaw": 3.0451388359069824}, "local_position": {"x": 7.399407386779785, "y": -7.352473258972168, "z": -4.3697829246521}, "status": {"flags": 33599, "velocity_variance": 0.3058299124240875, "pos_horiz_variance": 0.019044091925024986, "pos_vert_variance": 0.017266660928726196}}, "errors": []}
{"timestamp": "2025-12-28T10:54:55.867816Z", "telemetry": {"lat": 28.7531331, "lon": 77.1178056, "satellites": 8, "altitude_gps_m": 213.27999877929688, "groundspeed_mps": 0.21921545267105103}, "flight": {"mode": "LOITER", "armed": false}, "ekf": {"attitude": {"roll": -0.0314430333673954, "pitch": 0.0001440439373254776, "yaw": 3.0451114177703857}, "local_position": {"x": 7.331671714782715, "y": -7.251816749572754, "z": -4.3557538986206055}, "status": {"flags": 33599, "velocity_variance": 0.05690858140587807, "pos_horiz_variance": 0.019920779392123222, "pos_vert_variance": 0.03606632351875305}}, "errors": []}
{"timestamp": "2025-12-28T10:54:56.870613Z", "telemetry": {"lat": 28.7531299, "lon": 77.1178069, "satellites": 8, "altitude_gps_m": 213.22999572753906, "groundspeed_mps": 0.17866569757461548}, "flight": {"mode": "LOITER", "armed": false}, "ekf": {"attitude": {"roll": -0.031568076461553574, "pitch": -0.0007466664537787437, "yaw": 3.045064687728882}, "local_position": {"x": 7.139720916748047, "y": -7.1484150886535645, "z": -4.3088908195495605}, "status": {"flags": 33599, "velocity_variance": 0.13314034044742584, "pos_horiz_variance": 0.023186175152659416, "pos_vert_variance": 0.0022757169790565968}}, "errors": []}
{"timestamp": "2025-12-28T10:54:57.868366Z", "telemetry": {"lat": 28.7531311, "lon": 77.1178083, "satellites": 9, "altitude_gps_m": 213.22000122070312, "groundspeed_mps": 0.1599404662847519}, "flight": {"mode": "LOITER", "armed": false}, "ekf": {"attitude": {"roll": -0.031751085072755814, "pitch": -0.0012523061595857143, "yaw": 3.0450007915496826}, "local_position": {"x": 6.986876487731934, "y": -7.074450492858887, "z": -4.29534387588501}, "status": {"flags": 33599, "velocity_variance": 0.07535213977098465, "pos_horiz_variance": 0.0194631889462471, "pos_vert_variance": 0.016614234074950218}}, "errors": []}
{"timestamp": "2025-12-28T10:54:58.868466Z", "telemetry": {"lat": 28.7531303, "lon": 77.1178085, "satellites": 9, "altitude_gps_m": 213.22000122070312, "groundspeed_mps": 0.13144059479236603}, "flight": {"mode": "LOITER", "armed": false}, "ekf": {"attitude": {"roll": -0.03205641731619835, "pitch": -0.001958711538463831, "yaw": 3.0449273586273193}, "local_position": {"x": 6.848713397979736, "y": -6.93051815032959, "z": -4.2926716804504395}, "status": {"flags": 33599, "velocity_variance": 0.15536431968212128, "pos_horiz_variance": 0.017428435385227203, "pos_vert_variance": 0.103182852268219}}, "errors": []}
{"timestamp": "2025-12-28T10:54:59.868542Z", "telemetry": {"lat": 28.7531307, "lon": 77.1178083, "satellites": 9, "altitude_gps_m": 213.239990234375, "groundspeed_mps": 0.10199752449989319}, "flight": {"mode": "LOITER", "armed": false}, "ekf": {"attitude": {"roll": -0.03211284056305885, "pitch": -0.0026579624973237514, "yaw": 3.045034170150757}, "local_position": {"x": 6.704012393951416, "y": -6.820460796356201, "z": -4.313704013824463}, "status": {"flags": 33599, "velocity_variance": 0.07578358799219131, "pos_horiz_variance": 0.013103649951517582, "pos_vert_variance": 0.022580016404390335}}, "errors": []}
{"timestamp": "2025-12-28T10:55:00.868408Z", "telemetry": {"lat": 28.753133, "lon": 77.1178089, "satellites": 9, "altitude_gps_m": 213.13999938964844, "groundspeed_mps": 0.09326520562171936}, "flight": {"mode": "LOITER", "armed": false}, "ekf": {"attitude": {"roll": -0.03217829391360283, "pitch": -0.00291824946179986, "yaw": 3.0450599193573}, "local_position": {"x": 6.623173713684082, "y": -6.715076446533203, "z": -4.217782974243164}, "status": {"flags": 33599, "velocity_variance": 0.05613221600651741, "pos_horiz_variance": 0.007433733902871609, "pos_vert_variance": 0.0013512731529772282}}, "errors": []}
{"timestamp": "2025-12-28T10:55:01.868165Z", "telemetry": {"lat": 28.7531325, "lon": 77.1178076, "satellites": 9, "altitude_gps_m": 213.1599884033203, "groundspeed_mps": 0.09885703772306442}, "flight": {"mode": "LOITER", "armed": false}, "ekf": {"attitude": {"roll": -0.03163487836718559, "pitch": -0.002921436447650194, "yaw": 3.044856548309326}, "local_position": {"x": 6.668533802032471, "y": -6.732522010803223, "z": -4.242908477783203}, "status": {"flags": 33599, "velocity_variance": 0.09966549277305603, "pos_horiz_variance": 0.0081507982686162, "pos_vert_variance": 0.06709953397512436}}, "errors": []}
{"timestamp": "2025-12-28T10:55:02.868541Z", "telemetry": {"lat": 28.7531316, "lon": 77.1178089, "satellites": 9, "altitude_gps_m": 213.26998901367188, "groundspeed_mps": 0.05883064493536949}, "flight": {"mode": "LOITER", "armed": false}, "ekf": {"attitude": {"roll": -0.03144064173102379, "pitch": -0.0038279020227491856, "yaw": 3.0446996688842773}, "local_position": {"x": 6.558266639709473, "y": -6.6864519119262695, "z": -4.350310802459717}, "status": {"flags": 33599, "velocity_variance": 0.24420933425426483, "pos_horiz_variance": 0.007887565530836582, "pos_vert_variance": 0.02003026194870472}}, "errors": []}
{"timestamp": "2025-12-28T10:55:03.868159Z", "telemetry": {"lat": 28.7531345, "lon": 77.1178068, "satellites": 10, "altitude_gps_m": 213.3699951171875, "groundspeed_mps": 0.12777036428451538}, "flight": {"mode": "LOITER", "armed": false}, "ekf": {"attitude": {"roll": -0.030782576650381088, "pitch": -0.0028917561285197735, "yaw": 3.0447998046875}, "local_position": {"x": 6.7655534744262695, "y": -6.79097843170166, "z": -4.447167873382568}, "status": {"flags": 33599, "velocity_variance": 0.0990152359008789, "pos_horiz_variance": 0.005209036637097597, "pos_vert_variance": 0.013719114474952221}}, "errors": ["PreArm: Hardware safety switch", "PreArm: GPS glitching", "PreArm: Internal errors 0x100000 l:66 flow_of_ctrl"]}
{"timestamp": "2025-12-28T10:55:04.868443Z", "telemetry": {"lat": 28.7531304, "lon": 77.1178055, "satellites": 10, "altitude_gps_m": 213.33999633789062, "groundspeed_mps": 0.04584972932934761}, "flight": {"mode": "LOITER", "armed": false}, "ekf": {"attitude": {"roll": -0.03125198557972908, "pitch": -0.0045335679315030575, "yaw": 3.044776201248169}, "local_position": {"x": 6.534424781799316, "y": -6.738318920135498, "z": -4.417202949523926}, "status": {"flags": 33599, "velocity_variance": 0.3244926631450653, "pos_horiz_variance": 0.008703639730811119, "pos_vert_variance": 0.10583094507455826}}, "errors": ["PreArm: Hardware safety switch", "PreArm: GPS glitching", "PreArm: Internal errors 0x100000 l:66 flow_of_ctrl"]}
{"timestamp": "2025-12-28T10:55:05.868551Z", "telemetry": {"lat": 28.7531285, "lon": 77.1178033, "satellites": 10, "altitude_gps_m": 213.3300018310547, "groundspeed_mps": 0.04534180089831352}, "flight": {"mode": "LOITER", "armed": false}, "ekf": {"attitude": {"roll": -0.030835341662168503, "pitch": -0.005369108635932207, "yaw": 3.0446691513061523}, "local_position": {"x": 6.280787467956543, "y": -6.798766613006592, "z": -4.406919479370117}, "status": {"flags": 33599, "velocity_variance": 0.3011367619037628, "pos_horiz_variance": 0.01023875828832388, "pos_vert_variance": 0.05475602298974991}}, "errors": ["PreArm: Hardware safety switch", "PreArm: GPS glitching", "PreArm: Internal errors 0x100000 l:66 flow_of_ctrl"]}
{"timestamp": "2025-12-28T10:55:06.868433Z", "telemetry": {"lat": 28.7531273, "lon": 77.1178014, "satellites": 10, "altitude_gps_m": 213.38999938964844, "groundspeed_mps": 0.09874822199344635}, "flight": {"mode": "LOITER", "armed": false}, "ekf": {"attitude": {"roll": -0.030035261064767838, "pitch": -0.005265283863991499, "yaw": 3.0447440147399902}, "local_position": {"x": 6.196579456329346, "y": -6.943048477172852, "z": -4.457149505615234}, "status": {"flags": 33599, "velocity_variance": 0.39421695470809937, "pos_horiz_variance": 0.012465313076972961, "pos_vert_variance": 0.002881956985220313}}, "errors": ["PreArm: Hardware safety switch", "PreArm: GPS glitching", "PreArm: Internal errors 0x100000 l:66 flow_of_ctrl"]}
{"timestamp": "2025-12-28T10:55:07.867903Z", "telemetry": {"lat": 28.7531268, "lon": 77.1178, "satellites": 10, "altitude_gps_m": 213.45999145507812, "groundspeed_mps": 0.1483316868543625}, "flight": {"mode": "LOITER", "armed": false}, "ekf": {"attitude": {"roll": -0.029882285743951797, "pitch": -0.006132564041763544, "yaw": 3.0445563793182373}, "local_position": {"x": 5.933492660522461, "y": -7.167724132537842, "z": -4.532843112945557}, "status": {"flags": 33599, "velocity_variance": 0.13106530904769897, "pos_horiz_variance": 0.007601918652653694, "pos_vert_variance": 0.057785335928201675}}, "errors": ["PreArm: Hardware safety switch", "PreArm: GPS glitching", "PreArm: Internal errors 0x100000 l:66 flow_of_ctrl"]}
{"timestamp": "2025-12-28T10:55:08.868042Z", "telemetry": {"lat": 28.7531263, "lon": 77.1178, "satellites": 10, "altitude_gps_m": 213.489990234375, "groundspeed_mps": 0.18690265715122223}, "flight": {"mode": "LOITER", "armed": false}, "ekf": {"attitude": {"roll": -0.030173446983098984, "pitch": -0.006989209447056055, "yaw": 3.0445058345794678}, "local_position": {"x": 5.67167854309082, "y": -7.245326519012451, "z": -4.563563346862793}, "status": {"flags": 33599, "velocity_variance": 0.29633623361587524, "pos_horiz_variance": 0.00366000272333622, "pos_vert_variance": 0.04792359098792076}}, "errors": ["PreArm: Hardware safety switch", "PreArm: GPS glitching", "PreArm: Internal errors 0x100000 l:66 flow_of_ctrl"]}
{"timestamp": "2025-12-28T10:55:09.867960Z", "telemetry": {"lat": 28.7531297, "lon": 77.117799, "satellites": 9, "altitude_gps_m": 213.54998779296875, "groundspeed_mps": 0.1855907440185547}, "flight": {"mode": "LOITER", "armed": false}, "ekf": {"attitude": {"roll": -0.029953952878713608, "pitch": -0.006252502556890249, "yaw": 3.044490337371826}, "local_position": {"x": 5.723659515380859, "y": -7.424225330352783, "z": -4.623327255249023}, "status": {"flags": 33599, "velocity_variance": 0.15474732220172882, "pos_horiz_variance": 0.005216504447162151, "pos_vert_variance": 0.11542782932519913}}, "errors": ["PreArm: Hardware safety switch", "PreArm: GPS glitching", "PreArm: Internal errors 0x100000 l:66 flow_of_ctrl"]}
{"timestamp": "2025-12-28T10:55:10.868034Z", "telemetry": {"lat": 28.7531308, "lon": 77.1177974, "satellites": 9, "altitude_gps_m": 213.6199951171875, "groundspeed_mps": 0.18916259706020355}, "flight": {"mode": "LOITER", "armed": false}, "ekf": {"attitude": {"roll": -0.029708411544561386, "pitch": -0.005719501990824938, "yaw": 3.044466018676758}, "local_position": {"x": 5.8231658935546875, "y": -7.600747108459473, "z": -4.69220495223999}, "status": {"flags": 33599, "velocity_variance": 0.14088398218154907, "pos_horiz_variance": 0.005885866936296225, "pos_vert_variance": 0.04984863102436066}}, "errors": ["PreArm: Hardware safety switch", "PreArm: GPS glitching", "PreArm: Internal errors 0x100000 l:66 flow_of_ctrl"]}
{"timestamp": "2025-12-28T10:55:11.868200Z", "telemetry": {"lat": 28.753133, "lon": 77.1177963, "satellites": 9, "altitude_gps_m": 213.63999938964844, "groundspeed_mps": 0.19907085597515106}, "flight": {"mode": "LOITER", "armed": false}, "ekf": {"attitude": {"roll": -0.029826026409864426, "pitch": -0.0055259293876588345, "yaw": 3.0443551540374756}, "local_position": {"x": 5.8893256187438965, "y": -7.775689125061035, "z": -4.712393760681152}, "status": {"flags": 33599, "velocity_variance": 0.3079584538936615, "pos_horiz_variance": 0.0100168501958251, "pos_vert_variance": 0.066891610622406}}, "errors": ["PreArm: Hardware safety switch", "PreArm: GPS glitching", "PreArm: Internal errors 0x100000 l:66 flow_of_ctrl"]}
{"timestamp": "2025-12-28T10:55:12.867892Z", "telemetry": {"lat": 28.7531323, "lon": 77.1177971, "satellites": 9, "altitude_gps_m": 213.58999633789062, "groundspeed_mps": 0.1667538434267044}, "flight": {"mode": "LOITER", "armed": false}, "ekf": {"attitude": {"roll": -0.03096497431397438, "pitch": -0.0061265393160283566, "yaw": 3.0442984104156494}, "local_position": {"x": 5.747718334197998, "y": -7.7163519859313965, "z": -4.660696506500244}, "status": {"flags": 33599, "velocity_variance": 0.12220302224159241, "pos_horiz_variance": 0.010949471965432167, "pos_vert_variance": 0.04376824200153351}}, "errors": ["PreArm: Hardware safety switch", "PreArm: GPS glitching", "PreArm: Internal errors 0x100000 l:66 flow_of_ctrl"]}
{"timestamp": "2025-12-28T10:55:13.867921Z", "telemetry": {"lat": 28.7531313, "lon": 77.1177962, "satellites": 9, "altitude_gps_m": 213.54998779296875, "groundspeed_mps": 0.15430498123168945}, "flight": {"mode": "LOITER", "armed": false}, "ekf": {"attitude": {"roll": -0.031431954354047775, "pitch": -0.006428934168070555, "yaw": 3.0444233417510986}, "local_position": {"x": 5.65639591217041, "y": -7.702889442443848, "z": -4.618619918823242}, "status": {"flags": 33599, "velocity_variance": 0.16654612123966217, "pos_horiz_variance": 0.00948683824390173, "pos_vert_variance": 0.03208690509200096}}, "errors": ["PreArm: Hardware safety switch", "PreArm: GPS glitching", "PreArm: Internal errors 0x100000 l:66 flow_of_ctrl"]}
{"timestamp": "2025-12-28T10:55:14.868130Z", "telemetry": {"lat": 28.7531371, "lon": 77.117791, "satellites": 9, "altitude_gps_m": 213.59999084472656, "groundspeed_mps": 0.14942294359207153}, "flight": {"mode": "LOITER", "armed": false}, "ekf": {"attitude": {"roll": -0.030991774052381516, "pitch": -0.0057188416831195354, "yaw": 3.0444180965423584}, "local_position": {"x": 5.861719608306885, "y": -7.935834884643555, "z": -4.673346042633057}, "status": {"flags": 33599, "velocity_variance": 0.09584131091833115, "pos_horiz_variance": 0.019648553803563118, "pos_vert_variance": 0.053030118346214294}}, "errors": ["PreArm: Hardware safety switch", "PreArm: GPS glitching", "PreArm: Internal errors 0x100000 l:66 flow_of_ctrl"]}
{"timestamp": "2025-12-28T10:55:15.867940Z", "telemetry": {"lat": 28.753139, "lon": 77.1177877, "satellites": 8, "altitude_gps_m": 213.59999084472656, "groundspeed_mps": 0.15908952057361603}, "flight": {"mode": "LOITER", "armed": false}, "ekf": {"attitude": {"roll": -0.031154904514551163, "pitch": -0.004872553516179323, "yaw": 3.0443992614746094}, "local_position": {"x": 6.154323577880859, "y": -8.175193786621094, "z": -4.675745487213135}, "status": {"flags": 33599, "velocity_variance": 0.14421284198760986, "pos_horiz_variance": 0.01926291361451149, "pos_vert_variance": 0.054806146770715714}}, "errors": ["PreArm: Hardware safety switch", "PreArm: GPS glitching", "PreArm: Internal errors 0x100000 l:66 flow_of_ctrl"]}
{"timestamp": "2025-12-28T10:55:16.868118Z", "telemetry": {"lat": 28.7531398, "lon": 77.1177852, "satellites": 8, "altitude_gps_m": 213.58999633789062, "groundspeed_mps": 0.15931464731693268}, "flight": {"mode": "LOITER", "armed": false}, "ekf": {"attitude": {"roll": -0.03128192946314812, "pitch": -0.005110471975058317, "yaw": 3.04429292678833}, "local_position": {"x": 6.259947776794434, "y": -8.364116668701172, "z": -4.666733264923096}, "status": {"flags": 33599, "velocity_variance": 0.1640852838754654, "pos_horiz_variance": 0.019465522840619087, "pos_vert_variance": 0.025984955951571465}}, "errors": ["PreArm: Hardware safety switch", "PreArm: GPS glitching", "PreArm: Internal errors 0x100000 l:66 flow_of_ctrl"]}
{"timestamp": "2025-12-28T10:55:17.867916Z", "telemetry": {"lat": 28.7531379, "lon": 77.117785, "satellites": 8, "altitude_gps_m": 213.59999084472656, "groundspeed_mps": 0.14569152891635895}, "flight": {"mode": "LOITER", "armed": false}, "ekf": {"attitude": {"roll": -0.03151987865567207, "pitch": -0.005705864634364843, "yaw": 3.0443902015686035}, "local_position": {"x": 6.264221668243408, "y": -8.498100280761719, "z": -4.671900272369385}, "status": {"flags": 33599, "velocity_variance": 0.4917828440666199, "pos_horiz_variance": 0.014050640165805817, "pos_vert_variance": 0.0018299956573173404}}, "errors": ["PreArm: Hardware safety switch", "PreArm: GPS glitching", "PreArm: Internal errors 0x100000 l:66 flow_of_ctrl"]}
{"timestamp": "2025-12-28T10:55:18.868476Z", "telemetry": {"lat": 28.7531384, "lon": 77.1177843, "satellites": 8, "altitude_gps_m": 213.5699920654297, "groundspeed_mps": 0.11343677341938019}, "flight": {"mode": "LOITER", "armed": false}, "ekf": {"attitude": {"roll": -0.03218356892466545, "pitch": -0.0063826641999185085, "yaw": 3.044401168823242}, "local_position": {"x": 6.141982078552246, "y": -8.47034740447998, "z": -4.6492156982421875}, "status": {"flags": 33599, "velocity_variance": 0.2713621258735657, "pos_horiz_variance": 0.016987893730401993, "pos_vert_variance": 0.006126446649432182}}, "errors": ["PreArm: Hardware safety switch", "PreArm: GPS glitching", "PreArm: Internal errors 0x100000 l:66 flow_of_ctrl"]}
{"timestamp": "2025-12-28T10:55:19.868305Z", "telemetry": {"lat": 28.7531395, "lon": 77.1177822, "satellites": 8, "altitude_gps_m": 213.54998779296875, "groundspeed_mps": 0.09592872858047485}, "flight": {"mode": "LOITER", "armed": false}, "ekf": {"attitude": {"roll": -0.032262999564409256, "pitch": -0.005775431636720896, "yaw": 3.044492721557617}, "local_position": {"x": 6.285725116729736, "y": -8.613797187805176, "z": -4.607425689697266}, "status": {"flags": 33599, "velocity_variance": 0.16273893415927887, "pos_horiz_variance": 0.017343055456876755, "pos_vert_variance": 0.04505278170108795}}, "errors": ["PreArm: Hardware safety switch", "PreArm: GPS glitching", "PreArm: Internal errors 0x100000 l:66 flow_of_ctrl"]}
{"timestamp": "2025-12-28T10:55:20.868066Z", "telemetry": {"lat": 28.7531433, "lon": 77.1177778, "satellites": 8, "altitude_gps_m": 213.5800018310547, "groundspeed_mps": 0.14435815811157227}, "flight": {"mode": "LOITER", "armed": false}, "ekf": {"attitude": {"roll": -0.031711507588624954, "pitch": -0.0050751022063195705, "yaw": 3.044544219970703}, "local_position": {"x": 6.662575721740723, "y": -8.970088005065918, "z": -4.658010959625244}, "status": {"flags": 33599, "velocity_variance": 0.22060847282409668, "pos_horiz_variance": 0.019287414848804474, "pos_vert_variance": 0.032495997846126556}}, "errors": ["PreArm: Hardware safety switch", "PreArm: GPS glitching", "PreArm: Internal errors 0x100000 l:66 flow_of_ctrl"]}
{"timestamp": "2025-12-28T10:55:21.868564Z", "telemetry": {"lat": 28.7531443, "lon": 77.1177763, "satellites": 8, "altitude_gps_m": 213.52999877929688, "groundspeed_mps": 0.13050223886966705}, "flight": {"mode": "LOITER", "armed": false}, "ekf": {"attitude": {"roll": -0.03191513940691948, "pitch": -0.005233205389231443, "yaw": 3.044469118118286}, "local_position": {"x": 6.651719570159912, "y": -9.049838066101074, "z": -4.590003967285156}, "status": {"flags": 33599, "velocity_variance": 0.250358521938324, "pos_horiz_variance": 0.016441520303487778, "pos_vert_variance": 0.00873540434986353}}, "errors": ["PreArm: Hardware safety switch", "PreArm: GPS glitching", "PreArm: Internal errors 0x100000 l:66 flow_of_ctrl"]}
{"timestamp": "2025-12-28T10:55:22.868512Z", "telemetry": {"lat": 28.7531455, "lon": 77.1177736, "satellites": 8, "altitude_gps_m": 213.5699920654297, "groundspeed_mps": 0.17534062266349792}, "flight": {"mode": "LOITER", "armed": false}, "ekf": {"attitude": {"roll": -0.031753432005643845, "pitch": -0.0051037524826824665, "yaw": 3.0444068908691406}, "local_position": {"x": 7.092036724090576, "y": -9.437788963317871, "z": -4.649772644042969}, "status": {"flags": 33599, "velocity_variance": 0.3408091962337494, "pos_horiz_variance": 0.016380328685045242, "pos_vert_variance": 0.019914673641324043}}, "errors": ["PreArm: Hardware safety switch", "PreArm: GPS glitching", "PreArm: Internal errors 0x100000 l:66 flow_of_ctrl"]}
{"timestamp": "2025-12-28T10:55:23.867894Z", "telemetry": {"lat": 28.7531442, "lon": 77.1177745, "satellites": 8, "altitude_gps_m": 213.5699920654297, "groundspeed_mps": 0.12805292010307312}, "flight": {"mode": "LOITER", "armed": false}, "ekf": {"attitude": {"roll": -0.03214651718735695, "pitch": -0.00586841581389308, "yaw": 3.044491767883301}, "local_position": {"x": 7.005856513977051, "y": -9.5044584274292, "z": -4.644401550292969}, "status": {"flags": 33599, "velocity_variance": 0.1988014578819275, "pos_horiz_variance": 0.013641074299812317, "pos_vert_variance": 0.06473127007484436}}, "errors": ["PreArm: Hardware safety switch", "PreArm: GPS glitching", "PreArm: Internal errors 0x100000 l:66 flow_of_ctrl"]}
{"timestamp": "2025-12-28T10:55:24.867948Z", "telemetry": {"lat": 28.7531459, "lon": 77.1177736, "satellites": 8, "altitude_gps_m": 213.6199951171875, "groundspeed_mps": 0.1337093561887741}, "flight": {"mode": "LOITER", "armed": false}, "ekf": {"attitude": {"roll": -0.03193708136677742, "pitch": -0.00607455475255847, "yaw": 3.0445499420166016}, "local_position": {"x": 7.0882415771484375, "y": -9.685514450073242, "z": -4.690999984741211}, "status": {"flags": 33599, "velocity_variance": 0.15782730281352997, "pos_horiz_variance": 0.014471025206148624, "pos_vert_variance": 0.03159775584936142}}, "errors": ["PreArm: Hardware safety switch", "PreArm: GPS glitching", "PreArm: Internal errors 0x100000 l:66 flow_of_ctrl"]}
{"timestamp": "2025-12-28T10:55:25.868671Z", "telemetry": {"lat": 28.7531453, "lon": 77.1177729, "satellites": 9, "altitude_gps_m": 213.61000061035156, "groundspeed_mps": 0.10965996980667114}, "flight": {"mode": "LOITER", "armed": false}, "ekf": {"attitude": {"roll": -0.03218438848853111, "pitch": -0.0065785679034888744, "yaw": 3.0445902347564697}, "local_position": {"x": 7.045182228088379, "y": -9.743667602539062, "z": -4.68179988861084}, "status": {"flags": 33599, "velocity_variance": 0.16277682781219482, "pos_horiz_variance": 0.012423612177371979, "pos_vert_variance": 0.03914207965135574}}, "errors": ["PreArm: Hardware safety switch", "PreArm: GPS glitching", "PreArm: Internal errors 0x100000 l:66 flow_of_ctrl"]}
{"timestamp": "2025-12-28T10:55:26.867863Z", "telemetry": {"lat": 28.7531442, "lon": 77.1177737, "satellites": 9, "altitude_gps_m": 213.59999084472656, "groundspeed_mps": 0.10859797149896622}, "flight": {"mode": "LOITER", "armed": false}, "ekf": {"attitude": {"roll": -0.032520975917577744, "pitch": -0.007161623332649469, "yaw": 3.0446245670318604}, "local_position": {"x": 7.009014129638672, "y": -9.825450897216797, "z": -4.6781535148620605}, "status": {"flags": 33599, "velocity_variance": 0.1564463973045349, "pos_horiz_variance": 0.011113051325082779, "pos_vert_variance": 0.0059827775694429874}}, "errors": ["PreArm: Hardware safety switch", "PreArm: GPS glitching", "PreArm: Internal errors 0x100000 l:66 flow_of_ctrl"]}
{"timestamp": "2025-12-28T10:55:27.868206Z", "telemetry": {"lat": 28.7531447, "lon": 77.117773, "satellites": 8, "altitude_gps_m": 213.50999450683594, "groundspeed_mps": 0.1148863211274147}, "flight": {"mode": "LOITER", "armed": false}, "ekf": {"attitude": {"roll": -0.03297356888651848, "pitch": -0.007583002094179392, "yaw": 3.0446677207946777}, "local_position": {"x": 6.918006420135498, "y": -9.816412925720215, "z": -4.583773136138916}, "status": {"flags": 33599, "velocity_variance": 0.18639613687992096, "pos_horiz_variance": 0.0135245556011796, "pos_vert_variance": 0.03133910149335861}}, "errors": ["PreArm: Hardware safety switch", "PreArm: GPS glitching", "PreArm: Internal errors 0x100000 l:66 flow_of_ctrl"]}
{"timestamp": "2025-12-28T10:55:28.868168Z", "telemetry": {"lat": 28.7531446, "lon": 77.1177733, "satellites": 8, "altitude_gps_m": 213.4199981689453, "groundspeed_mps": 0.1174498051404953}, "flight": {"mode": "LOITER", "armed": false}, "ekf": {"attitude": {"roll": -0.032786037772893906, "pitch": -0.007548276800662279, "yaw": 3.044591188430786}, "local_position": {"x": 6.948326587677002, "y": -9.879412651062012, "z": -4.491969585418701}, "status": {"flags": 33599, "velocity_variance": 0.1929991990327835, "pos_horiz_variance": 0.013139717280864716, "pos_vert_variance": 0.11812294274568558}}, "errors": ["PreArm: Hardware safety switch", "PreArm: GPS glitching", "PreArm: Internal errors 0x100000 l:66 flow_of_ctrl"]}
{"timestamp": "2025-12-28T10:55:29.868555Z", "telemetry": {"lat": 28.7531506, "lon": 77.1177727, "satellites": 8, "altitude_gps_m": 213.47000122070312, "groundspeed_mps": 0.08532126992940903}, "flight": {"mode": "LOITER", "armed": false}, "ekf": {"attitude": {"roll": -0.032622236758470535, "pitch": -0.007083026226609945, "yaw": 3.044581890106201}, "local_position": {"x": 7.1683783531188965, "y": -9.994000434875488, "z": -4.541799545288086}, "status": {"flags": 33599, "velocity_variance": 0.16054092347621918, "pos_horiz_variance": 0.02121005766093731, "pos_vert_variance": 0.05895591527223587}}, "errors": ["PreArm: Hardware safety switch", "PreArm: GPS glitching", "PreArm: Internal errors 0x100000 l:66 flow_of_ctrl"]}
{"timestamp": "2025-12-28T10:55:30.870964Z", "telemetry": {"lat": 28.7531562, "lon": 77.1177722, "satellites": 8, "altitude_gps_m": 213.42999267578125, "groundspeed_mps": 0.056794460862874985}, "flight": {"mode": "LOITER", "armed": false}, "ekf": {"attitude": {"roll": -0.03239229694008827, "pitch": -0.005739920306950808, "yaw": 3.0445189476013184}, "local_position": {"x": 7.5876569747924805, "y": -10.114194869995117, "z": -4.508881092071533}, "status": {"flags": 33599, "velocity_variance": 0.09304696321487427, "pos_horiz_variance": 0.02427641488611698, "pos_vert_variance": 0.06775153428316116}}, "errors": ["PreArm: Hardware safety switch", "PreArm: GPS glitching", "PreArm: Internal errors 0x100000 l:66 flow_of_ctrl"]}
{"timestamp": "2025-12-28T10:55:31.867988Z", "telemetry": {"lat": 28.7531614, "lon": 77.1177726, "satellites": 8, "altitude_gps_m": 213.42999267578125, "groundspeed_mps": 0.11901485174894333}, "flight": {"mode": "LOITER", "armed": false}, "ekf": {"attitude": {"roll": -0.03236940875649452, "pitch": -0.004931930918246508, "yaw": 3.0445353984832764}, "local_position": {"x": 8.13208293914795, "y": -10.187612533569336, "z": -4.505428791046143}, "status": {"flags": 33599, "velocity_variance": 0.1247006431221962, "pos_horiz_variance": 0.02667536772787571, "pos_vert_variance": 0.0018330004531890154}}, "errors": ["PreArm: Hardware safety switch", "PreArm: GPS glitching", "PreArm: Internal errors 0x100000 l:66 flow_of_ctrl"]}
{"timestamp": "2025-12-28T10:55:32.868718Z", "telemetry": {"lat": 28.7531665, "lon": 77.1177746, "satellites": 8, "altitude_gps_m": 213.45999145507812, "groundspeed_mps": 0.20391608774662018}, "flight": {"mode": "LOITER", "armed": false}, "ekf": {"attitude": {"roll": -0.03241957351565361, "pitch": -0.003951542545109987, "yaw": 3.0444962978363037}, "local_position": {"x": 8.730229377746582, "y": -10.200033187866211, "z": -4.533468246459961}, "status": {"flags": 33599, "velocity_variance": 0.2553025782108307, "pos_horiz_variance": 0.027353061363101006, "pos_vert_variance": 0.02499418519437313}}, "errors": ["PreArm: Hardware safety switch", "PreArm: GPS glitching", "PreArm: Internal errors 0x100000 l:66 flow_of_ctrl"]}
{"timestamp": "2025-12-28T10:55:33.871140Z", "telemetry": {"lat": 28.753173, "lon": 77.117775, "satellites": 8, "altitude_gps_m": 213.47000122070312, "groundspeed_mps": 0.32503101229667664}, "flight": {"mode": "LOITER", "armed": false}, "ekf": {"attitude": {"roll": -0.03258797153830528, "pitch": -0.0028699724934995174, "yaw": 3.044443130493164}, "local_position": {"x": 9.508395195007324, "y": -10.216243743896484, "z": -4.542582988739014}, "status": {"flags": 33599, "velocity_variance": 0.18949191272258759, "pos_horiz_variance": 0.02761835604906082, "pos_vert_variance": 0.030742216855287552}}, "errors": ["PreArm: Hardware safety switch", "PreArm: GPS glitching", "PreArm: Internal errors 0x100000 l:66 flow_of_ctrl", "PreArm: Hardware safety switch", "PreArm: GPS glitching", "PreArm: Internal errors 0x100000 l:66 flow_of_ctrl"]}
{"timestamp": "2025-12-28T10:55:34.867942Z", "telemetry": {"lat": 28.7531773, "lon": 77.1177754, "satellites": 8, "altitude_gps_m": 213.47999572753906, "groundspeed_mps": 0.43715348839759827}, "flight": {"mode": "LOITER", "armed": false}, "ekf": {"attitude": {"roll": -0.032301586121320724, "pitch": -0.0017082937993109226, "yaw": 3.044589042663574}, "local_position": {"x": 10.311066627502441, "y": -10.242741584777832, "z": -4.556943893432617}, "status": {"flags": 33599, "velocity_variance": 0.3186439573764801, "pos_horiz_variance": 0.02234620414674282, "pos_vert_variance": 0.09388641268014908}}, "errors": ["PreArm: Hardware safety switch", "PreArm: GPS glitching", "PreArm: Internal errors 0x100000 l:66 flow_of_ctrl", "PreArm: Hardware safety switch", "PreArm: GPS glitching", "PreArm: Internal errors 0x100000 l:66 flow_of_ctrl"]}
{"timestamp": "2025-12-28T10:55:35.868236Z", "telemetry": {"lat": 28.7531794, "lon": 77.1177757, "satellites": 8, "altitude_gps_m": 213.47999572753906, "groundspeed_mps": 0.47861164808273315}, "flight": {"mode": "LOITER", "armed": false}, "ekf": {"attitude": {"roll": -0.032526519149541855, "pitch": -0.0016030371189117432, "yaw": 3.0447487831115723}, "local_position": {"x": 10.908037185668945, "y": -10.20818042755127, "z": -4.552417755126953}, "status": {"flags": 33599, "velocity_variance": 0.13994881510734558, "pos_horiz_variance": 0.016750160604715347, "pos_vert_variance": 0.011063383892178535}}, "errors": ["PreArm: Hardware safety switch", "PreArm: GPS glitching", "PreArm: Internal errors 0x100000 l:66 flow_of_ctrl", "PreArm: Hardware safety switch", "PreArm: GPS glitching", "PreArm: Internal errors 0x100000 l:66 flow_of_ctrl"]}
{"timestamp": "2025-12-28T10:55:36.868164Z", "telemetry": {"lat": 28.7531793, "lon": 77.1177795, "satellites": 8, "altitude_gps_m": 213.42999267578125, "groundspeed_mps": 0.44092118740081787}, "flight": {"mode": "LOITER", "armed": false}, "ekf": {"attitude": {"roll": -0.03344322368502617, "pitch": -0.0026546199806034565, "yaw": 3.0448882579803467}, "local_position": {"x": 11.209364891052246, "y": -10.01763916015625, "z": -4.506920337677002}, "status": {"flags": 33599, "velocity_variance": 0.33343133330345154, "pos_horiz_variance": 0.014591909945011139, "pos_vert_variance": 0.04397144168615341}}, "errors": ["PreArm: Hardware safety switch", "PreArm: GPS glitching", "PreArm: Internal errors 0x100000 l:66 flow_of_ctrl", "PreArm: Hardware safety switch", "PreArm: GPS glitching", "PreArm: Internal errors 0x100000 l:66 flow_of_ctrl"]}
{"timestamp": "2025-12-28T10:55:37.868170Z", "telemetry": {"lat": 28.7531834, "lon": 77.1177815, "satellites": 8, "altitude_gps_m": 213.3199920654297, "groundspeed_mps": 0.4994361400604248}, "flight": {"mode": "LOITER", "armed": false}, "ekf": {"attitude": {"roll": -0.033565256744623184, "pitch": -0.0018132622353732586, "yaw": 3.0449743270874023}, "local_position": {"x": 11.78739070892334, "y": -9.870214462280273, "z": -4.393162250518799}, "status": {"flags": 33599, "velocity_variance": 0.22107894718647003, "pos_horiz_variance": 0.014492620714008808, "pos_vert_variance": 0.0342700220644474}}, "errors": ["PreArm: Hardware safety switch", "PreArm: GPS glitching", "PreArm: Internal errors 0x100000 l:66 flow_of_ctrl", "PreArm: Hardware safety switch", "PreArm: GPS glitching", "PreArm: Internal errors 0x100000 l:66 flow_of_ctrl"]}
{"timestamp": "2025-12-28T10:55:38.868922Z", "telemetry": {"lat": 28.7531802, "lon": 77.1177864, "satellites": 8, "altitude_gps_m": 213.29998779296875, "groundspeed_mps": 0.48381954431533813}, "flight": {"mode": "LOITER", "armed": false}, "ekf": {"attitude": {"roll": -0.03406364098191261, "pitch": -0.0029821456409990788, "yaw": 3.0451552867889404}, "local_position": {"x": 12.129494667053223, "y": -9.652467727661133, "z": -4.374521732330322}, "status": {"flags": 33599, "velocity_variance": 0.11425022035837173, "pos_horiz_variance": 0.018638264387845993, "pos_vert_variance": 0.027945501729846}}, "errors": ["PreArm: Hardware safety switch", "PreArm: GPS glitching", "PreArm: Internal errors 0x100000 l:66 flow_of_ctrl", "PreArm: Hardware safety switch", "PreArm: GPS glitching", "PreArm: Internal errors 0x100000 l:66 flow_of_ctrl"]}
{"timestamp": "2025-12-28T10:55:39.868360Z", "telemetry": {"lat": 28.7531797, "lon": 77.1177908, "satellites": 9, "altitude_gps_m": 213.2899932861328, "groundspeed_mps": 0.4641486406326294}, "flight": {"mode": "LOITER", "armed": false}, "ekf": {"attitude": {"roll": -0.034486349672079086, "pitch": -0.0036276751197874546, "yaw": 3.0454182624816895}, "local_position": {"x": 12.336894989013672, "y": -9.23046588897705, "z": -4.36836576461792}, "status": {"flags": 33599, "velocity_variance": 0.43869921565055847, "pos_horiz_variance": 0.022684818133711815, "pos_vert_variance": 0.021723102778196335}}, "errors": ["PreArm: Hardware safety switch", "PreArm: GPS glitching", "PreArm: Internal errors 0x100000 l:66 flow_of_ctrl", "PreArm: Hardware safety switch", "PreArm: GPS glitching", "PreArm: Internal errors 0x100000 l:66 flow_of_ctrl"]}
{"timestamp": "2025-12-28T10:55:40.868229Z", "telemetry": {"lat": 28.753175, "lon": 77.1177936, "satellites": 9, "altitude_gps_m": 213.25999450683594, "groundspeed_mps": 0.3888864815235138}, "flight": {"mode": "LOITER", "armed": false}, "ekf": {"attitude": {"roll": -0.03535083308815956, "pitch": -0.005736796651035547, "yaw": 3.045538902282715}, "local_position": {"x": 12.072253227233887, "y": -8.6409273147583, "z": -4.33528995513916}, "status": {"flags": 33599, "velocity_variance": 0.16953133046627045, "pos_horiz_variance": 0.02288230136036873, "pos_vert_variance": 0.010084878653287888}}, "errors": ["PreArm: Hardware safety switch", "PreArm: GPS glitching", "PreArm: Internal errors 0x100000 l:66 flow_of_ctrl", "PreArm: Hardware safety switch", "PreArm: GPS glitching", "PreArm: Internal errors 0x100000 l:66 flow_of_ctrl"]}
{"timestamp": "2025-12-28T10:55:41.868143Z", "telemetry": {"lat": 28.7531721, "lon": 77.1177968, "satellites": 9, "altitude_gps_m": 213.22999572753906, "groundspeed_mps": 0.37092119455337524}, "flight": {"mode": "LOITER", "armed": false}, "ekf": {"attitude": {"roll": -0.03563513979315758, "pitch": -0.007304213475435972, "yaw": 3.0458269119262695}, "local_position": {"x": 11.785456657409668, "y": -8.151959419250488, "z": -4.309807300567627}, "status": {"flags": 33599, "velocity_variance": 0.21986998617649078, "pos_horiz_variance": 0.02240839973092079, "pos_vert_variance": 0.07167407125234604}}, "errors": ["PreArm: Hardware safety switch", "PreArm: GPS glitching", "PreArm: Internal errors 0x100000 l:66 flow_of_ctrl", "PreArm: Hardware safety switch", "PreArm: GPS glitching", "PreArm: Internal errors 0x100000 l:66 flow_of_ctrl"]}
{"timestamp": "2025-12-28T10:55:42.869132Z", "telemetry": {"lat": 28.75317, "lon": 77.1177968, "satellites": 9, "altitude_gps_m": 213.22000122070312, "groundspeed_mps": 0.3439405858516693}, "flight": {"mode": "LOITER", "armed": false}, "ekf": {"attitude": {"roll": -0.03495215252041817, "pitch": -0.007834114134311676, "yaw": 3.0459656715393066}, "local_position": {"x": 11.615378379821777, "y": -7.90028715133667, "z": -4.2924275398254395}, "status": {"flags": 33599, "velocity_variance": 0.31111595034599304, "pos_horiz_variance": 0.023230988532304764, "pos_vert_variance": 0.0005062261479906738}}, "errors": ["PreArm: Hardware safety switch", "PreArm: GPS glitching", "PreArm: Internal errors 0x100000 l:66 flow_of_ctrl", "PreArm: Hardware safety switch", "PreArm: GPS glitching", "PreArm: Internal errors 0x100000 l:66 flow_of_ctrl"]}
{"timestamp": "2025-12-28T10:55:43.868523Z", "telemetry": {"lat": 28.7531677, "lon": 77.1177972, "satellites": 9, "altitude_gps_m": 213.20999145507812, "groundspeed_mps": 0.3196406960487366}, "flight": {"mode": "LOITER", "armed": false}, "ekf": {"attitude": {"roll": -0.03411858156323433, "pitch": -0.009108897298574448, "yaw": 3.046152353286743}, "local_position": {"x": 11.264446258544922, "y": -7.697454452514648, "z": -4.286623001098633}, "status": {"flags": 33599, "velocity_variance": 0.08110948652029037, "pos_horiz_variance": 0.020552298054099083, "pos_vert_variance": 0.08057370036840439}}, "errors": ["PreArm: Hardware safety switch", "PreArm: GPS glitching", "PreArm: Internal errors 0x100000 l:66 flow_of_ctrl", "PreArm: Hardware safety switch", "PreArm: GPS glitching", "PreArm: Internal errors 0x100000 l:66 flow_of_ctrl"]}
{"timestamp": "2025-12-28T10:55:44.867903Z", "telemetry": {"lat": 28.7531678, "lon": 77.1177967, "satellites": 9, "altitude_gps_m": 213.20999145507812, "groundspeed_mps": 0.2935418486595154}, "flight": {"mode": "LOITER", "armed": false}, "ekf": {"attitude": {"roll": -0.033490534871816635, "pitch": -0.008974926546216011, "yaw": 3.0461864471435547}, "local_position": {"x": 11.096424102783203, "y": -7.563109397888184, "z": -4.285768985748291}, "status": {"flags": 33599, "velocity_variance": 0.10514528304338455, "pos_horiz_variance": 0.017865439876914024, "pos_vert_variance": 0.05823438614606857}}, "errors": ["PreArm: Hardware safety switch", "PreArm: GPS glitching", "PreArm: Internal errors 0x100000 l:66 flow_of_ctrl", "PreArm: Hardware safety switch", "PreArm: GPS glitching", "PreArm: Internal errors 0x100000 l:66 flow_of_ctrl"]}
{"timestamp": "2025-12-28T10:55:45.867957Z", "telemetry": {"lat": 28.7531684, "lon": 77.117796, "satellites": 8, "altitude_gps_m": 213.239990234375, "groundspeed_mps": 0.23820611834526062}, "flight": {"mode": "LOITER", "armed": false}, "ekf": {"attitude": {"roll": -0.03248492255806923, "pitch": -0.008884875103831291, "yaw": 3.0463130474090576}, "local_position": {"x": 10.97778606414795, "y": -7.582099914550781, "z": -4.313666343688965}, "status": {"flags": 33599, "velocity_variance": 0.15602178871631622, "pos_horiz_variance": 0.013643421232700348, "pos_vert_variance": 0.006745143793523312}}, "errors": ["PreArm: Hardware safety switch", "PreArm: GPS glitching", "PreArm: Internal errors 0x100000 l:66 flow_of_ctrl", "PreArm: Hardware safety switch", "PreArm: GPS glitching", "PreArm: Internal errors 0x100000 l:66 flow_of_ctrl"]}
{"timestamp": "2025-12-28T10:55:46.868057Z", "telemetry": {"lat": 28.7531643, "lon": 77.117797, "satellites": 8, "altitude_gps_m": 213.3199920654297, "groundspeed_mps": 0.26623475551605225}, "flight": {"mode": "LOITER", "armed": false}, "ekf": {"attitude": {"roll": -0.03195745870471001, "pitch": -0.009749229997396469, "yaw": 3.0464985370635986}, "local_position": {"x": 10.68602466583252, "y": -7.542252540588379, "z": -4.382450103759766}, "status": {"flags": 33599, "velocity_variance": 0.10941624641418457, "pos_horiz_variance": 0.01772698201239109, "pos_vert_variance": 0.0845533162355423}}, "errors": ["PreArm: Hardware safety switch", "PreArm: GPS glitching", "PreArm: Internal errors 0x100000 l:66 flow_of_ctrl", "PreArm: Hardware safety switch", "PreArm: GPS glitching", "PreArm: Internal errors 0x100000 l:66 flow_of_ctrl"]}
{"timestamp": "2025-12-28T10:55:47.867998Z", "telemetry": {"lat": 28.7531572, "lon": 77.1178021, "satellites": 8, "altitude_gps_m": 213.37998962402344, "groundspeed_mps": 0.40198785066604614}, "flight": {"mode": "LOITER", "armed": false}, "ekf": {"attitude": {"roll": -0.0321345217525959, "pitch": -0.011121273040771484, "yaw": 3.0463929176330566}, "local_position": {"x": 9.903407096862793, "y": -7.193575859069824, "z": -4.453799247741699}, "status": {"flags": 33599, "velocity_variance": 0.24233274161815643, "pos_horiz_variance": 0.017060505226254463, "pos_vert_variance": 0.041958894580602646}}, "errors": ["PreArm: Hardware safety switch", "PreArm: GPS glitching", "PreArm: Internal errors 0x100000 l:66 flow_of_ctrl", "PreArm: Hardware safety switch", "PreArm: GPS glitching", "PreArm: Internal errors 0x100000 l:66 flow_of_ctrl"]}
{"timestamp": "2025-12-28T10:55:48.868273Z", "telemetry": {"lat": 28.7531603, "lon": 77.1178024, "satellites": 8, "altitude_gps_m": 213.36000061035156, "groundspeed_mps": 0.33317118883132935}, "flight": {"mode": "LOITER", "armed": false}, "ekf": {"attitude": {"roll": -0.03164142742753029, "pitch": -0.009584153071045876, "yaw": 3.046464204788208}, "local_position": {"x": 9.870615005493164, "y": -7.152316093444824, "z": -4.430009365081787}, "status": {"flags": 33599, "velocity_variance": 0.20948132872581482, "pos_horiz_variance": 0.009616773575544357, "pos_vert_variance": 0.00937872938811779}}, "errors": ["PreArm: Hardware safety switch", "PreArm: GPS glitching", "PreArm: Internal errors 0x100000 l:66 flow_of_ctrl", "PreArm: Hardware safety switch", "PreArm: GPS glitching", "PreArm: Internal errors 0x100000 l:66 flow_of_ctrl"]}
{"timestamp": "2025-12-28T10:55:49.868537Z", "telemetry": {"lat": 28.753156, "lon": 77.1178051, "satellites": 8, "altitude_gps_m": 213.30999755859375, "groundspeed_mps": 0.3167271316051483}, "flight": {"mode": "LOITER", "armed": false}, "ekf": {"attitude": {"roll": -0.03163868561387062, "pitch": -0.00904601439833641, "yaw": 3.0465564727783203}, "local_position": {"x": 9.699993133544922, "y": -7.047637939453125, "z": -4.379750728607178}, "status": {"flags": 33599, "velocity_variance": 0.23542262613773346, "pos_horiz_variance": 0.015295618213713169, "pos_vert_variance": 0.02378101833164692}}, "errors": ["PreArm: Hardware safety switch", "PreArm: GPS glitching", "PreArm: Internal errors 0x100000 l:66 flow_of_ctrl", "PreArm: Hardware safety switch", "PreArm: GPS glitching", "PreArm: Internal errors 0x100000 l:66 flow_of_ctrl"]}
{"timestamp": "2025-12-28T10:55:50.867886Z", "telemetry": {"lat": 28.7531533, "lon": 77.117807, "satellites": 8, "altitude_gps_m": 213.239990234375, "groundspeed_mps": 0.3444775640964508}, "flight": {"mode": "LOITER", "armed": false}, "ekf": {"attitude": {"roll": -0.03166927024722099, "pitch": -0.008233422413468361, "yaw": 3.046156167984009}, "local_position": {"x": 9.238919258117676, "y": -6.852014064788818, "z": -4.327932357788086}, "status": {"flags": 33599, "velocity_variance": 0.47934699058532715, "pos_horiz_variance": 0.012662474066019058, "pos_vert_variance": 0.03551840782165527}}, "errors": ["PreArm: Hardware safety switch", "PreArm: GPS glitching", "PreArm: Internal errors 0x100000 l:66 flow_of_ctrl", "PreArm: Hardware safety switch", "PreArm: GPS glitching", "PreArm: Internal errors 0x100000 l:66 flow_of_ctrl"]}
{"timestamp": "2025-12-28T10:55:51.868355Z", "telemetry": {"lat": 28.7531499, "lon": 77.1178094, "satellites": 9, "altitude_gps_m": 213.22000122070312, "groundspeed_mps": 0.3707091212272644}, "flight": {"mode": "LOITER", "armed": false}, "ekf": {"attitude": {"roll": -0.03161423280835152, "pitch": -0.008583417162299156, "yaw": 3.0462121963500977}, "local_position": {"x": 8.929998397827148, "y": -6.6811723709106445, "z": -4.293148040771484}, "status": {"flags": 33599, "velocity_variance": 0.11538553237915039, "pos_horiz_variance": 0.013904208317399025, "pos_vert_variance": 0.07552318274974823}}, "errors": ["PreArm: Hardware safety switch", "PreArm: GPS glitching", "PreArm: Internal errors 0x100000 l:66 flow_of_ctrl", "PreArm: Hardware safety switch", "PreArm: GPS glitching", "PreArm: Internal errors 0x100000 l:66 flow_of_ctrl"]}
{"timestamp": "2025-12-28T10:55:52.867961Z", "telemetry": {"lat": 28.7531475, "lon": 77.1178136, "satellites": 9, "altitude_gps_m": 213.19000244140625, "groundspeed_mps": 0.43677130341529846}, "flight": {"mode": "LOITER", "armed": false}, "ekf": {"attitude": {"roll": -0.031905706971883774, "pitch": -0.00898377038538456, "yaw": 3.046156167984009}, "local_position": {"x": 8.422945976257324, "y": -6.3768391609191895, "z": -4.269505500793457}, "status": {"flags": 33599, "velocity_variance": 0.19839921593666077, "pos_horiz_variance": 0.010378008708357811, "pos_vert_variance": 0.02913673035800457}}, "errors": ["PreArm: Hardware safety switch", "PreArm: GPS glitching", "PreArm: Internal errors 0x100000 l:66 flow_of_ctrl", "PreArm: Hardware safety switch", "PreArm: GPS glitching", "PreArm: Internal errors 0x100000 l:66 flow_of_ctrl"]}
{"timestamp": "2025-12-28T10:55:53.868155Z", "telemetry": {"lat": 28.7531511, "lon": 77.1178137, "satellites": 9, "altitude_gps_m": 213.29998779296875, "groundspeed_mps": 0.3251825273036957}, "flight": {"mode": "LOITER", "armed": false}, "ekf": {"attitude": {"roll": -0.030658695846796036, "pitch": -0.006622698623687029, "yaw": 3.0462381839752197}, "local_position": {"x": 8.341984748840332, "y": -6.288272857666016, "z": -4.3234148025512695}, "status": {"flags": 33599, "velocity_variance": 0.3151257038116455, "pos_horiz_variance": 0.0056787836365401745, "pos_vert_variance": 0.05108533054590225}}, "errors": ["PreArm: Hardware safety switch", "PreArm: GPS glitching", "PreArm: Internal errors 0x100000 l:66 flow_of_ctrl", "PreArm: Hardware safety switch", "PreArm: GPS glitching", "PreArm: Internal errors 0x100000 l:66 flow_of_ctrl"]}
{"timestamp": "2025-12-28T10:55:54.869269Z", "telemetry": {"lat": 28.7531506, "lon": 77.1178156, "satellites": 9, "altitude_gps_m": 213.4199981689453, "groundspeed_mps": 0.3006921112537384}, "flight": {"mode": "LOITER", "armed": false}, "ekf": {"attitude": {"roll": -0.030141185969114304, "pitch": -0.006591679994016886, "yaw": 3.0462915897369385}, "local_position": {"x": 8.264131546020508, "y": -6.2825140953063965, "z": -4.4953179359436035}, "status": {"flags": 33599, "velocity_variance": 0.11207090318202972, "pos_horiz_variance": 0.008480309508740902, "pos_vert_variance": 0.04266923666000366}}, "errors": ["PreArm: Hardware safety switch", "PreArm: GPS glitching", "PreArm: Internal errors 0x100000 l:66 flow_of_ctrl", "PreArm: Hardware safety switch", "PreArm: GPS glitching", "PreArm: Internal errors 0x100000 l:66 flow_of_ctrl"]}
{"timestamp": "2025-12-28T10:55:55.867971Z", "telemetry": {"lat": 28.7531488, "lon": 77.1178164, "satellites": 9, "altitude_gps_m": 213.52999877929688, "groundspeed_mps": 0.28799644112586975}, "flight": {"mode": "LOITER", "armed": false}, "ekf": {"attitude": {"roll": -0.029503557831048965, "pitch": -0.0061362083069980145, "yaw": 3.0462191104888916}, "local_position": {"x": 8.099825859069824, "y": -6.262077808380127, "z": -4.548416614532471}, "status": {"flags": 33599, "velocity_variance": 0.15636569261550903, "pos_horiz_variance": 0.008427411317825317, "pos_vert_variance": 0.0662107914686203}}, "errors": ["PreArm: Hardware safety switch", "PreArm: GPS glitching", "PreArm: Internal errors 0x100000 l:66 flow_of_ctrl", "PreArm: Hardware safety switch", "PreArm: GPS glitching", "PreArm: Internal errors 0x100000 l:66 flow_of_ctrl"]}
{"timestamp": "2025-12-28T10:55:56.868210Z", "telemetry": {"lat": 28.7531488, "lon": 77.1178134, "satellites": 10, "altitude_gps_m": 213.6199951171875, "groundspeed_mps": 0.270345002412796}, "flight": {"mode": "LOITER", "armed": false}, "ekf": {"attitude": {"roll": -0.02811121568083763, "pitch": -0.00547745218500495, "yaw": 3.0462183952331543}, "local_position": {"x": 7.892683982849121, "y": -6.388111114501953, "z": -4.678959846496582}, "status": {"flags": 33599, "velocity_variance": 0.12675192952156067, "pos_horiz_variance": 0.0075473603792488575, "pos_vert_variance": 0.02275029756128788}}, "errors": ["PreArm: Hardware safety switch", "PreArm: GPS glitching", "PreArm: Internal errors 0x100000 l:66 flow_of_ctrl", "PreArm: Hardware safety switch", "PreArm: GPS glitching", "PreArm: Internal errors 0x100000 l:66 flow_of_ctrl"]}
{"timestamp": "2025-12-28T10:55:57.867978Z", "telemetry": {"lat": 28.7531397, "lon": 77.1178227, "satellites": 10, "altitude_gps_m": 213.55999755859375, "groundspeed_mps": 0.3403463065624237}, "flight": {"mode": "LOITER", "armed": false}, "ekf": {"attitude": {"roll": -0.029752302914857864, "pitch": -0.006727511528879404, "yaw": 3.046168327331543}, "local_position": {"x": 7.368252754211426, "y": -6.132328510284424, "z": -4.636260032653809}, "status": {"flags": 33599, "velocity_variance": 0.16092801094055176, "pos_horiz_variance": 0.017987996339797974, "pos_vert_variance": 0.0781451165676117}}, "errors": ["PreArm: Hardware safety switch", "PreArm: GPS glitching", "PreArm: Internal errors 0x100000 l:66 flow_of_ctrl", "PreArm: Hardware safety switch", "PreArm: GPS glitching", "PreArm: Internal errors 0x100000 l:66 flow_of_ctrl"]}
