{"timestamp": "2025-12-28T11:35:08.399438Z", "telemetry": {"lat": 28.7530628, "lon": 77.1178876, "satellites": 0, "altitude_gps_m": -0.6399999856948853, "groundspeed_mps": 0.10550427436828613}, "flight": {"mode": null, "armed": null}, "ekf": {"attitude": {"roll": 0.05430593341588974, "pitch": 0.07018479704856873, "yaw": -0.3756702244281769}, "local_position": {"x": null, "y": null, "z": null}, "status": {"flags": 135, "velocity_variance": 0.0, "pos_horiz_variance": 0.026075903326272964, "pos_vert_variance": 0.01345568522810936}}, "errors": []}
{"timestamp": "2025-12-28T11:35:09.368282Z", "telemetry": {"lat": 28.7530628, "lon": 77.1178876, "satellites": 0, "altitude_gps_m": -0.6399999856948853, "groundspeed_mps": 0.10497324168682098}, "flight": {"mode": "STABILIZE", "armed": false}, "ekf": {"attitude": {"roll": 0.05430872365832329, "pitch": 0.07010359317064285, "yaw": -0.37560558319091797}, "local_position": {"x": null, "y": null, "z": null}, "status": {"flags": 135, "velocity_variance": 0.0, "pos_horiz_variance": 0.02551058866083622, "pos_vert_variance": 0.10165681689977646}}, "errors": []}
{"timestamp": "2025-12-28T11:35:10.368329Z", "telemetry": {"lat": 28.7530628, "lon": 77.1178876, "satellites": 0, "altitude_gps_m": -0.6399999856948853, "groundspeed_mps": 0.10606253892183304}, "flight": {"mode": "STABILIZE", "armed": false}, "ekf": {"attitude": {"roll": 0.054334431886672974, "pitch": 0.07004543393850327, "yaw": -0.3756883442401886}, "local_position": {"x": null, "y": null, "z": null}, "status": {"flags": 135, "velocity_variance": 0.0, "pos_horiz_variance": 0.025471612811088562, "pos_vert_variance": 0.054694727063179016}}, "errors": []}
{"timestamp": "2025-12-28T11:35:11.367938Z", "telemetry": {"lat": 28.7530628, "lon": 77.1178876, "satellites": 0, "altitude_gps_m": -0.6399999856948853, "groundspeed_mps": 0.10637328773736954}, "flight": {"mode": "STABILIZE", "armed": false}, "ekf": {"attitude": {"roll": 0.05433792620897293, "pitch": 0.07000502943992615, "yaw": -0.37563905119895935}, "local_position": {"x": null, "y": null, "z": null}, "status": {"flags": 135, "velocity_variance": 0.0, "pos_horiz_variance": 0.025591552257537842, "pos_vert_variance": 0.1462986320257187}}, "errors": []}
{"timestamp": "2025-12-28T11:35:12.367973Z", "telemetry": {"lat": 28.7530628, "lon": 77.1178876, "satellites": 0, "altitude_gps_m": -0.6399999856948853, "groundspeed_mps": 0.10704149305820465}, "flight": {"mode": "STABILIZE", "armed": false}, "ekf": {"attitude": {"roll": 0.05424600467085838, "pitch": 0.07004677504301071, "yaw": -0.375501811504364}, "local_position": {"x": null, "y": null, "z": null}, "status": {"flags": 135, "velocity_variance": 0.0, "pos_horiz_variance": 0.025682322680950165, "pos_vert_variance": 0.07923641800880432}}, "errors": []}
{"timestamp": "2025-12-28T11:35:13.368215Z", "telemetry": {"lat": 28.7530628, "lon": 77.1178876, "satellites": 0, "altitude_gps_m": -0.6399999856948853, "groundspeed_mps": 0.10768857598304749}, "flight": {"mode": "STABILIZE", "armed": false}, "ekf": {"attitude": {"roll": 0.05410650372505188, "pitch": 0.0700739175081253, "yaw": -0.37538665533065796}, "local_position": {"x": null, "y": null, "z": null}, "status": {"flags": 135, "velocity_variance": 0.0, "pos_horiz_variance": 0.02587928995490074, "pos_vert_variance": 0.0029559582471847534}}, "errors": []}
{"timestamp": "2025-12-28T11:35:14.368300Z", "telemetry": {"lat": 28.7530628, "lon": 77.1178876, "satellites": 0, "altitude_gps_m": -0.6399999856948853, "groundspeed_mps": 0.10591284185647964}, "flight": {"mode": "STABILIZE", "armed": false}, "ekf": {"attitude": {"roll": 0.05393347516655922, "pitch": 0.07024981081485748, "yaw": -0.37524545192718506}, "local_position": {"x": null, "y": null, "z": null}, "status": {"flags": 135, "velocity_variance": 0.0, "pos_horiz_variance": 0.02596384286880493, "pos_vert_variance": 0.02827664092183113}}, "errors": []}
{"timestamp": "2025-12-28T11:35:15.367853Z", "telemetry": {"lat": 28.7530628, "lon": 77.1178876, "satellites": 0, "altitude_gps_m": -0.6399999856948853, "groundspeed_mps": 0.1059139147400856}, "flight": {"mode": "STABILIZE", "armed": false}, "ekf": {"attitude": {"roll": 0.05378124117851257, "pitch": 0.07028360664844513, "yaw": -0.37530383467674255}, "local_position": {"x": null, "y": null, "z": null}, "status": {"flags": 135, "velocity_variance": 0.0, "pos_horiz_variance": 0.025768248364329338, "pos_vert_variance": 0.026550333946943283}}, "errors": []}
{"timestamp": "2025-12-28T11:35:16.367876Z", "telemetry": {"lat": 28.7530628, "lon": 77.1178876, "satellites": 0, "altitude_gps_m": -0.6399999856948853, "groundspeed_mps": 0.24796517193317413}, "flight": {"mode": "STABILIZE", "armed": false}, "ekf": {"attitude": {"roll": 0.03135450929403305, "pitch": 0.06274949014186859, "yaw": -0.42346686124801636}, "local_position": {"x": null, "y": null, "z": null}, "status": {"flags": 135, "velocity_variance": 0.0, "pos_horiz_variance": 0.024961750954389572, "pos_vert_variance": 0.012833275832235813}}, "errors": []}
{"timestamp": "2025-12-28T11:35:17.367961Z", "telemetry": {"lat": 28.7530628, "lon": 77.1178876, "satellites": 0, "altitude_gps_m": -0.6399999856948853, "groundspeed_mps": 0.6027444005012512}, "flight": {"mode": "STABILIZE", "armed": false}, "ekf": {"attitude": {"roll": -0.08587461709976196, "pitch": -0.0815245732665062, "yaw": 0.052587635815143585}, "local_position": {"x": null, "y": null, "z": null}, "status": {"flags": 135, "velocity_variance": 0.0, "pos_horiz_variance": 0.10185325145721436, "pos_vert_variance": 0.09993252903223038}}, "errors": []}
{"timestamp": "2025-12-28T11:35:18.368235Z", "telemetry": {"lat": 28.7530628, "lon": 77.1178876, "satellites": 0, "altitude_gps_m": -0.6399999856948853, "groundspeed_mps": 0.5469476580619812}, "flight": {"mode": "STABILIZE", "armed": false}, "ekf": {"attitude": {"roll": -0.03853743150830269, "pitch": -0.09862924367189407, "yaw": 1.022932529449463}, "local_position": {"x": null, "y": null, "z": null}, "status": {"flags": 135, "velocity_variance": 0.0, "pos_horiz_variance": 0.10578513145446777, "pos_vert_variance": 0.016206903383135796}}, "errors": []}
{"timestamp": "2025-12-28T11:35:19.368010Z", "telemetry": {"lat": 28.7530628, "lon": 77.1178876, "satellites": 0, "altitude_gps_m": -0.6399999856948853, "groundspeed_mps": 0.4688306152820587}, "flight": {"mode": "STABILIZE", "armed": false}, "ekf": {"attitude": {"roll": -0.11787261068820953, "pitch": -0.14147616922855377, "yaw": 1.141089916229248}, "local_position": {"x": null, "y": null, "z": null}, "status": {"flags": 135, "velocity_variance": 0.0, "pos_horiz_variance": 0.10466413199901581, "pos_vert_variance": 0.025712542235851288}}, "errors": []}
{"timestamp": "2025-12-28T11:35:20.368459Z", "telemetry": {"lat": 28.7530628, "lon": 77.1178876, "satellites": 0, "altitude_gps_m": -0.6399999856948853, "groundspeed_mps": 0.26528874039649963}, "flight": {"mode": "STABILIZE", "armed": false}, "ekf": {"attitude": {"roll": -0.15414534509181976, "pitch": -0.03172990679740906, "yaw": 1.0305891036987305}, "local_position": {"x": null, "y": null, "z": null}, "status": {"flags": 135, "velocity_variance": 0.0, "pos_horiz_variance": 0.07950565218925476, "pos_vert_variance": 0.053488265722990036}}, "errors": []}
{"timestamp": "2025-12-28T11:35:21.368281Z", "telemetry": {"lat": 28.7530628, "lon": 77.1178876, "satellites": 0, "altitude_gps_m": -0.6399999856948853, "groundspeed_mps": 0.3350849747657776}, "flight": {"mode": "STABILIZE", "armed": false}, "ekf": {"attitude": {"roll": -0.22595739364624023, "pitch": -0.038595058023929596, "yaw": 1.1569077968597412}, "local_position": {"x": null, "y": null, "z": null}, "status": {"flags": 135, "velocity_variance": 0.0, "pos_horiz_variance": 0.02137707732617855, "pos_vert_variance": 0.1588284820318222}}, "errors": []}
{"timestamp": "2025-12-28T11:35:22.368362Z", "telemetry": {"lat": 28.7530628, "lon": 77.1178876, "satellites": 0, "altitude_gps_m": -0.6399999856948853, "groundspeed_mps": 0.8350732326507568}, "flight": {"mode": "STABILIZE", "armed": false}, "ekf": {"attitude": {"roll": -0.16161906719207764, "pitch": -0.07069908827543259, "yaw": 0.7169699668884277}, "local_position": {"x": null, "y": null, "z": null}, "status": {"flags": 135, "velocity_variance": 0.0, "pos_horiz_variance": 0.07234258204698563, "pos_vert_variance": 0.0011291072005406022}}, "errors": []}
{"timestamp": "2025-12-28T11:35:23.367871Z", "telemetry": {"lat": 28.7530628, "lon": 77.1178876, "satellites": 0, "altitude_gps_m": -0.6399999856948853, "groundspeed_mps": 1.5529955625534058}, "flight": {"mode": "STABILIZE", "armed": false}, "ekf": {"attitude": {"roll": -0.0547107569873333, "pitch": -0.16452547907829285, "yaw": 0.7907240986824036}, "local_position": {"x": null, "y": null, "z": null}, "status": {"flags": 135, "velocity_variance": 0.0, "pos_horiz_variance": 0.19649086892604828, "pos_vert_variance": 0.005869869142770767}}, "errors": []}
{"timestamp": "2025-12-28T11:35:24.368047Z", "telemetry": {"lat": 28.7530628, "lon": 77.1178876, "satellites": 0, "altitude_gps_m": -0.6399999856948853, "groundspeed_mps": 1.4388827085494995}, "flight": {"mode": "STABILIZE", "armed": false}, "ekf": {"attitude": {"roll": -0.02674299106001854, "pitch": 0.12660522758960724, "yaw": 0.5743581056594849}, "local_position": {"x": null, "y": null, "z": null}, "status": {"flags": 1024, "velocity_variance": 0.0, "pos_horiz_variance": 0.27312344312667847, "pos_vert_variance": 0.03375536948442459}}, "errors": []}
{"timestamp": "2025-12-28T11:35:25.368575Z", "telemetry": {"lat": 28.7530628, "lon": 77.1178876, "satellites": 0, "altitude_gps_m": -0.6399999856948853, "groundspeed_mps": 0.4637643098831177}, "flight": {"mode": "STABILIZE", "armed": false}, "ekf": {"attitude": {"roll": 0.06903620809316635, "pitch": 0.05509307235479355, "yaw": 0.8377906680107117}, "local_position": {"x": null, "y": null, "z": null}, "status": {"flags": 135, "velocity_variance": 0.0, "pos_horiz_variance": 0.21698667109012604, "pos_vert_variance": 0.05349067226052284}}, "errors": []}
{"timestamp": "2025-12-28T11:35:26.367997Z", "telemetry": {"lat": 28.7530628, "lon": 77.1178876, "satellites": 0, "altitude_gps_m": -0.6399999856948853, "groundspeed_mps": 0.15013408660888672}, "flight": {"mode": "STABILIZE", "armed": false}, "ekf": {"attitude": {"roll": -0.0052503421902656555, "pitch": 0.008162854239344597, "yaw": 0.703170120716095}, "local_position": {"x": null, "y": null, "z": null}, "status": {"flags": 135, "velocity_variance": 0.0, "pos_horiz_variance": 0.1135517880320549, "pos_vert_variance": 0.04900827258825302}}, "errors": []}
{"timestamp": "2025-12-28T11:35:27.368351Z", "telemetry": {"lat": 28.7530628, "lon": 77.1178876, "satellites": 0, "altitude_gps_m": -0.6399999856948853, "groundspeed_mps": 0.48687824606895447}, "flight": {"mode": "STABILIZE", "armed": false}, "ekf": {"attitude": {"roll": 0.05439017713069916, "pitch": 0.01856929436326027, "yaw": 0.7173421382904053}, "local_position": {"x": null, "y": null, "z": null}, "status": {"flags": 135, "velocity_variance": 0.0, "pos_horiz_variance": 0.013334968127310276, "pos_vert_variance": 0.005740695632994175}}, "errors": []}
{"timestamp": "2025-12-28T11:35:28.368601Z", "telemetry": {"lat": 28.7530628, "lon": 77.1178876, "satellites": 0, "altitude_gps_m": -0.6399999856948853, "groundspeed_mps": 0.5860376358032227}, "flight": {"mode": "STABILIZE", "armed": false}, "ekf": {"attitude": {"roll": 0.05332067981362343, "pitch": 0.016134746372699738, "yaw": 0.7296816110610962}, "local_position": {"x": null, "y": null, "z": null}, "status": {"flags": 135, "velocity_variance": 0.0, "pos_horiz_variance": 0.07347135990858078, "pos_vert_variance": 0.01917434111237526}}, "errors": []}
{"timestamp": "2025-12-28T11:35:29.368816Z", "telemetry": {"lat": 28.7530628, "lon": 77.1178876, "satellites": 0, "altitude_gps_m": -0.6399999856948853, "groundspeed_mps": 0.5449710488319397}, "flight": {"mode": "STABILIZE", "armed": false}, "ekf": {"attitude": {"roll": 0.049153827130794525, "pitch": 0.014570716768503189, "yaw": 0.7417078018188477}, "local_position": {"x": null, "y": null, "z": null}, "status": {"flags": 135, "velocity_variance": 0.0, "pos_horiz_variance": 0.10659072548151016, "pos_vert_variance": 0.004843882750719786}}, "errors": ["PreArm: Hardware safety switch"]}
{"timestamp": "2025-12-28T11:35:30.368474Z", "telemetry": {"lat": 28.7530628, "lon": 77.1178876, "satellites": 0, "altitude_gps_m": -0.6399999856948853, "groundspeed_mps": 0.44099748134613037}, "flight": {"mode": "STABILIZE", "armed": false}, "ekf": {"attitude": {"roll": 0.043988149613142014, "pitch": 0.013548741117119789, "yaw": 0.7527139782905579}, "local_position": {"x": null, "y": null, "z": null}, "status": {"flags": 135, "velocity_variance": 0.0, "pos_horiz_variance": 0.10997036099433899, "pos_vert_variance": 0.029328100383281708}}, "errors": ["PreArm: Hardware safety switch"]}
{"timestamp": "2025-12-28T11:35:31.368493Z", "telemetry": {"lat": 28.7530628, "lon": 77.1178876, "satellites": 0, "altitude_gps_m": -0.6399999856948853, "groundspeed_mps": 0.322376012802124}, "flight": {"mode": "STABILIZE", "armed": false}, "ekf": {"attitude": {"roll": 0.03899284079670906, "pitch": 0.013129713013768196, "yaw": 0.762869119644165}, "local_position": {"x": null, "y": null, "z": null}, "status": {"flags": 135, "velocity_variance": 0.0, "pos_horiz_variance": 0.09629017114639282, "pos_vert_variance": 0.017413852736353874}}, "errors": ["PreArm: Hardware safety switch"]}
{"timestamp": "2025-12-28T11:35:32.367951Z", "telemetry": {"lat": 28.7530628, "lon": 77.1178876, "satellites": 0, "altitude_gps_m": -0.6399999856948853, "groundspeed_mps": 0.23254047334194183}, "flight": {"mode": "STABILIZE", "armed": false}, "ekf": {"attitude": {"roll": 0.03511641547083855, "pitch": 0.01297949068248272, "yaw": 0.771914005279541}, "local_position": {"x": null, "y": null, "z": null}, "status": {"flags": 135, "velocity_variance": 0.0, "pos_horiz_variance": 0.07618054002523422, "pos_vert_variance": 0.056995127350091934}}, "errors": ["PreArm: Hardware safety switch"]}
{"timestamp": "2025-12-28T11:35:33.371497Z", "telemetry": {"lat": 28.7530628, "lon": 77.1178876, "satellites": 0, "altitude_gps_m": -0.6399999856948853, "groundspeed_mps": 0.18684637546539307}, "flight": {"mode": "STABILIZE", "armed": false}, "ekf": {"attitude": {"roll": 0.032399170100688934, "pitch": 0.01314849965274334, "yaw": 0.7800580859184265}, "local_position": {"x": null, "y": null, "z": null}, "status": {"flags": 135, "velocity_variance": 0.0, "pos_horiz_variance": 0.058345381170511246, "pos_vert_variance": 0.022022593766450882}}, "errors": ["PreArm: Hardware safety switch"]}
{"timestamp": "2025-12-28T11:35:34.368894Z", "telemetry": {"lat": 28.7530628, "lon": 77.1178876, "satellites": 0, "altitude_gps_m": -0.6399999856948853, "groundspeed_mps": 0.17313961684703827}, "flight": {"mode": "STABILIZE", "armed": false}, "ekf": {"attitude": {"roll": 0.03066939115524292, "pitch": 0.013497766107320786, "yaw": 0.787004828453064}, "local_position": {"x": null, "y": null, "z": null}, "status": {"flags": 135, "velocity_variance": 0.0, "pos_horiz_variance": 0.04676598310470581, "pos_vert_variance": 0.0425347164273262}}, "errors": ["PreArm: Hardware safety switch"]}
{"timestamp": "2025-12-28T11:35:35.368525Z", "telemetry": {"lat": 28.7530628, "lon": 77.1178876, "satellites": 0, "altitude_gps_m": -0.6399999856948853, "groundspeed_mps": 0.16972528398036957}, "flight": {"mode": "STABILIZE", "armed": false}, "ekf": {"attitude": {"roll": 0.029741909354925156, "pitch": 0.013959275558590889, "yaw": 0.7934873104095459}, "local_position": {"x": null, "y": null, "z": null}, "status": {"flags": 135, "velocity_variance": 0.0, "pos_horiz_variance": 0.04140309989452362, "pos_vert_variance": 0.016064440831542015}}, "errors": ["PreArm: Hardware safety switch"]}
{"timestamp": "2025-12-28T11:35:36.372523Z", "telemetry": {"lat": 28.7530628, "lon": 77.1178876, "satellites": 0, "altitude_gps_m": -0.6399999856948853, "groundspeed_mps": 0.160761758685112}, "flight": {"mode": "STABILIZE", "armed": false}, "ekf": {"attitude": {"roll": 0.029591359198093414, "pitch": 0.014464527368545532, "yaw": 0.7995287179946899}, "local_position": {"x": null, "y": null, "z": null}, "status": {"flags": 135, "velocity_variance": 0.0, "pos_horiz_variance": 0.03954237699508667, "pos_vert_variance": 0.003294618334621191}}, "errors": ["PreArm: Hardware safety switch"]}
{"timestamp": "2025-12-28T11:35:37.367910Z", "telemetry": {"lat": 28.7530628, "lon": 77.1178876, "satellites": 0, "altitude_gps_m": -0.6399999856948853, "groundspeed_mps": 0.147083580493927}, "flight": {"mode": "STABILIZE", "armed": false}, "ekf": {"attitude": {"roll": 0.029689233750104904, "pitch": 0.014967456459999084, "yaw": 0.8053176999092102}, "local_position": {"x": null, "y": null, "z": null}, "status": {"flags": 135, "velocity_variance": 0.0, "pos_horiz_variance": 0.03779350221157074, "pos_vert_variance": 0.021857142448425293}}, "errors": ["PreArm: Hardware safety switch"]}
{"timestamp": "2025-12-28T11:35:38.368358Z", "telemetry": {"lat": 28.7530628, "lon": 77.1178876, "satellites": 0, "altitude_gps_m": -0.6399999856948853, "groundspeed_mps": 0.13435089588165283}, "flight": {"mode": "STABILIZE", "armed": false}, "ekf": {"attitude": {"roll": 0.029857512563467026, "pitch": 0.015345888212323189, "yaw": 0.8110517263412476}, "local_position": {"x": null, "y": null, "z": null}, "status": {"flags": 135, "velocity_variance": 0.0, "pos_horiz_variance": 0.03551353141665459, "pos_vert_variance": 0.0014136085519567132}}, "errors": ["PreArm: Hardware safety switch"]}
{"timestamp": "2025-12-28T11:35:39.368257Z", "telemetry": {"lat": 28.7530628, "lon": 77.1178876, "satellites": 0, "altitude_gps_m": -0.6399999856948853, "groundspeed_mps": 0.11957686394453049}, "flight": {"mode": "STABILIZE", "armed": false}, "ekf": {"attitude": {"roll": 0.030078919604420662, "pitch": 0.015705058351159096, "yaw": 0.8169470429420471}, "local_position": {"x": null, "y": null, "z": null}, "status": {"flags": 135, "velocity_variance": 0.0, "pos_horiz_variance": 0.033028487116098404, "pos_vert_variance": 0.0368143692612648}}, "errors": ["PreArm: Hardware safety switch"]}
{"timestamp": "2025-12-28T11:35:40.368988Z", "telemetry": {"lat": 28.7530628, "lon": 77.1178876, "satellites": 0, "altitude_gps_m": -0.6399999856948853, "groundspeed_mps": 0.10972817242145538}, "flight": {"mode": "STABILIZE", "armed": false}, "ekf": {"attitude": {"roll": 0.030301498249173164, "pitch": 0.015971200540661812, "yaw": 0.8227043747901917}, "local_position": {"x": null, "y": null, "z": null}, "status": {"flags": 135, "velocity_variance": 0.0, "pos_horiz_variance": 0.030193451792001724, "pos_vert_variance": 0.030978059396147728}}, "errors": ["PreArm: Hardware safety switch"]}
{"timestamp": "2025-12-28T11:35:41.368947Z", "telemetry": {"lat": 28.7530628, "lon": 77.1178876, "satellites": 0, "altitude_gps_m": -0.6399999856948853, "groundspeed_mps": 0.10075148940086365}, "flight": {"mode": "STABILIZE", "armed": false}, "ekf": {"attitude": {"roll": 0.030400648713111877, "pitch": 0.016328128054738045, "yaw": 0.8284913301467896}, "local_position": {"x": null, "y": null, "z": null}, "status": {"flags": 135, "velocity_variance": 0.0, "pos_horiz_variance": 0.027932602912187576, "pos_vert_variance": 0.01545913890004158}}, "errors": ["PreArm: Hardware safety switch"]}
{"timestamp": "2025-12-28T11:35:42.368251Z", "telemetry": {"lat": 28.7530628, "lon": 77.1178876, "satellites": 0, "altitude_gps_m": -0.6399999856948853, "groundspeed_mps": 0.09268911927938461}, "flight": {"mode": "STABILIZE", "armed": false}, "ekf": {"attitude": {"roll": 0.030585650354623795, "pitch": 0.016647350043058395, "yaw": 0.8343774080276489}, "local_position": {"x": null, "y": null, "z": null}, "status": {"flags": 135, "velocity_variance": 0.0, "pos_horiz_variance": 0.02564353123307228, "pos_vert_variance": 0.08445233106613159}}, "errors": ["PreArm: Hardware safety switch"]}
{"timestamp": "2025-12-28T11:35:43.368085Z", "telemetry": {"lat": 28.7530628, "lon": 77.1178876, "satellites": 0, "altitude_gps_m": -0.6399999856948853, "groundspeed_mps": 0.0888170599937439}, "flight": {"mode": "STABILIZE", "armed": false}, "ekf": {"attitude": {"roll": 0.03062308393418789, "pitch": 0.016709357500076294, "yaw": 0.8400038480758667}, "local_position": {"x": null, "y": null, "z": null}, "status": {"flags": 135, "velocity_variance": 0.0, "pos_horiz_variance": 0.023925790563225746, "pos_vert_variance": 0.007800597231835127}}, "errors": ["PreArm: Hardware safety switch"]}
{"timestamp": "2025-12-28T11:35:44.368133Z", "telemetry": {"lat": 28.7530628, "lon": 77.1178876, "satellites": 0, "altitude_gps_m": -0.6399999856948853, "groundspeed_mps": 0.08739963173866272}, "flight": {"mode": "STABILIZE", "armed": false}, "ekf": {"attitude": {"roll": 0.03071800246834755, "pitch": 0.0166220311075449, "yaw": 0.8455981612205505}, "local_position": {"x": null, "y": null, "z": null}, "status": {"flags": 135, "velocity_variance": 0.0, "pos_horiz_variance": 0.022744040936231613, "pos_vert_variance": 0.005283864215016365}}, "errors": ["PreArm: Hardware safety switch"]}
{"timestamp": "2025-12-28T11:35:45.368075Z", "telemetry": {"lat": 28.7530628, "lon": 77.1178876, "satellites": 0, "altitude_gps_m": -0.6399999856948853, "groundspeed_mps": 0.08830597996711731}, "flight": {"mode": "STABILIZE", "armed": false}, "ekf": {"attitude": {"roll": 0.03058789297938347, "pitch": 0.016586333513259888, "yaw": 0.8510664701461792}, "local_position": {"x": null, "y": null, "z": null}, "status": {"flags": 135, "velocity_variance": 0.0, "pos_horiz_variance": 0.022055501118302345, "pos_vert_variance": 0.07346250861883163}}, "errors": ["PreArm: Hardware safety switch"]}
{"timestamp": "2025-12-28T11:35:46.368132Z", "telemetry": {"lat": 28.7530628, "lon": 77.1178876, "satellites": 0, "altitude_gps_m": -0.6399999856948853, "groundspeed_mps": 0.08949746936559677}, "flight": {"mode": "STABILIZE", "armed": false}, "ekf": {"attitude": {"roll": 0.030645810067653656, "pitch": 0.016487371176481247, "yaw": 0.8561473488807678}, "local_position": {"x": null, "y": null, "z": null}, "status": {"flags": 135, "velocity_variance": 0.0, "pos_horiz_variance": 0.022038191556930542, "pos_vert_variance": 0.07779073715209961}}, "errors": ["PreArm: Hardware safety switch"]}
{"timestamp": "2025-12-28T11:35:47.368110Z", "telemetry": {"lat": 28.7530628, "lon": 77.1178876, "satellites": 0, "altitude_gps_m": -0.6399999856948853, "groundspeed_mps": 0.09100969135761261}, "flight": {"mode": "STABILIZE", "armed": false}, "ekf": {"attitude": {"roll": 0.030770614743232727, "pitch": 0.016463711857795715, "yaw": 0.8609389662742615}, "local_position": {"x": null, "y": null, "z": null}, "status": {"flags": 135, "velocity_variance": 0.0, "pos_horiz_variance": 0.022215094417333603, "pos_vert_variance": 0.14811639487743378}}, "errors": ["PreArm: Hardware safety switch"]}
{"timestamp": "2025-12-28T11:35:48.368445Z", "telemetry": {"lat": 28.7530628, "lon": 77.1178876, "satellites": 0, "altitude_gps_m": -0.6399999856948853, "groundspeed_mps": 0.09333719313144684}, "flight": {"mode": "STABILIZE", "armed": false}, "ekf": {"attitude": {"roll": 0.030756991356611252, "pitch": 0.016470061615109444, "yaw": 0.8656112551689148}, "local_position": {"x": null, "y": null, "z": null}, "status": {"flags": 135, "velocity_variance": 0.0, "pos_horiz_variance": 0.022499751299619675, "pos_vert_variance": 0.06185131520032883}}, "errors": ["PreArm: Hardware safety switch"]}
{"timestamp": "2025-12-28T11:35:49.368471Z", "telemetry": {"lat": 28.7530628, "lon": 77.1178876, "satellites": 0, "altitude_gps_m": -0.6399999856948853, "groundspeed_mps": 0.0942893847823143}, "flight": {"mode": "STABILIZE", "armed": false}, "ekf": {"attitude": {"roll": 0.030709203332662582, "pitch": 0.016452141106128693, "yaw": 0.8698558807373047}, "local_position": {"x": null, "y": null, "z": null}, "status": {"flags": 135, "velocity_variance": 0.0, "pos_horiz_variance": 0.022735219448804855, "pos_vert_variance": 0.012394862249493599}}, "errors": ["PreArm: Hardware safety switch"]}
{"timestamp": "2025-12-28T11:35:50.368502Z", "telemetry": {"lat": 28.7530628, "lon": 77.1178876, "satellites": 0, "altitude_gps_m": -0.6399999856948853, "groundspeed_mps": 0.09473294019699097}, "flight": {"mode": "STABILIZE", "armed": false}, "ekf": {"attitude": {"roll": 0.030697830021381378, "pitch": 0.016530286520719528, "yaw": 0.8741706013679504}, "local_position": {"x": null, "y": null, "z": null}, "status": {"flags": 135, "velocity_variance": 0.0, "pos_horiz_variance": 0.02308104746043682, "pos_vert_variance": 0.01012971717864275}}, "errors": ["PreArm: Hardware safety switch"]}
{"timestamp": "2025-12-28T11:35:51.368203Z", "telemetry": {"lat": 28.7530628, "lon": 77.1178876, "satellites": 0, "altitude_gps_m": -0.6399999856948853, "groundspeed_mps": 0.09166033565998077}, "flight": {"mode": "STABILIZE", "armed": false}, "ekf": {"attitude": {"roll": 0.030602242797613144, "pitch": 0.0167562086135149, "yaw": 0.8781156539916992}, "local_position": {"x": null, "y": null, "z": null}, "status": {"flags": 135, "velocity_variance": 0.0, "pos_horiz_variance": 0.022794870659708977, "pos_vert_variance": 0.022076454013586044}}, "errors": ["PreArm: Hardware safety switch"]}
{"timestamp": "2025-12-28T11:35:52.368048Z", "telemetry": {"lat": 28.7530628, "lon": 77.1178876, "satellites": 0, "altitude_gps_m": -0.6399999856948853, "groundspeed_mps": 0.08608537912368774}, "flight": {"mode": "STABILIZE", "armed": false}, "ekf": {"attitude": {"roll": 0.03047037497162819, "pitch": 0.016935981810092926, "yaw": 0.8818811178207397}, "local_position": {"x": null, "y": null, "z": null}, "status": {"flags": 135, "velocity_variance": 0.0, "pos_horiz_variance": 0.022001812234520912, "pos_vert_variance": 0.06135145202279091}}, "errors": ["PreArm: Hardware safety switch"]}
{"timestamp": "2025-12-28T11:35:53.368107Z", "telemetry": {"lat": 28.7530628, "lon": 77.1178876, "satellites": 0, "altitude_gps_m": -0.6399999856948853, "groundspeed_mps": 0.056463584303855896}, "flight": {"mode": "STABILIZE", "armed": false}, "ekf": {"attitude": {"roll": 0.05262432247400284, "pitch": -0.0026517552323639393, "yaw": 0.8888513445854187}, "local_position": {"x": null, "y": null, "z": null}, "status": {"flags": 135, "velocity_variance": 0.0, "pos_horiz_variance": 0.02145766094326973, "pos_vert_variance": 0.06372803449630737}}, "errors": ["PreArm: Hardware safety switch"]}
{"timestamp": "2025-12-28T11:35:54.367923Z", "telemetry": {"lat": 28.7530628, "lon": 77.1178876, "satellites": 0, "altitude_gps_m": -0.6399999856948853, "groundspeed_mps": 0.1509910374879837}, "flight": {"mode": "STABILIZE", "armed": false}, "ekf": {"attitude": {"roll": -0.13698126375675201, "pitch": -0.07539515942335129, "yaw": 1.1566576957702637}, "local_position": {"x": null, "y": null, "z": null}, "status": {"flags": 135, "velocity_variance": 0.0, "pos_horiz_variance": 0.014457323588430882, "pos_vert_variance": 0.03097148984670639}}, "errors": ["PreArm: Hardware safety switch"]}
{"timestamp": "2025-12-28T11:35:55.368164Z", "telemetry": {"lat": 28.7530628, "lon": 77.1178876, "satellites": 0, "altitude_gps_m": -0.6399999856948853, "groundspeed_mps": 0.7799739241600037}, "flight": {"mode": "STABILIZE", "armed": false}, "ekf": {"attitude": {"roll": -0.059156421571969986, "pitch": -0.07127602398395538, "yaw": 1.5944987535476685}, "local_position": {"x": null, "y": null, "z": null}, "status": {"flags": 135, "velocity_variance": 0.0, "pos_horiz_variance": 0.028547635301947594, "pos_vert_variance": 0.027213074266910553}}, "errors": ["PreArm: Hardware safety switch"]}
{"timestamp": "2025-12-28T11:35:56.367987Z", "telemetry": {"lat": 28.7530628, "lon": 77.1178876, "satellites": 0, "altitude_gps_m": -0.6399999856948853, "groundspeed_mps": 0.7733626961708069}, "flight": {"mode": "STABILIZE", "armed": false}, "ekf": {"attitude": {"roll": -0.146767720580101, "pitch": -0.00047882040962576866, "yaw": 1.3002598285675049}, "local_position": {"x": null, "y": null, "z": null}, "status": {"flags": 135, "velocity_variance": 0.0, "pos_horiz_variance": 0.13455592095851898, "pos_vert_variance": 0.019798709079623222}}, "errors": ["PreArm: Hardware safety switch"]}
{"timestamp": "2025-12-28T11:35:57.368805Z", "telemetry": {"lat": 28.7530628, "lon": 77.1178876, "satellites": 0, "altitude_gps_m": -0.6399999856948853, "groundspeed_mps": 0.9312704801559448}, "flight": {"mode": "STABILIZE", "armed": false}, "ekf": {"attitude": {"roll": -0.2002965211868286, "pitch": -0.07085126638412476, "yaw": 1.315165638923645}, "local_position": {"x": null, "y": null, "z": null}, "status": {"flags": 135, "velocity_variance": 0.0, "pos_horiz_variance": 0.1623390167951584, "pos_vert_variance": 0.018104666844010353}}, "errors": ["PreArm: Hardware safety switch"]}
{"timestamp": "2025-12-28T11:35:58.368272Z", "telemetry": {"lat": 28.7530628, "lon": 77.1178876, "satellites": 0, "altitude_gps_m": -0.6399999856948853, "groundspeed_mps": 0.36341115832328796}, "flight": {"mode": "STABILIZE", "armed": false}, "ekf": {"attitude": {"roll": -0.27189528942108154, "pitch": -0.06870079040527344, "yaw": 1.1278717517852783}, "local_position": {"x": null, "y": null, "z": null}, "status": {"flags": 135, "velocity_variance": 0.0, "pos_horiz_variance": 0.15981826186180115, "pos_vert_variance": 0.016841689124703407}}, "errors": ["PreArm: Hardware safety switch"]}
{"timestamp": "2025-12-28T11:35:59.368838Z", "telemetry": {"lat": 28.7530628, "lon": 77.1178876, "satellites": 0, "altitude_gps_m": -0.6399999856948853, "groundspeed_mps": 0.6629666686058044}, "flight": {"mode": "STABILIZE", "armed": false}, "ekf": {"attitude": {"roll": -0.3498569428920746, "pitch": -0.14710365235805511, "yaw": 0.8307738900184631}, "local_position": {"x": null, "y": null, "z": null}, "status": {"flags": 135, "velocity_variance": 0.0, "pos_horiz_variance": 0.06966117769479752, "pos_vert_variance": 0.0069727045483887196}}, "errors": ["PreArm: Hardware safety switch"]}
{"timestamp": "2025-12-28T11:36:00.368507Z", "telemetry": {"lat": 28.7530628, "lon": 77.1178876, "satellites": 0, "altitude_gps_m": -0.6399999856948853, "groundspeed_mps": 1.174811601638794}, "flight": {"mode": "STABILIZE", "armed": false}, "ekf": {"attitude": {"roll": -0.26805174350738525, "pitch": -0.02558203972876072, "yaw": 0.7426043748855591}, "local_position": {"x": null, "y": null, "z": null}, "status": {"flags": 135, "velocity_variance": 0.0, "pos_horiz_variance": 0.17052032053470612, "pos_vert_variance": 0.019199036061763763}}, "errors": ["PreArm: Hardware safety switch", "PreArm: Hardware safety switch"]}
{"timestamp": "2025-12-28T11:36:01.368266Z", "telemetry": {"lat": 28.7530628, "lon": 77.1178876, "satellites": 0, "altitude_gps_m": -0.6399999856948853, "groundspeed_mps": 1.431389570236206}, "flight": {"mode": "STABILIZE", "armed": false}, "ekf": {"attitude": {"roll": -0.260029673576355, "pitch": 0.014294171705842018, "yaw": 0.22979409992694855}, "local_position": {"x": null, "y": null, "z": null}, "status": {"flags": 135, "velocity_variance": 0.0, "pos_horiz_variance": 0.19155114889144897, "pos_vert_variance": 0.036919306963682175}}, "errors": ["PreArm: Hardware safety switch", "PreArm: Hardware safety switch"]}
{"timestamp": "2025-12-28T11:36:02.368317Z", "telemetry": {"lat": 28.7530628, "lon": 77.1178876, "satellites": 0, "altitude_gps_m": -0.6399999856948853, "groundspeed_mps": 0.8834929466247559}, "flight": {"mode": "STABILIZE", "armed": false}, "ekf": {"attitude": {"roll": -0.028403233736753464, "pitch": 0.08466047048568726, "yaw": -0.10250682383775711}, "local_position": {"x": null, "y": null, "z": null}, "status": {"flags": 135, "velocity_variance": 0.0, "pos_horiz_variance": 0.26435235142707825, "pos_vert_variance": 0.021121902391314507}}, "errors": ["PreArm: Hardware safety switch", "PreArm: Hardware safety switch"]}
{"timestamp": "2025-12-28T11:36:03.368791Z", "telemetry": {"lat": 28.7530628, "lon": 77.1178876, "satellites": 0, "altitude_gps_m": -0.6399999856948853, "groundspeed_mps": 0.7975229620933533}, "flight": {"mode": "STABILIZE", "armed": false}, "ekf": {"attitude": {"roll": 0.2989477217197418, "pitch": 0.30925238132476807, "yaw": -0.06146935746073723}, "local_position": {"x": null, "y": null, "z": null}, "status": {"flags": 135, "velocity_variance": 0.0, "pos_horiz_variance": 0.22336755692958832, "pos_vert_variance": 0.06551454961299896}}, "errors": ["PreArm: Hardware safety switch", "PreArm: Hardware safety switch"]}
{"timestamp": "2025-12-28T11:36:04.368680Z", "telemetry": {"lat": 28.7530791, "lon": 77.1179054, "satellites": 8, "altitude_gps_m": 204.7899932861328, "groundspeed_mps": 0.5518754124641418}, "flight": {"mode": "STABILIZE", "armed": false}, "ekf": {"attitude": {"roll": 0.33192259073257446, "pitch": 0.31989336013793945, "yaw": -0.09786029905080795}, "local_position": {"x": null, "y": null, "z": null}, "status": {"flags": 1024, "velocity_variance": 0.0, "pos_horiz_variance": 0.2685392200946808, "pos_vert_variance": 0.024965830147266388}}, "errors": ["PreArm: Hardware safety switch", "PreArm: Hardware safety switch"]}
{"timestamp": "2025-12-28T11:36:05.368699Z", "telemetry": {"lat": 28.7530634, "lon": 77.1179059, "satellites": 9, "altitude_gps_m": 204.6999969482422, "groundspeed_mps": 0.1988721489906311}, "flight": {"mode": "STABILIZE", "armed": false}, "ekf": {"attitude": {"roll": 0.5694800019264221, "pitch": 0.2895808815956116, "yaw": 0.3138374090194702}, "local_position": {"x": null, "y": null, "z": null}, "status": {"flags": 135, "velocity_variance": 0.0, "pos_horiz_variance": 0.24270538985729218, "pos_vert_variance": 0.006949224043637514}}, "errors": ["PreArm: Hardware safety switch", "PreArm: Hardware safety switch"]}
{"timestamp": "2025-12-28T11:36:06.368334Z", "telemetry": {"lat": 28.7530709, "lon": 77.1179016, "satellites": 9, "altitude_gps_m": 205.63999938964844, "groundspeed_mps": 0.2559311091899872}, "flight": {"mode": "STABILIZE", "armed": false}, "ekf": {"attitude": {"roll": 0.6468461155891418, "pitch": 0.1726781725883484, "yaw": 0.36432239413261414}, "local_position": {"x": null, "y": null, "z": null}, "status": {"flags": 135, "velocity_variance": 0.0, "pos_horiz_variance": 0.12908953428268433, "pos_vert_variance": 0.15157732367515564}}, "errors": ["PreArm: Hardware safety switch", "PreArm: Hardware safety switch", "EKF3 IMU1 forced reset", "EKF3 IMU1 initialised"]}
{"timestamp": "2025-12-28T11:36:07.368760Z", "telemetry": {"lat": 28.7530706, "lon": 77.1178994, "satellites": 9, "altitude_gps_m": 205.0699920654297, "groundspeed_mps": 0.4332639276981354}, "flight": {"mode": "STABILIZE", "armed": false}, "ekf": {"attitude": {"roll": 0.5388059616088867, "pitch": -0.26941031217575073, "yaw": 0.8545486927032471}, "local_position": {"x": null, "y": null, "z": null}, "status": {"flags": 135, "velocity_variance": 0.0, "pos_horiz_variance": 0.024678392335772514, "pos_vert_variance": 0.08493044227361679}}, "errors": ["PreArm: Hardware safety switch", "PreArm: Hardware safety switch", "EKF3 IMU1 forced reset", "EKF3 IMU1 initialised", "EKF3 IMU1 tilt alignment complete", "EKF3 IMU1 MAG0 initial yaw alignment complete"]}
{"timestamp": "2025-12-28T11:36:08.368055Z", "telemetry": {"lat": 28.753072, "lon": 77.1178999, "satellites": 9, "altitude_gps_m": 204.22000122070312, "groundspeed_mps": 0.6558599472045898}, "flight": {"mode": "STABILIZE", "armed": false}, "ekf": {"attitude": {"roll": 0.3651045560836792, "pitch": -0.38458120822906494, "yaw": 0.7634334564208984}, "local_position": {"x": null, "y": null, "z": null}, "status": {"flags": 135, "velocity_variance": 0.0, "pos_horiz_variance": 0.07062351703643799, "pos_vert_variance": 0.025579672306776047}}, "errors": ["PreArm: Hardware safety switch", "PreArm: Hardware safety switch", "EKF3 IMU1 forced reset", "EKF3 IMU1 initialised", "EKF3 IMU1 tilt alignment complete", "EKF3 IMU1 MAG0 initial yaw alignment complete"]}
{"timestamp": "2025-12-28T11:36:09.368578Z", "telemetry": {"lat": 28.7530707, "lon": 77.1179056, "satellites": 9, "altitude_gps_m": 203.33999633789062, "groundspeed_mps": 0.758169412612915}, "flight": {"mode": "STABILIZE", "armed": false}, "ekf": {"attitude": {"roll": 0.27497029304504395, "pitch": -0.43786370754241943, "yaw": 0.797238826751709}, "local_position": {"x": null, "y": null, "z": null}, "status": {"flags": 135, "velocity_variance": 0.0, "pos_horiz_variance": 0.14825446903705597, "pos_vert_variance": 0.0372103676199913}}, "errors": ["PreArm: Hardware safety switch", "PreArm: Hardware safety switch", "EKF3 IMU1 forced reset", "EKF3 IMU1 initialised", "EKF3 IMU1 tilt alignment complete", "EKF3 IMU1 MAG0 initial yaw alignment complete"]}
{"timestamp": "2025-12-28T11:36:10.372517Z", "telemetry": {"lat": 28.7530705, "lon": 77.1179089, "satellites": 9, "altitude_gps_m": 202.97999572753906, "groundspeed_mps": 0.9049713015556335}, "flight": {"mode": "STABILIZE", "armed": false}, "ekf": {"attitude": {"roll": 0.3268774747848511, "pitch": -0.2308851182460785, "yaw": 0.8191894888877869}, "local_position": {"x": null, "y": null, "z": null}, "status": {"flags": 135, "velocity_variance": 0.0, "pos_horiz_variance": 0.17191128432750702, "pos_vert_variance": 0.0026043273974210024}}, "errors": ["PreArm: Hardware safety switch", "PreArm: Hardware safety switch", "EKF3 IMU1 forced reset", "EKF3 IMU1 initialised", "EKF3 IMU1 tilt alignment complete", "EKF3 IMU1 MAG0 initial yaw alignment complete"]}
{"timestamp": "2025-12-28T11:36:11.368446Z", "telemetry": {"lat": 28.7530697, "lon": 77.1179111, "satellites": 8, "altitude_gps_m": 202.6199951171875, "groundspeed_mps": 0.664042055606842}, "flight": {"mode": "STABILIZE", "armed": false}, "ekf": {"attitude": {"roll": 0.5660965442657471, "pitch": -0.20502881705760956, "yaw": 0.9379374384880066}, "local_position": {"x": null, "y": null, "z": null}, "status": {"flags": 135, "velocity_variance": 0.0, "pos_horiz_variance": 0.19490016996860504, "pos_vert_variance": 0.05210927501320839}}, "errors": ["PreArm: Hardware safety switch", "PreArm: Hardware safety switch", "EKF3 IMU1 forced reset", "EKF3 IMU1 initialised", "EKF3 IMU1 tilt alignment complete", "EKF3 IMU1 MAG0 initial yaw alignment complete"]}
{"timestamp": "2025-12-28T11:36:12.368129Z", "telemetry": {"lat": 28.7530698, "lon": 77.1179134, "satellites": 10, "altitude_gps_m": 202.5, "groundspeed_mps": 0.4982009828090668}, "flight": {"mode": "STABILIZE", "armed": false}, "ekf": {"attitude": {"roll": 0.622499942779541, "pitch": -0.2334018051624298, "yaw": 1.0313124656677246}, "local_position": {"x": null, "y": null, "z": null}, "status": {"flags": 135, "velocity_variance": 0.0, "pos_horiz_variance": 0.16954149305820465, "pos_vert_variance": 0.009695450775325298}}, "errors": ["PreArm: Hardware safety switch", "PreArm: Hardware safety switch", "EKF3 IMU1 forced reset", "EKF3 IMU1 initialised", "EKF3 IMU1 tilt alignment complete", "EKF3 IMU1 MAG0 initial yaw alignment complete"]}
{"timestamp": "2025-12-28T11:36:13.371679Z", "telemetry": {"lat": 28.753069, "lon": 77.117914, "satellites": 10, "altitude_gps_m": 202.36000061035156, "groundspeed_mps": 0.46182239055633545}, "flight": {"mode": "STABILIZE", "armed": false}, "ekf": {"attitude": {"roll": 0.5419360995292664, "pitch": 0.02285020239651203, "yaw": 0.6986690163612366}, "local_position": {"x": null, "y": null, "z": null}, "status": {"flags": 135, "velocity_variance": 0.0, "pos_horiz_variance": 0.1500450223684311, "pos_vert_variance": 0.008453695103526115}}, "errors": ["PreArm: Hardware safety switch", "PreArm: Hardware safety switch", "EKF3 IMU1 forced reset", "EKF3 IMU1 initialised", "EKF3 IMU1 tilt alignment complete", "EKF3 IMU1 MAG0 initial yaw alignment complete"]}
{"timestamp": "2025-12-28T11:36:14.368439Z", "telemetry": {"lat": 28.7530688, "lon": 77.1179139, "satellites": 10, "altitude_gps_m": 202.13999938964844, "groundspeed_mps": 0.15566802024841309}, "flight": {"mode": "STABILIZE", "armed": false}, "ekf": {"attitude": {"roll": 0.3359200358390808, "pitch": 0.39726516604423523, "yaw": -0.4987514615058899}, "local_position": {"x": null, "y": null, "z": null}, "status": {"flags": 135, "velocity_variance": 0.0, "pos_horiz_variance": 0.11833686381578445, "pos_vert_variance": 0.03128407523036003}}, "errors": ["PreArm: Hardware safety switch", "PreArm: Hardware safety switch", "EKF3 IMU1 forced reset", "EKF3 IMU1 initialised", "EKF3 IMU1 tilt alignment complete", "EKF3 IMU1 MAG0 initial yaw alignment complete"]}
{"timestamp": "2025-12-28T11:36:15.368693Z", "telemetry": {"lat": 28.7530705, "lon": 77.1179123, "satellites": 10, "altitude_gps_m": 201.95999145507812, "groundspeed_mps": 0.36809906363487244}, "flight": {"mode": "STABILIZE", "armed": false}, "ekf": {"attitude": {"roll": 0.260598361492157, "pitch": 0.27228590846061707, "yaw": -0.6861737966537476}, "local_position": {"x": null, "y": null, "z": null}, "status": {"flags": 135, "velocity_variance": 0.0, "pos_horiz_variance": 0.06343057751655579, "pos_vert_variance": 0.007349059917032719}}, "errors": ["PreArm: Hardware safety switch", "PreArm: Hardware safety switch", "EKF3 IMU1 forced reset", "EKF3 IMU1 initialised", "EKF3 IMU1 tilt alignment complete", "EKF3 IMU1 MAG0 initial yaw alignment complete"]}
{"timestamp": "2025-12-28T11:36:16.367925Z", "telemetry": {"lat": 28.7530721, "lon": 77.1179113, "satellites": 10, "altitude_gps_m": 201.8199920654297, "groundspeed_mps": 0.22876663506031036}, "flight": {"mode": "STABILIZE", "armed": false}, "ekf": {"attitude": {"roll": 0.1622326821088791, "pitch": 0.30607661604881287, "yaw": -0.35155001282691956}, "local_position": {"x": null, "y": null, "z": null}, "status": {"flags": 135, "velocity_variance": 0.0, "pos_horiz_variance": 0.06085146963596344, "pos_vert_variance": 0.012527239508926868}}, "errors": ["PreArm: Hardware safety switch", "PreArm: Hardware safety switch", "EKF3 IMU1 forced reset", "EKF3 IMU1 initialised", "EKF3 IMU1 tilt alignment complete", "EKF3 IMU1 MAG0 initial yaw alignment complete"]}
{"timestamp": "2025-12-28T11:36:17.368127Z", "telemetry": {"lat": 28.7530719, "lon": 77.1179105, "satellites": 10, "altitude_gps_m": 201.76998901367188, "groundspeed_mps": 0.3020358383655548}, "flight": {"mode": "STABILIZE", "armed": false}, "ekf": {"attitude": {"roll": 0.08754046261310577, "pitch": 0.3688228130340576, "yaw": 0.08412155508995056}, "local_position": {"x": null, "y": null, "z": null}, "status": {"flags": 135, "velocity_variance": 0.0, "pos_horiz_variance": 0.053871676325798035, "pos_vert_variance": 0.008607163093984127}}, "errors": ["PreArm: Hardware safety switch", "PreArm: Hardware safety switch", "EKF3 IMU1 forced reset", "EKF3 IMU1 initialised", "EKF3 IMU1 tilt alignment complete", "EKF3 IMU1 MAG0 initial yaw alignment complete"]}
{"timestamp": "2025-12-28T11:36:18.368110Z", "telemetry": {"lat": 28.7530731, "lon": 77.11791, "satellites": 10, "altitude_gps_m": 201.59999084472656, "groundspeed_mps": 0.377430260181427}, "flight": {"mode": "STABILIZE", "armed": false}, "ekf": {"attitude": {"roll": 0.0873788446187973, "pitch": 0.2634836733341217, "yaw": 0.37410861253738403}, "local_position": {"x": 0.010377399623394012, "y": -0.04860444739460945, "z": 0.16422174870967865}, "status": {"flags": 831, "velocity_variance": 0.0768924131989479, "pos_horiz_variance": 0.0012767375446856022, "pos_vert_variance": 0.0003628441190812737}}, "errors": ["PreArm: Hardware safety switch", "PreArm: Hardware safety switch", "EKF3 IMU1 forced reset", "EKF3 IMU1 initialised", "EKF3 IMU1 tilt alignment complete", "EKF3 IMU1 MAG0 initial yaw alignment complete", "EKF3 IMU0 origin set", "EKF3 IMU0 is using GPS", "Field Elevation Set: 202m", "EKF3 IMU1 origin set"]}
{"timestamp": "2025-12-28T11:36:19.370355Z", "telemetry": {"lat": 28.7530766, "lon": 77.1179055, "satellites": 10, "altitude_gps_m": 201.8000030517578, "groundspeed_mps": 1.1321748495101929}, "flight": {"mode": "STABILIZE", "armed": false}, "ekf": {"attitude": {"roll": -0.13015733659267426, "pitch": 0.3723148703575134, "yaw": 1.1073763370513916}, "local_position": {"x": 0.3860989809036255, "y": -0.4192168712615967, "z": -0.03030179627239704}, "status": {"flags": 831, "velocity_variance": 0.015024160966277122, "pos_horiz_variance": 0.005197749938815832, "pos_vert_variance": 0.0052878097631037235}}, "errors": ["PreArm: Hardware safety switch", "PreArm: Hardware safety switch", "EKF3 IMU1 forced reset", "EKF3 IMU1 initialised", "EKF3 IMU1 tilt alignment complete", "EKF3 IMU1 MAG0 initial yaw alignment complete", "EKF3 IMU0 origin set", "EKF3 IMU0 is using GPS", "Field Elevation Set: 202m", "EKF3 IMU1 origin set"]}
{"timestamp": "2025-12-28T11:36:20.367960Z", "telemetry": {"lat": 28.7530853, "lon": 77.1178963, "satellites": 10, "altitude_gps_m": 201.58999633789062, "groundspeed_mps": 1.0303064584732056}, "flight": {"mode": "STABILIZE", "armed": false}, "ekf": {"attitude": {"roll": -0.1812734156847, "pitch": 0.4245017468929291, "yaw": 1.2284598350524902}, "local_position": {"x": 1.4387600421905518, "y": -1.2811918258666992, "z": 0.13735146820545197}, "status": {"flags": 831, "velocity_variance": 0.10266557335853577, "pos_horiz_variance": 0.008355069905519485, "pos_vert_variance": 0.01921829953789711}}, "errors": ["PreArm: Hardware safety switch", "PreArm: Hardware safety switch", "EKF3 IMU1 forced reset", "EKF3 IMU1 initialised", "EKF3 IMU1 tilt alignment complete", "EKF3 IMU1 MAG0 initial yaw alignment complete", "EKF3 IMU0 origin set", "EKF3 IMU0 is using GPS", "Field Elevation Set: 202m", "EKF3 IMU1 origin set"]}
{"timestamp": "2025-12-28T11:36:21.368379Z", "telemetry": {"lat": 28.7530948, "lon": 77.1178874, "satellites": 10, "altitude_gps_m": 201.47000122070312, "groundspeed_mps": 1.4479748010635376}, "flight": {"mode": "STABILIZE", "armed": false}, "ekf": {"attitude": {"roll": 0.0014641322195529938, "pitch": 0.39399999380111694, "yaw": 1.6584006547927856}, "local_position": {"x": 2.4984993934631348, "y": -2.0263166427612305, "z": 0.3071432113647461}, "status": {"flags": 831, "velocity_variance": 0.050785984843969345, "pos_horiz_variance": 0.014431828632950783, "pos_vert_variance": 0.012784959748387337}}, "errors": ["PreArm: Hardware safety switch", "PreArm: Hardware safety switch", "EKF3 IMU1 forced reset", "EKF3 IMU1 initialised", "EKF3 IMU1 tilt alignment complete", "EKF3 IMU1 MAG0 initial yaw alignment complete", "EKF3 IMU0 origin set", "EKF3 IMU0 is using GPS", "Field Elevation Set: 202m", "EKF3 IMU1 origin set"]}
{"timestamp": "2025-12-28T11:36:22.369258Z", "telemetry": {"lat": 28.7531053, "lon": 77.1178788, "satellites": 10, "altitude_gps_m": 201.22999572753906, "groundspeed_mps": 1.3194679021835327}, "flight": {"mode": "STABILIZE", "armed": false}, "ekf": {"attitude": {"roll": -0.11297713220119476, "pitch": 0.27374783158302307, "yaw": 2.480217218399048}, "local_position": {"x": 3.7182986736297607, "y": -2.827394723892212, "z": 0.4572083353996277}, "status": {"flags": 831, "velocity_variance": 0.14762644469738007, "pos_horiz_variance": 0.01740926504135132, "pos_vert_variance": 0.009063088335096836}}, "errors": ["PreArm: Hardware safety switch", "PreArm: Hardware safety switch", "EKF3 IMU1 forced reset", "EKF3 IMU1 initialised", "EKF3 IMU1 tilt alignment complete", "EKF3 IMU1 MAG0 initial yaw alignment complete", "EKF3 IMU0 origin set", "EKF3 IMU0 is using GPS", "Field Elevation Set: 202m", "EKF3 IMU1 origin set"]}
{"timestamp": "2025-12-28T11:36:23.367970Z", "telemetry": {"lat": 28.7531139, "lon": 77.1178717, "satellites": 10, "altitude_gps_m": 201.1699981689453, "groundspeed_mps": 0.9221495985984802}, "flight": {"mode": "STABILIZE", "armed": false}, "ekf": {"attitude": {"roll": 0.025858113542199135, "pitch": 0.28534117341041565, "yaw": 2.449207305908203}, "local_position": {"x": 4.584007263183594, "y": -3.612058162689209, "z": 0.5759763121604919}, "status": {"flags": 831, "velocity_variance": 0.3559410274028778, "pos_horiz_variance": 0.012508265674114227, "pos_vert_variance": 0.01553716603666544}}, "errors": ["PreArm: Hardware safety switch", "PreArm: Hardware safety switch", "EKF3 IMU1 forced reset", "EKF3 IMU1 initialised", "EKF3 IMU1 tilt alignment complete", "EKF3 IMU1 MAG0 initial yaw alignment complete", "EKF3 IMU0 origin set", "EKF3 IMU0 is using GPS", "Field Elevation Set: 202m", "EKF3 IMU1 origin set"]}
{"timestamp": "2025-12-28T11:36:24.368282Z", "telemetry": {"lat": 28.7531153, "lon": 77.1178673, "satellites": 10, "altitude_gps_m": 201.0500030517578, "groundspeed_mps": 0.4564109146595001}, "flight": {"mode": "STABILIZE", "armed": false}, "ekf": {"attitude": {"roll": -0.0037283971905708313, "pitch": 0.1587284505367279, "yaw": 2.880397081375122}, "local_position": {"x": 4.91555643081665, "y": -4.182943344116211, "z": 0.6996000409126282}, "status": {"flags": 831, "velocity_variance": 0.5564295649528503, "pos_horiz_variance": 0.012639375403523445, "pos_vert_variance": 0.003383537055924535}}, "errors": ["PreArm: Hardware safety switch", "PreArm: Hardware safety switch", "EKF3 IMU1 forced reset", "EKF3 IMU1 initialised", "EKF3 IMU1 tilt alignment complete", "EKF3 IMU1 MAG0 initial yaw alignment complete", "EKF3 IMU0 origin set", "EKF3 IMU0 is using GPS", "Field Elevation Set: 202m", "EKF3 IMU1 origin set"]}
{"timestamp": "2025-12-28T11:36:25.368782Z", "telemetry": {"lat": 28.7531132, "lon": 77.1178641, "satellites": 10, "altitude_gps_m": 200.87998962402344, "groundspeed_mps": 0.1836269199848175}, "flight": {"mode": "STABILIZE", "armed": false}, "ekf": {"attitude": {"roll": 0.10304524749517441, "pitch": 0.1323304921388626, "yaw": -3.133641481399536}, "local_position": {"x": 4.894430160522461, "y": -4.445592880249023, "z": 0.8971474766731262}, "status": {"flags": 831, "velocity_variance": 0.1295890361070633, "pos_horiz_variance": 0.024390626698732376, "pos_vert_variance": 0.0009175188024528325}}, "errors": ["PreArm: Hardware safety switch", "PreArm: Hardware safety switch", "EKF3 IMU1 forced reset", "EKF3 IMU1 initialised", "EKF3 IMU1 tilt alignment complete", "EKF3 IMU1 MAG0 initial yaw alignment complete", "EKF3 IMU0 origin set", "EKF3 IMU0 is using GPS", "Field Elevation Set: 202m", "EKF3 IMU1 origin set"]}
{"timestamp": "2025-12-28T11:36:26.368353Z", "telemetry": {"lat": 28.7531179, "lon": 77.1178595, "satellites": 10, "altitude_gps_m": 200.89999389648438, "groundspeed_mps": 0.32189232110977173}, "flight": {"mode": "STABILIZE", "armed": false}, "ekf": {"attitude": {"roll": 0.06079723685979843, "pitch": 0.0952058956027031, "yaw": -2.5720317363739014}, "local_position": {"x": 4.853816509246826, "y": -4.5038251876831055, "z": 0.9926402568817139}, "status": {"flags": 831, "velocity_variance": 0.2037935107946396, "pos_horiz_variance": 0.019072582945227623, "pos_vert_variance": 0.001735711470246315}}, "errors": ["PreArm: Hardware safety switch", "PreArm: Hardware safety switch", "EKF3 IMU1 forced reset", "EKF3 IMU1 initialised", "EKF3 IMU1 tilt alignment complete", "EKF3 IMU1 MAG0 initial yaw alignment complete", "EKF3 IMU0 origin set", "EKF3 IMU0 is using GPS", "Field Elevation Set: 202m", "EKF3 IMU1 origin set"]}
{"timestamp": "2025-12-28T11:36:27.368947Z", "telemetry": {"lat": 28.753123, "lon": 77.1178603, "satellites": 10, "altitude_gps_m": 201.13999938964844, "groundspeed_mps": 0.8616066575050354}, "flight": {"mode": "STABILIZE", "armed": false}, "ekf": {"attitude": {"roll": -0.0937148928642273, "pitch": 0.040329474955797195, "yaw": -2.5475080013275146}, "local_position": {"x": 5.330380916595459, "y": -4.98148250579834, "z": 0.7182692289352417}, "status": {"flags": 33599, "velocity_variance": 0.445519357919693, "pos_horiz_variance": 0.010147299617528915, "pos_vert_variance": 0.052623338997364044}}, "errors": ["PreArm: Hardware safety switch", "PreArm: Hardware safety switch", "EKF3 IMU1 forced reset", "EKF3 IMU1 initialised", "EKF3 IMU1 tilt alignment complete", "EKF3 IMU1 MAG0 initial yaw alignment complete", "EKF3 IMU0 origin set", "EKF3 IMU0 is using GPS", "Field Elevation Set: 202m", "EKF3 IMU1 origin set", "GPS Glitch or Compass error"]}
{"timestamp": "2025-12-28T11:36:28.368597Z", "telemetry": {"lat": 28.7531221, "lon": 77.1178649, "satellites": 10, "altitude_gps_m": 201.08999633789062, "groundspeed_mps": 0.9670910239219666}, "flight": {"mode": "STABILIZE", "armed": false}, "ekf": {"attitude": {"roll": -0.023388277739286423, "pitch": 0.056597352027893066, "yaw": -2.6965253353118896}, "local_position": {"x": 5.576135158538818, "y": -5.309347152709961, "z": 0.6311423182487488}, "status": {"flags": 33599, "velocity_variance": 0.43662890791893005, "pos_horiz_variance": 0.02995210699737072, "pos_vert_variance": 0.02050202153623104}}, "errors": ["PreArm: Hardware safety switch", "PreArm: Hardware safety switch", "EKF3 IMU1 forced reset", "EKF3 IMU1 initialised", "EKF3 IMU1 tilt alignment complete", "EKF3 IMU1 MAG0 initial yaw alignment complete", "EKF3 IMU0 origin set", "EKF3 IMU0 is using GPS", "Field Elevation Set: 202m", "EKF3 IMU1 origin set", "GPS Glitch or Compass error"]}
{"timestamp": "2025-12-28T11:36:29.367985Z", "telemetry": {"lat": 28.7531204, "lon": 77.1178627, "satellites": 11, "altitude_gps_m": 201.01998901367188, "groundspeed_mps": 1.111176609992981}, "flight": {"mode": "STABILIZE", "armed": false}, "ekf": {"attitude": {"roll": -0.0612449087202549, "pitch": 0.07214777916669846, "yaw": -2.6283271312713623}, "local_position": {"x": 5.2122650146484375, "y": -5.783444404602051, "z": 0.7338286638259888}, "status": {"flags": 33599, "velocity_variance": 0.3454413115978241, "pos_horiz_variance": 0.03734169155359268, "pos_vert_variance": 0.012841306626796722}}, "errors": ["PreArm: Hardware safety switch", "PreArm: Hardware safety switch", "EKF3 IMU1 forced reset", "EKF3 IMU1 initialised", "EKF3 IMU1 tilt alignment complete", "EKF3 IMU1 MAG0 initial yaw alignment complete", "EKF3 IMU0 origin set", "EKF3 IMU0 is using GPS", "Field Elevation Set: 202m", "EKF3 IMU1 origin set", "GPS Glitch or Compass error"]}
{"timestamp": "2025-12-28T11:36:30.368828Z", "telemetry": {"lat": 28.7531215, "lon": 77.1178625, "satellites": 11, "altitude_gps_m": 201.0500030517578, "groundspeed_mps": 0.859953761100769}, "flight": {"mode": "STABILIZE", "armed": false}, "ekf": {"attitude": {"roll": 0.0834798663854599, "pitch": 0.11519007384777069, "yaw": -2.212730884552002}, "local_position": {"x": 4.4174933433532715, "y": -5.715209484100342, "z": 0.7440344095230103}, "status": {"flags": 33599, "velocity_variance": 0.5062168836593628, "pos_horiz_variance": 0.04343228042125702, "pos_vert_variance": 0.03228937089443207}}, "errors": ["PreArm: Hardware safety switch", "PreArm: Hardware safety switch", "EKF3 IMU1 forced reset", "EKF3 IMU1 initialised", "EKF3 IMU1 tilt alignment complete", "EKF3 IMU1 MAG0 initial yaw alignment complete", "EKF3 IMU0 origin set", "EKF3 IMU0 is using GPS", "Field Elevation Set: 202m", "EKF3 IMU1 origin set", "GPS Glitch or Compass error", "PreArm: Hardware safety switch", "PreArm: AHRS: GPS speed error 1.8 (needs < 1.3)"]}
{"timestamp": "2025-12-28T11:36:31.367944Z", "telemetry": {"lat": 28.7531231, "lon": 77.1178588, "satellites": 10, "altitude_gps_m": 201.12998962402344, "groundspeed_mps": 0.9195743203163147}, "flight": {"mode": "STABILIZE", "armed": false}, "ekf": {"attitude": {"roll": 0.021946212276816368, "pitch": 0.06892585754394531, "yaw": -1.7293976545333862}, "local_position": {"x": 4.252904891967773, "y": -5.480107307434082, "z": 0.6572431921958923}, "status": {"flags": 33599, "velocity_variance": 0.4076559543609619, "pos_horiz_variance": 0.039062440395355225, "pos_vert_variance": 0.02633964829146862}}, "errors": ["PreArm: Hardware safety switch", "PreArm: Hardware safety switch", "EKF3 IMU1 forced reset", "EKF3 IMU1 initialised", "EKF3 IMU1 tilt alignment complete", "EKF3 IMU1 MAG0 initial yaw alignment complete", "EKF3 IMU0 origin set", "EKF3 IMU0 is using GPS", "Field Elevation Set: 202m", "EKF3 IMU1 origin set", "GPS Glitch or Compass error", "PreArm: Hardware safety switch", "PreArm: AHRS: GPS speed error 1.8 (needs < 1.3)"]}
{"timestamp": "2025-12-28T11:36:32.368574Z", "telemetry": {"lat": 28.7531168, "lon": 77.1178573, "satellites": 11, "altitude_gps_m": 201.14999389648438, "groundspeed_mps": 1.4803447723388672}, "flight": {"mode": "STABILIZE", "armed": false}, "ekf": {"attitude": {"roll": 0.03643347695469856, "pitch": 0.04883110895752907, "yaw": -1.3461265563964844}, "local_position": {"x": 3.6449131965637207, "y": -5.432852268218994, "z": 0.6344501972198486}, "status": {"flags": 33599, "velocity_variance": 0.5334010720252991, "pos_horiz_variance": 0.03305533155798912, "pos_vert_variance": 0.0020650571677833796}}, "errors": ["PreArm: Hardware safety switch", "PreArm: Hardware safety switch", "EKF3 IMU1 forced reset", "EKF3 IMU1 initialised", "EKF3 IMU1 tilt alignment complete", "EKF3 IMU1 MAG0 initial yaw alignment complete", "EKF3 IMU0 origin set", "EKF3 IMU0 is using GPS", "Field Elevation Set: 202m", "EKF3 IMU1 origin set", "GPS Glitch or Compass error", "PreArm: Hardware safety switch", "PreArm: AHRS: GPS speed error 1.8 (needs < 1.3)"]}
{"timestamp": "2025-12-28T11:36:33.367922Z", "telemetry": {"lat": 28.7531179, "lon": 77.1178465, "satellites": 11, "altitude_gps_m": 201.19000244140625, "groundspeed_mps": 1.0455520153045654}, "flight": {"mode": "STABILIZE", "armed": false}, "ekf": {"attitude": {"roll": 0.004332240670919418, "pitch": 0.014744646847248077, "yaw": -1.260229468345642}, "local_position": {"x": 3.0223934650421143, "y": -5.726919174194336, "z": 0.5955910086631775}, "status": {"flags": 33599, "velocity_variance": 0.3632678687572479, "pos_horiz_variance": 0.05134609714150429, "pos_vert_variance": 0.01833406090736389}}, "errors": ["PreArm: Hardware safety switch", "PreArm: Hardware safety switch", "EKF3 IMU1 forced reset", "EKF3 IMU1 initialised", "EKF3 IMU1 tilt alignment complete", "EKF3 IMU1 MAG0 initial yaw alignment complete", "EKF3 IMU0 origin set", "EKF3 IMU0 is using GPS", "Field Elevation Set: 202m", "EKF3 IMU1 origin set", "GPS Glitch or Compass error", "PreArm: Hardware safety switch", "PreArm: AHRS: GPS speed error 1.8 (needs < 1.3)"]}
{"timestamp": "2025-12-28T11:36:34.367925Z", "telemetry": {"lat": 28.7531204, "lon": 77.1178411, "satellites": 11, "altitude_gps_m": 201.22000122070312, "groundspeed_mps": 0.7700274586677551}, "flight": {"mode": "STABILIZE", "armed": false}, "ekf": {"attitude": {"roll": -0.031774889677762985, "pitch": 0.06049908325076103, "yaw": -1.2458546161651611}, "local_position": {"x": 3.0256597995758057, "y": -6.00391960144043, "z": 0.5587780475616455}, "status": {"flags": 33599, "velocity_variance": 0.1898278445005417, "pos_horiz_variance": 0.06026632711291313, "pos_vert_variance": 0.05577440932393074}}, "errors": ["PreArm: Hardware safety switch", "PreArm: Hardware safety switch", "EKF3 IMU1 forced reset", "EKF3 IMU1 initialised", "EKF3 IMU1 tilt alignment complete", "EKF3 IMU1 MAG0 initial yaw alignment complete", "EKF3 IMU0 origin set", "EKF3 IMU0 is using GPS", "Field Elevation Set: 202m", "EKF3 IMU1 origin set", "GPS Glitch or Compass error", "PreArm: Hardware safety switch", "PreArm: AHRS: GPS speed error 1.8 (needs < 1.3)"]}
