{"timestamp": "2025-12-28T10:34:12.873465Z", "telemetry": {"lat": 28.7531968, "lon": 77.1177235, "satellites": 11, "altitude_gps_m": 212.9099884033203, "groundspeed_mps": 0.31151145696640015}, "flight": {"mode": "STABILIZE", "armed": false}, "ekf": {"attitude": {"roll": -0.03162306174635887, "pitch": -0.006084789056330919, "yaw": 3.046720266342163}, "local_position": {"x": 13.595273971557617, "y": -14.428075790405273, "z": -3.983680248260498}, "status": {"flags": 33599, "velocity_variance": 0.1963384449481964, "pos_horiz_variance": 0.011292901821434498, "pos_vert_variance": 0.0024151660036295652}}, "errors": []}
{"timestamp": "2025-12-28T10:34:13.869953Z", "telemetry": {"lat": 28.7531956, "lon": 77.1177236, "satellites": 11, "altitude_gps_m": 212.83999633789062, "groundspeed_mps": 0.16405020654201508}, "flight": {"mode": "STABILIZE", "armed": false}, "ekf": {"attitude": {"roll": -0.03084738180041313, "pitch": -0.007680466864258051, "yaw": 3.046672821044922}, "local_position": {"x": 13.4581937789917, "y": -14.48222541809082, "z": -3.9255707263946533}, "status": {"flags": 33599, "velocity_variance": 0.07407698780298233, "pos_horiz_variance": 0.010727623477578163, "pos_vert_variance": 0.027556516230106354}}, "errors": []}
{"timestamp": "2025-12-28T10:34:14.869735Z", "telemetry": {"lat": 28.7531965, "lon": 77.1177243, "satellites": 11, "altitude_gps_m": 212.84999084472656, "groundspeed_mps": 0.11311009526252747}, "flight": {"mode": "STABILIZE", "armed": false}, "ekf": {"attitude": {"roll": -0.03023787960410118, "pitch": -0.007870705798268318, "yaw": 3.04662823677063}, "local_position": {"x": 13.496642112731934, "y": -14.461403846740723, "z": -3.9145724773406982}, "status": {"flags": 33599, "velocity_variance": 0.11521919071674347, "pos_horiz_variance": 0.009780610911548138, "pos_vert_variance": 0.02404904179275036}}, "errors": []}
{"timestamp": "2025-12-28T10:34:15.868373Z", "telemetry": {"lat": 28.7531996, "lon": 77.1177257, "satellites": 11, "altitude_gps_m": 212.84999084472656, "groundspeed_mps": 0.07616139203310013}, "flight": {"mode": "STABILIZE", "armed": false}, "ekf": {"attitude": {"roll": -0.030059639364480972, "pitch": -0.006979535799473524, "yaw": 3.0467286109924316}, "local_position": {"x": 13.570164680480957, "y": -14.473081588745117, "z": -3.920630693435669}, "status": {"flags": 33599, "velocity_variance": 0.16835372149944305, "pos_horiz_variance": 0.006879407446831465, "pos_vert_variance": 0.023095453158020973}}, "errors": []}
{"timestamp": "2025-12-28T10:34:16.868546Z", "telemetry": {"lat": 28.7531986, "lon": 77.1177244, "satellites": 11, "altitude_gps_m": 212.83999633789062, "groundspeed_mps": 0.03201546519994736}, "flight": {"mode": "STABILIZE", "armed": false}, "ekf": {"attitude": {"roll": -0.02910766378045082, "pitch": -0.00746907526627183, "yaw": 3.04658579826355}, "local_position": {"x": 13.705668449401855, "y": -14.504426002502441, "z": -3.912721633911133}, "status": {"flags": 33599, "velocity_variance": 0.07942704856395721, "pos_horiz_variance": 0.007324061822146177, "pos_vert_variance": 0.05510037764906883}}, "errors": []}
{"timestamp": "2025-12-28T10:34:17.868424Z", "telemetry": {"lat": 28.7531944, "lon": 77.1177203, "satellites": 11, "altitude_gps_m": 212.88999938964844, "groundspeed_mps": 0.1221393272280693}, "flight": {"mode": "STABILIZE", "armed": false}, "ekf": {"attitude": {"roll": -0.027410898357629776, "pitch": -0.00874067097902298, "yaw": 3.0463616847991943}, "local_position": {"x": 13.552139282226562, "y": -14.789353370666504, "z": -3.960249423980713}, "status": {"flags": 33599, "velocity_variance": 0.11239457875490189, "pos_horiz_variance": 0.014528071507811546, "pos_vert_variance": 0.03112242929637432}}, "errors": []}
{"timestamp": "2025-12-28T10:34:18.868091Z", "telemetry": {"lat": 28.7531921, "lon": 77.1177189, "satellites": 11, "altitude_gps_m": 212.88999938964844, "groundspeed_mps": 0.22602888941764832}, "flight": {"mode": "STABILIZE", "armed": false}, "ekf": {"attitude": {"roll": -0.026938777416944504, "pitch": -0.009404879063367844, "yaw": 3.0462818145751953}, "local_position": {"x": 13.253036499023438, "y": -15.02168083190918, "z": -3.9764511585235596}, "status": {"flags": 33599, "velocity_variance": 0.0784124881029129, "pos_horiz_variance": 0.012260944582521915, "pos_vert_variance": 0.045750487595796585}}, "errors": []}
{"timestamp": "2025-12-28T10:34:19.868344Z", "telemetry": {"lat": 28.7531949, "lon": 77.1177205, "satellites": 11, "altitude_gps_m": 213.00999450683594, "groundspeed_mps": 0.2138293981552124}, "flight": {"mode": "STABILIZE", "armed": false}, "ekf": {"attitude": {"roll": -0.027113858610391617, "pitch": -0.00817093811929226, "yaw": 3.0461606979370117}, "local_position": {"x": 13.27954387664795, "y": -15.133381843566895, "z": -4.088327407836914}, "status": {"flags": 33599, "velocity_variance": 0.10145124793052673, "pos_horiz_variance": 0.0020489192102104425, "pos_vert_variance": 0.046662382781505585}}, "errors": []}
{"timestamp": "2025-12-28T10:34:20.868406Z", "telemetry": {"lat": 28.7531972, "lon": 77.1177221, "satellites": 12, "altitude_gps_m": 213.02999877929688, "groundspeed_mps": 0.16257217526435852}, "flight": {"mode": "STABILIZE", "armed": false}, "ekf": {"attitude": {"roll": -0.028026197105646133, "pitch": -0.007211663294583559, "yaw": 3.046018123626709}, "local_position": {"x": 13.419027328491211, "y": -15.081196784973145, "z": -4.107011318206787}, "status": {"flags": 33599, "velocity_variance": 0.06676459312438965, "pos_horiz_variance": 0.003330833977088332, "pos_vert_variance": 0.013651985675096512}}, "errors": []}
{"timestamp": "2025-12-28T10:34:21.868065Z", "telemetry": {"lat": 28.7531953, "lon": 77.1177198, "satellites": 12, "altitude_gps_m": 213.00999450683594, "groundspeed_mps": 0.18765191733837128}, "flight": {"mode": "STABILIZE", "armed": false}, "ekf": {"attitude": {"roll": -0.027773436158895493, "pitch": -0.007090143393725157, "yaw": 3.045875310897827}, "local_position": {"x": 13.417585372924805, "y": -15.152839660644531, "z": -4.08937406539917}, "status": {"flags": 33599, "velocity_variance": 0.059927329421043396, "pos_horiz_variance": 0.003508310066536069, "pos_vert_variance": 0.03450329601764679}}, "errors": []}
{"timestamp": "2025-12-28T10:34:22.868846Z", "telemetry": {"lat": 28.7531944, "lon": 77.1177183, "satellites": 11, "altitude_gps_m": 212.989990234375, "groundspeed_mps": 0.233626589179039}, "flight": {"mode": "STABILIZE", "armed": false}, "ekf": {"attitude": {"roll": -0.027722086757421494, "pitch": -0.007325178477913141, "yaw": 3.045773506164551}, "local_position": {"x": 13.247002601623535, "y": -15.377885818481445, "z": -4.066587448120117}, "status": {"flags": 33599, "velocity_variance": 0.09504906088113785, "pos_horiz_variance": 0.0010519055649638176, "pos_vert_variance": 0.05768773704767227}}, "errors": []}
{"timestamp": "2025-12-28T10:34:23.874205Z", "telemetry": {"lat": 28.7531955, "lon": 77.1177187, "satellites": 12, "altitude_gps_m": 212.989990234375, "groundspeed_mps": 0.20891673862934113}, "flight": {"mode": "STABILIZE", "armed": false}, "ekf": {"attitude": {"roll": -0.028256479650735855, "pitch": -0.006596721243113279, "yaw": 3.045673370361328}, "local_position": {"x": 13.280848503112793, "y": -15.434870719909668, "z": -4.068689346313477}, "status": {"flags": 33599, "velocity_variance": 0.13698770105838776, "pos_horiz_variance": 0.0036909584887325764, "pos_vert_variance": 0.04674839228391647}}, "errors": []}
{"timestamp": "2025-12-28T10:34:24.869106Z", "telemetry": {"lat": 28.7531992, "lon": 77.1177223, "satellites": 10, "altitude_gps_m": 213.02999877929688, "groundspeed_mps": 0.12468466907739639}, "flight": {"mode": "STABILIZE", "armed": false}, "ekf": {"attitude": {"roll": -0.029726792126893997, "pitch": -0.005373987834900618, "yaw": 3.045680284500122}, "local_position": {"x": 13.390629768371582, "y": -15.349641799926758, "z": -4.117355823516846}, "status": {"flags": 33599, "velocity_variance": 0.1297069638967514, "pos_horiz_variance": 0.012886595912277699, "pos_vert_variance": 0.03553804010152817}}, "errors": []}
{"timestamp": "2025-12-28T10:34:25.868067Z", "telemetry": {"lat": 28.7532016, "lon": 77.1177234, "satellites": 10, "altitude_gps_m": 212.94000244140625, "groundspeed_mps": 0.08309594541788101}, "flight": {"mode": "STABILIZE", "armed": false}, "ekf": {"attitude": {"roll": -0.03068959340453148, "pitch": -0.004187499638646841, "yaw": 3.0456037521362305}, "local_position": {"x": 13.586811065673828, "y": -15.244380950927734, "z": -4.0335283279418945}, "status": {"flags": 33599, "velocity_variance": 0.1860271543264389, "pos_horiz_variance": 0.013573456555604935, "pos_vert_variance": 0.01986566372215748}}, "errors": []}
{"timestamp": "2025-12-28T10:34:26.868096Z", "telemetry": {"lat": 28.7532002, "lon": 77.117723, "satellites": 10, "altitude_gps_m": 212.89999389648438, "groundspeed_mps": 0.07382774353027344}, "flight": {"mode": "STABILIZE", "armed": false}, "ekf": {"attitude": {"roll": -0.03127945587038994, "pitch": -0.00414005434140563, "yaw": 3.045565366744995}, "local_position": {"x": 13.82291316986084, "y": -15.113556861877441, "z": -3.9784154891967773}, "status": {"flags": 33599, "velocity_variance": 0.083159901201725, "pos_horiz_variance": 0.007649094797670841, "pos_vert_variance": 0.012560813687741756}}, "errors": []}
{"timestamp": "2025-12-28T10:34:27.868323Z", "telemetry": {"lat": 28.7532, "lon": 77.1177233, "satellites": 9, "altitude_gps_m": 212.94000244140625, "groundspeed_mps": 0.059560030698776245}, "flight": {"mode": "STABILIZE", "armed": false}, "ekf": {"attitude": {"roll": -0.03127588704228401, "pitch": -0.004385060165077448, "yaw": 3.0454561710357666}, "local_position": {"x": 13.835978507995605, "y": -15.080829620361328, "z": -4.015859603881836}, "status": {"flags": 33599, "velocity_variance": 0.10008226335048676, "pos_horiz_variance": 0.0077204653061926365, "pos_vert_variance": 0.03353840485215187}}, "errors": []}
{"timestamp": "2025-12-28T10:34:28.868105Z", "telemetry": {"lat": 28.7531996, "lon": 77.1177238, "satellites": 9, "altitude_gps_m": 212.989990234375, "groundspeed_mps": 0.022998737171292305}, "flight": {"mode": "STABILIZE", "armed": false}, "ekf": {"attitude": {"roll": -0.031739939004182816, "pitch": -0.004660481121391058, "yaw": 3.0454907417297363}, "local_position": {"x": 13.792654037475586, "y": -14.97750473022461, "z": -4.055628299713135}, "status": {"flags": 33599, "velocity_variance": 0.04126140475273132, "pos_horiz_variance": 0.004915437661111355, "pos_vert_variance": 0.010715625248849392}}, "errors": []}
{"timestamp": "2025-12-28T10:34:29.868819Z", "telemetry": {"lat": 28.7531984, "lon": 77.1177208, "satellites": 10, "altitude_gps_m": 213.00999450683594, "groundspeed_mps": 0.013771899044513702}, "flight": {"mode": "STABILIZE", "armed": false}, "ekf": {"attitude": {"roll": -0.031528275460004807, "pitch": -0.004731934051960707, "yaw": 3.0456466674804688}, "local_position": {"x": 13.77932357788086, "y": -14.96792984008789, "z": -4.090843200683594}, "status": {"flags": 33599, "velocity_variance": 0.08080356568098068, "pos_horiz_variance": 0.00464806891977787, "pos_vert_variance": 0.07283275574445724}}, "errors": []}
{"timestamp": "2025-12-28T10:34:30.868353Z", "telemetry": {"lat": 28.7532006, "lon": 77.1177207, "satellites": 10, "altitude_gps_m": 213.00999450683594, "groundspeed_mps": 0.05564698204398155}, "flight": {"mode": "STABILIZE", "armed": false}, "ekf": {"attitude": {"roll": -0.03230183944106102, "pitch": -0.004112851340323687, "yaw": 3.0456457138061523}, "local_position": {"x": 13.923684120178223, "y": -14.932499885559082, "z": -4.081444263458252}, "status": {"flags": 33599, "velocity_variance": 0.10446267575025558, "pos_horiz_variance": 0.0051300073973834515, "pos_vert_variance": 0.007697573862969875}}, "errors": []}
{"timestamp": "2025-12-28T10:34:31.868228Z", "telemetry": {"lat": 28.7532017, "lon": 77.117721, "satellites": 10, "altitude_gps_m": 213.00999450683594, "groundspeed_mps": 0.11946848779916763}, "flight": {"mode": "STABILIZE", "armed": false}, "ekf": {"attitude": {"roll": -0.033132944256067276, "pitch": -0.0035804067738354206, "yaw": 3.0455737113952637}, "local_position": {"x": 14.068461418151855, "y": -14.820241928100586, "z": -4.074005126953125}, "status": {"flags": 33599, "velocity_variance": 0.11313152313232422, "pos_horiz_variance": 0.005960642825812101, "pos_vert_variance": 0.012291117571294308}}, "errors": ["PreArm: Hardware safety switch", "PreArm: Internal errors 0x100000 l:66 flow_of_ctrl"]}
{"timestamp": "2025-12-28T10:34:32.868860Z", "telemetry": {"lat": 28.7532015, "lon": 77.1177212, "satellites": 10, "altitude_gps_m": 212.989990234375, "groundspeed_mps": 0.1366053968667984}, "flight": {"mode": "STABILIZE", "armed": false}, "ekf": {"attitude": {"roll": -0.03360271826386452, "pitch": -0.0035687419585883617, "yaw": 3.045555353164673}, "local_position": {"x": 14.186458587646484, "y": -14.755365371704102, "z": -4.067918300628662}, "status": {"flags": 33599, "velocity_variance": 0.23199549317359924, "pos_horiz_variance": 0.008921666070818901, "pos_vert_variance": 0.11685030162334442}}, "errors": ["PreArm: Hardware safety switch", "PreArm: Internal errors 0x100000 l:66 flow_of_ctrl"]}
{"timestamp": "2025-12-28T10:34:33.873045Z", "telemetry": {"lat": 28.7532021, "lon": 77.1177228, "satellites": 10, "altitude_gps_m": 212.9499969482422, "groundspeed_mps": 0.18558311462402344}, "flight": {"mode": "STABILIZE", "armed": false}, "ekf": {"attitude": {"roll": -0.034395333379507065, "pitch": -0.0034300400875508785, "yaw": 3.045698404312134}, "local_position": {"x": 14.30075740814209, "y": -14.602265357971191, "z": -4.023275852203369}, "status": {"flags": 33599, "velocity_variance": 0.11117127537727356, "pos_horiz_variance": 0.009961008094251156, "pos_vert_variance": 0.023569736629724503}}, "errors": ["PreArm: Hardware safety switch", "PreArm: Internal errors 0x100000 l:66 flow_of_ctrl"]}
{"timestamp": "2025-12-28T10:34:34.868998Z", "telemetry": {"lat": 28.7532044, "lon": 77.1177259, "satellites": 10, "altitude_gps_m": 212.86000061035156, "groundspeed_mps": 0.23140934109687805}, "flight": {"mode": "STABILIZE", "armed": false}, "ekf": {"attitude": {"roll": -0.03506270423531532, "pitch": -0.0031536943279206753, "yaw": 3.0458168983459473}, "local_position": {"x": 14.429636001586914, "y": -14.437946319580078, "z": -3.9389071464538574}, "status": {"flags": 33599, "velocity_variance": 0.11727681756019592, "pos_horiz_variance": 0.004603677429258823, "pos_vert_variance": 0.05191798135638237}}, "errors": ["PreArm: Hardware safety switch", "PreArm: Internal errors 0x100000 l:66 flow_of_ctrl"]}
{"timestamp": "2025-12-28T10:34:35.868723Z", "telemetry": {"lat": 28.7532058, "lon": 77.1177278, "satellites": 10, "altitude_gps_m": 212.8699951171875, "groundspeed_mps": 0.25188493728637695}, "flight": {"mode": "STABILIZE", "armed": false}, "ekf": {"attitude": {"roll": -0.03503631427884102, "pitch": -0.0032376651652157307, "yaw": 3.0458428859710693}, "local_position": {"x": 14.547628402709961, "y": -14.301493644714355, "z": -3.9456465244293213}, "status": {"flags": 33599, "velocity_variance": 0.08533146977424622, "pos_horiz_variance": 0.0022480555344372988, "pos_vert_variance": 0.007125512696802616}}, "errors": ["PreArm: Hardware safety switch", "PreArm: Internal errors 0x100000 l:66 flow_of_ctrl"]}
{"timestamp": "2025-12-28T10:34:36.868532Z", "telemetry": {"lat": 28.753207, "lon": 77.1177281, "satellites": 10, "altitude_gps_m": 212.88999938964844, "groundspeed_mps": 0.2760079801082611}, "flight": {"mode": "STABILIZE", "armed": false}, "ekf": {"attitude": {"roll": -0.034731317311525345, "pitch": -0.002809010911732912, "yaw": 3.0459280014038086}, "local_position": {"x": 14.76473617553711, "y": -14.190756797790527, "z": -3.9684455394744873}, "status": {"flags": 33599, "velocity_variance": 0.05089369788765907, "pos_horiz_variance": 0.0057010650634765625, "pos_vert_variance": 0.001828566542826593}}, "errors": ["PreArm: Hardware safety switch", "PreArm: Internal errors 0x100000 l:66 flow_of_ctrl"]}
{"timestamp": "2025-12-28T10:34:37.868321Z", "telemetry": {"lat": 28.7532092, "lon": 77.1177278, "satellites": 10, "altitude_gps_m": 212.9199981689453, "groundspeed_mps": 0.29227712750434875}, "flight": {"mode": "STABILIZE", "armed": false}, "ekf": {"attitude": {"roll": -0.03421464189887047, "pitch": -0.0023477179929614067, "yaw": 3.0461456775665283}, "local_position": {"x": 15.014122009277344, "y": -14.141692161560059, "z": -3.9957990646362305}, "status": {"flags": 33599, "velocity_variance": 0.08148857951164246, "pos_horiz_variance": 0.007503123488277197, "pos_vert_variance": 0.03492677956819534}}, "errors": ["PreArm: Hardware safety switch", "PreArm: Internal errors 0x100000 l:66 flow_of_ctrl"]}
{"timestamp": "2025-12-28T10:34:38.868474Z", "telemetry": {"lat": 28.753209, "lon": 77.1177278, "satellites": 10, "altitude_gps_m": 212.92999267578125, "groundspeed_mps": 0.24280482530593872}, "flight": {"mode": "STABILIZE", "armed": false}, "ekf": {"attitude": {"roll": -0.03354719653725624, "pitch": -0.0032978602685034275, "yaw": 3.046236038208008}, "local_position": {"x": 15.037528038024902, "y": -14.17067813873291, "z": -3.9997358322143555}, "status": {"flags": 33599, "velocity_variance": 0.12560907006263733, "pos_horiz_variance": 0.008744506165385246, "pos_vert_variance": 0.03856992721557617}}, "errors": ["PreArm: Hardware safety switch", "PreArm: Internal errors 0x100000 l:66 flow_of_ctrl"]}
{"timestamp": "2025-12-28T10:34:39.874353Z", "telemetry": {"lat": 28.7532083, "lon": 77.117723, "satellites": 11, "altitude_gps_m": 212.9499969482422, "groundspeed_mps": 0.19687646627426147}, "flight": {"mode": "STABILIZE", "armed": false}, "ekf": {"attitude": {"roll": -0.032536063343286514, "pitch": -0.00357619347050786, "yaw": 3.046222686767578}, "local_position": {"x": 15.115805625915527, "y": -14.28074836730957, "z": -4.021277904510498}, "status": {"flags": 33599, "velocity_variance": 0.13382795453071594, "pos_horiz_variance": 0.019762972369790077, "pos_vert_variance": 0.06067848205566406}}, "errors": ["PreArm: Hardware safety switch", "PreArm: Internal errors 0x100000 l:66 flow_of_ctrl"]}
{"timestamp": "2025-12-28T10:34:40.868294Z", "telemetry": {"lat": 28.7532068, "lon": 77.1177165, "satellites": 11, "altitude_gps_m": 213.01998901367188, "groundspeed_mps": 0.16924600303173065}, "flight": {"mode": "STABILIZE", "armed": false}, "ekf": {"attitude": {"roll": -0.030789252370595932, "pitch": -0.003768786322325468, "yaw": 3.0463602542877197}, "local_position": {"x": 15.190834045410156, "y": -14.602864265441895, "z": -4.100504398345947}, "status": {"flags": 33599, "velocity_variance": 0.16773706674575806, "pos_horiz_variance": 0.031846702098846436, "pos_vert_variance": 0.014979878440499306}}, "errors": ["PreArm: Hardware safety switch", "PreArm: Internal errors 0x100000 l:66 flow_of_ctrl"]}
{"timestamp": "2025-12-28T10:34:41.868634Z", "telemetry": {"lat": 28.7532027, "lon": 77.1177106, "satellites": 11, "altitude_gps_m": 213.08999633789062, "groundspeed_mps": 0.14515747129917145}, "flight": {"mode": "STABILIZE", "armed": false}, "ekf": {"attitude": {"roll": -0.028712976723909378, "pitch": -0.005655704531818628, "yaw": 3.0462822914123535}, "local_position": {"x": 14.93959903717041, "y": -15.061193466186523, "z": -4.168083667755127}, "status": {"flags": 33599, "velocity_variance": 0.12294916808605194, "pos_horiz_variance": 0.03870398923754692, "pos_vert_variance": 0.03246641531586647}}, "errors": ["PreArm: Hardware safety switch", "PreArm: Internal errors 0x100000 l:66 flow_of_ctrl"]}
{"timestamp": "2025-12-28T10:34:42.879407Z", "telemetry": {"lat": 28.7531988, "lon": 77.1177062, "satellites": 11, "altitude_gps_m": 213.09999084472656, "groundspeed_mps": 0.23406685888767242}, "flight": {"mode": "STABILIZE", "armed": false}, "ekf": {"attitude": {"roll": -0.028010886162519455, "pitch": -0.006771754939109087, "yaw": 3.0460808277130127}, "local_position": {"x": 14.560333251953125, "y": -15.56902027130127, "z": -4.1717143058776855}, "status": {"flags": 33599, "velocity_variance": 0.06159339100122452, "pos_horiz_variance": 0.03939458355307579, "pos_vert_variance": 0.02467835135757923}}, "errors": ["PreArm: Hardware safety switch", "PreArm: Internal errors 0x100000 l:66 flow_of_ctrl"]}
{"timestamp": "2025-12-28T10:34:43.868593Z", "telemetry": {"lat": 28.7531928, "lon": 77.1177022, "satellites": 11, "altitude_gps_m": 213.0399932861328, "groundspeed_mps": 0.3409857451915741}, "flight": {"mode": "STABILIZE", "armed": false}, "ekf": {"attitude": {"roll": -0.02807476744055748, "pitch": -0.008789535611867905, "yaw": 3.0459506511688232}, "local_position": {"x": 13.964112281799316, "y": -15.963830947875977, "z": -4.116120338439941}, "status": {"flags": 33599, "velocity_variance": 0.05098916217684746, "pos_horiz_variance": 0.04183284565806389, "pos_vert_variance": 0.0005788702983409166}}, "errors": ["PreArm: Hardware safety switch", "PreArm: Internal errors 0x100000 l:66 flow_of_ctrl"]}
{"timestamp": "2025-12-28T10:34:44.873772Z", "telemetry": {"lat": 28.7531872, "lon": 77.1176978, "satellites": 11, "altitude_gps_m": 213.0699920654297, "groundspeed_mps": 0.46879926323890686}, "flight": {"mode": "STABILIZE", "armed": false}, "ekf": {"attitude": {"roll": -0.02765178307890892, "pitch": -0.010300509631633759, "yaw": 3.0458478927612305}, "local_position": {"x": 13.292661666870117, "y": -16.3660888671875, "z": -4.148950576782227}, "status": {"flags": 33599, "velocity_variance": 0.09797157347202301, "pos_horiz_variance": 0.04185061156749725, "pos_vert_variance": 0.013593812473118305}}, "errors": ["PreArm: Hardware safety switch", "PreArm: Internal errors 0x100000 l:66 flow_of_ctrl"]}
{"timestamp": "2025-12-28T10:34:45.868562Z", "telemetry": {"lat": 28.7531837, "lon": 77.1176913, "satellites": 11, "altitude_gps_m": 213.0699920654297, "groundspeed_mps": 0.5645805597305298}, "flight": {"mode": "STABILIZE", "armed": false}, "ekf": {"attitude": {"roll": -0.02706773206591606, "pitch": -0.010099563747644424, "yaw": 3.045839548110962}, "local_position": {"x": 12.798230171203613, "y": -16.946550369262695, "z": -4.146760940551758}, "status": {"flags": 33599, "velocity_variance": 0.21889705955982208, "pos_horiz_variance": 0.04091920703649521, "pos_vert_variance": 0.04496965929865837}}, "errors": ["PreArm: Hardware safety switch", "PreArm: Internal errors 0x100000 l:66 flow_of_ctrl"]}
{"timestamp": "2025-12-28T10:34:46.868678Z", "telemetry": {"lat": 28.753183, "lon": 77.1176874, "satellites": 11, "altitude_gps_m": 212.989990234375, "groundspeed_mps": 0.6021365523338318}, "flight": {"mode": "STABILIZE", "armed": false}, "ekf": {"attitude": {"roll": -0.02726064994931221, "pitch": -0.009255584329366684, "yaw": 3.045825719833374}, "local_position": {"x": 12.439047813415527, "y": -17.513931274414062, "z": -4.070132732391357}, "status": {"flags": 33599, "velocity_variance": 0.23107273876667023, "pos_horiz_variance": 0.032248251140117645, "pos_vert_variance": 0.05491694435477257}}, "errors": ["PreArm: Hardware safety switch", "PreArm: Internal errors 0x100000 l:66 flow_of_ctrl"]}
{"timestamp": "2025-12-28T10:34:47.868349Z", "telemetry": {"lat": 28.7531817, "lon": 77.1176849, "satellites": 11, "altitude_gps_m": 213.0399932861328, "groundspeed_mps": 0.5943616628646851}, "flight": {"mode": "STABILIZE", "armed": false}, "ekf": {"attitude": {"roll": -0.0279863141477108, "pitch": -0.0086271483451128, "yaw": 3.045741319656372}, "local_position": {"x": 12.111258506774902, "y": -17.899763107299805, "z": -4.119075298309326}, "status": {"flags": 33599, "velocity_variance": 0.24000230431556702, "pos_horiz_variance": 0.02551366575062275, "pos_vert_variance": 0.026419928297400475}}, "errors": ["PreArm: Hardware safety switch", "PreArm: Internal errors 0x100000 l:66 flow_of_ctrl"]}
{"timestamp": "2025-12-28T10:34:48.868532Z", "telemetry": {"lat": 28.7531807, "lon": 77.1176836, "satellites": 11, "altitude_gps_m": 212.989990234375, "groundspeed_mps": 0.5359830856323242}, "flight": {"mode": "STABILIZE", "armed": false}, "ekf": {"attitude": {"roll": -0.02936699613928795, "pitch": -0.007648448925465345, "yaw": 3.0455799102783203}, "local_position": {"x": 11.881702423095703, "y": -18.15654754638672, "z": -4.059328556060791}, "status": {"flags": 33599, "velocity_variance": 0.20046094059944153, "pos_horiz_variance": 0.019562505185604095, "pos_vert_variance": 0.07189494371414185}}, "errors": ["PreArm: Hardware safety switch", "PreArm: Internal errors 0x100000 l:66 flow_of_ctrl"]}
{"timestamp": "2025-12-28T10:34:49.868475Z", "telemetry": {"lat": 28.753181, "lon": 77.1176827, "satellites": 11, "altitude_gps_m": 213.00999450683594, "groundspeed_mps": 0.45574700832366943}, "flight": {"mode": "STABILIZE", "armed": false}, "ekf": {"attitude": {"roll": -0.030820172280073166, "pitch": -0.006186154205352068, "yaw": 3.045492649078369}, "local_position": {"x": 11.731352806091309, "y": -18.35620880126953, "z": -4.084228992462158}, "status": {"flags": 33599, "velocity_variance": 0.24037708342075348, "pos_horiz_variance": 0.015183690004050732, "pos_vert_variance": 0.04504206404089928}}, "errors": ["PreArm: Hardware safety switch", "PreArm: Internal errors 0x100000 l:66 flow_of_ctrl"]}
{"timestamp": "2025-12-28T10:34:50.868324Z", "telemetry": {"lat": 28.7531832, "lon": 77.1176842, "satellites": 11, "altitude_gps_m": 212.97000122070312, "groundspeed_mps": 0.33750760555267334}, "flight": {"mode": "STABILIZE", "armed": false}, "ekf": {"attitude": {"roll": -0.032300543040037155, "pitch": -0.004721552599221468, "yaw": 3.0456178188323975}, "local_position": {"x": 11.785735130310059, "y": -18.494802474975586, "z": -4.047408580780029}, "status": {"flags": 33599, "velocity_variance": 0.1440194547176361, "pos_horiz_variance": 0.007714792620390654, "pos_vert_variance": 0.016529858112335205}}, "errors": ["PreArm: Hardware safety switch", "PreArm: Internal errors 0x100000 l:66 flow_of_ctrl"]}
{"timestamp": "2025-12-28T10:34:51.868145Z", "telemetry": {"lat": 28.7531845, "lon": 77.1176874, "satellites": 10, "altitude_gps_m": 212.9099884033203, "groundspeed_mps": 0.19939321279525757}, "flight": {"mode": "STABILIZE", "armed": false}, "ekf": {"attitude": {"roll": -0.03441677615046501, "pitch": -0.003443197812885046, "yaw": 3.045600414276123}, "local_position": {"x": 11.81612491607666, "y": -18.413026809692383, "z": -3.9812333583831787}, "status": {"flags": 33599, "velocity_variance": 0.11334371566772461, "pos_horiz_variance": 0.00754615617915988, "pos_vert_variance": 0.06600082665681839}}, "errors": ["PreArm: Hardware safety switch", "PreArm: Internal errors 0x100000 l:66 flow_of_ctrl"]}
{"timestamp": "2025-12-28T10:34:52.868645Z", "telemetry": {"lat": 28.7531846, "lon": 77.1176892, "satellites": 10, "altitude_gps_m": 212.9499969482422, "groundspeed_mps": 0.08901321887969971}, "flight": {"mode": "STABILIZE", "armed": false}, "ekf": {"attitude": {"roll": -0.03554268553853035, "pitch": -0.002982350531965494, "yaw": 3.0458080768585205}, "local_position": {"x": 11.865996360778809, "y": -18.272518157958984, "z": -4.027709484100342}, "status": {"flags": 33599, "velocity_variance": 0.14371784031391144, "pos_horiz_variance": 0.007302089594304562, "pos_vert_variance": 0.016453854739665985}}, "errors": ["PreArm: Hardware safety switch", "PreArm: Internal errors 0x100000 l:66 flow_of_ctrl"]}
{"timestamp": "2025-12-28T10:34:53.868465Z", "telemetry": {"lat": 28.7531832, "lon": 77.1176903, "satellites": 10, "altitude_gps_m": 212.97999572753906, "groundspeed_mps": 0.08172275125980377}, "flight": {"mode": "STABILIZE", "armed": false}, "ekf": {"attitude": {"roll": -0.036286357790231705, "pitch": -0.003108587581664324, "yaw": 3.0460166931152344}, "local_position": {"x": 11.769953727722168, "y": -18.181373596191406, "z": -4.052853107452393}, "status": {"flags": 33599, "velocity_variance": 0.14153191447257996, "pos_horiz_variance": 0.006722112186253071, "pos_vert_variance": 0.04508363455533981}}, "errors": ["PreArm: Hardware safety switch", "PreArm: Internal errors 0x100000 l:66 flow_of_ctrl"]}
{"timestamp": "2025-12-28T10:34:54.871465Z", "telemetry": {"lat": 28.7531856, "lon": 77.1176933, "satellites": 10, "altitude_gps_m": 213.00999450683594, "groundspeed_mps": 0.1188800260424614}, "flight": {"mode": "STABILIZE", "armed": false}, "ekf": {"attitude": {"roll": -0.037289660423994064, "pitch": -0.0020495429635047913, "yaw": 3.0462207794189453}, "local_position": {"x": 11.96169376373291, "y": -17.969724655151367, "z": -4.088639259338379}, "status": {"flags": 33599, "velocity_variance": 0.1516166478395462, "pos_horiz_variance": 0.01045821513980627, "pos_vert_variance": 0.028519965708255768}}, "errors": ["PreArm: Hardware safety switch", "PreArm: Internal errors 0x100000 l:66 flow_of_ctrl"]}
{"timestamp": "2025-12-28T10:34:55.872899Z", "telemetry": {"lat": 28.7531877, "lon": 77.1176947, "satellites": 10, "altitude_gps_m": 212.97000122070312, "groundspeed_mps": 0.24085640907287598}, "flight": {"mode": "STABILIZE", "armed": false}, "ekf": {"attitude": {"roll": -0.03820394352078438, "pitch": -0.0008527510799467564, "yaw": 3.0464255809783936}, "local_position": {"x": 12.311216354370117, "y": -17.71715545654297, "z": -4.041538715362549}, "status": {"flags": 33599, "velocity_variance": 0.1675427407026291, "pos_horiz_variance": 0.007654671557247639, "pos_vert_variance": 0.043860871344804764}}, "errors": ["PreArm: Hardware safety switch", "PreArm: Internal errors 0x100000 l:66 flow_of_ctrl"]}
{"timestamp": "2025-12-28T10:34:56.868499Z", "telemetry": {"lat": 28.7531895, "lon": 77.1176968, "satellites": 10, "altitude_gps_m": 212.9199981689453, "groundspeed_mps": 0.3008412718772888}, "flight": {"mode": "STABILIZE", "armed": false}, "ekf": {"attitude": {"roll": -0.038269367069005966, "pitch": -0.00041366834193468094, "yaw": 3.0466058254241943}, "local_position": {"x": 12.515649795532227, "y": -17.557540893554688, "z": -3.9893970489501953}, "status": {"flags": 33599, "velocity_variance": 0.12199294567108154, "pos_horiz_variance": 0.0076201255433261395, "pos_vert_variance": 0.008480466902256012}}, "errors": ["PreArm: Hardware safety switch", "PreArm: Internal errors 0x100000 l:66 flow_of_ctrl"]}
{"timestamp": "2025-12-28T10:34:57.868546Z", "telemetry": {"lat": 28.7531906, "lon": 77.1176984, "satellites": 9, "altitude_gps_m": 212.9199981689453, "groundspeed_mps": 0.37019965052604675}, "flight": {"mode": "STABILIZE", "armed": false}, "ekf": {"attitude": {"roll": -0.038489747792482376, "pitch": -0.0001653139479458332, "yaw": 3.0466644763946533}, "local_position": {"x": 12.745177268981934, "y": -17.308616638183594, "z": -3.995539665222168}, "status": {"flags": 33599, "velocity_variance": 0.16206002235412598, "pos_horiz_variance": 0.0033730720169842243, "pos_vert_variance": 0.03039742261171341}}, "errors": ["PreArm: Hardware safety switch", "PreArm: Internal errors 0x100000 l:66 flow_of_ctrl"]}
{"timestamp": "2025-12-28T10:34:58.868815Z", "telemetry": {"lat": 28.7531897, "lon": 77.1176976, "satellites": 9, "altitude_gps_m": 212.88999938964844, "groundspeed_mps": 0.4029770791530609}, "flight": {"mode": "STABILIZE", "armed": false}, "ekf": {"attitude": {"roll": -0.038110170513391495, "pitch": -0.0005410374142229557, "yaw": 3.046823740005493}, "local_position": {"x": 12.95357608795166, "y": -17.156837463378906, "z": -3.969794511795044}, "status": {"flags": 33599, "velocity_variance": 0.16762462258338928, "pos_horiz_variance": 0.006504958961158991, "pos_vert_variance": 0.009086674079298973}}, "errors": ["PreArm: Hardware safety switch", "PreArm: Internal errors 0x100000 l:66 flow_of_ctrl"]}
{"timestamp": "2025-12-28T10:34:59.868344Z", "telemetry": {"lat": 28.7531873, "lon": 77.117697, "satellites": 9, "altitude_gps_m": 212.83999633789062, "groundspeed_mps": 0.34229204058647156}, "flight": {"mode": "STABILIZE", "armed": false}, "ekf": {"attitude": {"roll": -0.03725996986031532, "pitch": -0.002067185938358307, "yaw": 3.0469491481781006}, "local_position": {"x": 12.797236442565918, "y": -17.104455947875977, "z": -3.910938024520874}, "status": {"flags": 33599, "velocity_variance": 0.03316953033208847, "pos_horiz_variance": 0.010929624550044537, "pos_vert_variance": 0.02629677951335907}}, "errors": ["PreArm: Hardware safety switch", "PreArm: Internal errors 0x100000 l:66 flow_of_ctrl"]}
