{"timestamp": "2026-01-15T12:57:01.819103Z", "telemetry": {"lat": 28.7530725, "lon": 77.1179777, "satellites": 7, "altitude_gps_m": 213.989990234375, "groundspeed_mps": 0.08460062742233276}, "flight": {"mode": "STABILIZE", "armed": false}, "ekf": {"attitude": {"roll": 0.05132745951414108, "pitch": -0.0070821004919707775, "yaw": -1.916901707649231}, "local_position": {"x": -1.824934482574463, "y": 9.376468658447266, "z": -1.6682482957839966}, "status": {"flags": 33599, "velocity_variance": 0.08777593076229095, "pos_horiz_variance": 0.007904990576207638, "pos_vert_variance": 0.014362037181854248}}, "errors": []}
{"timestamp": "2026-01-15T12:57:02.900565Z", "telemetry": {"lat": 28.7530707, "lon": 77.1179768, "satellites": 7, "altitude_gps_m": 214.0399932861328, "groundspeed_mps": 0.02833019196987152}, "flight": {"mode": "STABILIZE", "armed": false}, "ekf": {"attitude": {"roll": 0.050883859395980835, "pitch": -0.00740127032622695, "yaw": -1.916863203048706}, "local_position": {"x": -1.9640990495681763, "y": 9.34330940246582, "z": -1.717084527015686}, "status": {"flags": 33599, "velocity_variance": 0.04760659113526344, "pos_horiz_variance": 0.009819087572395802, "pos_vert_variance": 0.00015369935135822743}}, "errors": []}
{"timestamp": "2026-01-15T12:57:03.921143Z", "telemetry": {"lat": 28.7530721, "lon": 77.117979, "satellites": 7, "altitude_gps_m": 214.0800018310547, "groundspeed_mps": 0.03740232065320015}, "flight": {"mode": "STABILIZE", "armed": false}, "ekf": {"attitude": {"roll": 0.05133639648556709, "pitch": -0.007167649921029806, "yaw": -1.916892409324646}, "local_position": {"x": -1.8871910572052002, "y": 9.322685241699219, "z": -1.7537322044372559}, "status": {"flags": 33599, "velocity_variance": 0.04734847694635391, "pos_horiz_variance": 0.00448436476290226, "pos_vert_variance": 0.020359624177217484}}, "errors": []}
{"timestamp": "2026-01-15T12:57:04.987083Z", "telemetry": {"lat": 28.7530724, "lon": 77.1179794, "satellites": 7, "altitude_gps_m": 214.1199951171875, "groundspeed_mps": 0.05647760629653931}, "flight": {"mode": "STABILIZE", "armed": false}, "ekf": {"attitude": {"roll": 0.050065815448760986, "pitch": -0.00785021297633648, "yaw": -1.9172642230987549}, "local_position": {"x": -1.8804130554199219, "y": 9.331488609313965, "z": -1.786173701286316}, "status": {"flags": 33599, "velocity_variance": 0.018841687589883804, "pos_horiz_variance": 0.0034889117814600468, "pos_vert_variance": 0.0691177099943161}}, "errors": []}
{"timestamp": "2026-01-15T12:57:05.985548Z", "telemetry": {"lat": 28.7530682, "lon": 77.1179809, "satellites": 7, "altitude_gps_m": 214.13999938964844, "groundspeed_mps": 0.09549100697040558}, "flight": {"mode": "STABILIZE", "armed": false}, "ekf": {"attitude": {"roll": 0.04978587478399277, "pitch": -0.00789930671453476, "yaw": -1.9173176288604736}, "local_position": {"x": -2.2567191123962402, "y": 9.27080249786377, "z": -1.8158669471740723}, "status": {"flags": 33599, "velocity_variance": 0.1285887509584427, "pos_horiz_variance": 0.003961021546274424, "pos_vert_variance": 0.010431325994431973}}, "errors": []}
{"timestamp": "2026-01-15T12:57:06.987143Z", "telemetry": {"lat": 28.7530671, "lon": 77.1179807, "satellites": 7, "altitude_gps_m": 214.08999633789062, "groundspeed_mps": 0.11155029386281967}, "flight": {"mode": "STABILIZE", "armed": false}, "ekf": {"attitude": {"roll": 0.0494687519967556, "pitch": -0.007643578108400106, "yaw": -1.9174307584762573}, "local_position": {"x": -2.377429723739624, "y": 9.319388389587402, "z": -1.7604986429214478}, "status": {"flags": 33599, "velocity_variance": 0.07219356298446655, "pos_horiz_variance": 0.003218581900000572, "pos_vert_variance": 0.05318520590662956}}, "errors": []}
{"timestamp": "2026-01-15T12:57:08.016487Z", "telemetry": {"lat": 28.7530644, "lon": 77.1179799, "satellites": 7, "altitude_gps_m": 214.08999633789062, "groundspeed_mps": 0.14728516340255737}, "flight": {"mode": "STABILIZE", "armed": false}, "ekf": {"attitude": {"roll": 0.04881860315799713, "pitch": -0.007389322388917208, "yaw": -1.9174340963363647}, "local_position": {"x": -2.614396333694458, "y": 9.348749160766602, "z": -1.7645838260650635}, "status": {"flags": 33599, "velocity_variance": 0.08333152532577515, "pos_horiz_variance": 0.005126995965838432, "pos_vert_variance": 0.023959985002875328}}, "errors": []}
{"timestamp": "2026-01-15T12:57:09.017101Z", "telemetry": {"lat": 28.7530608, "lon": 77.1179792, "satellites": 7, "altitude_gps_m": 214.08999633789062, "groundspeed_mps": 0.21088139712810516}, "flight": {"mode": "STABILIZE", "armed": false}, "ekf": {"attitude": {"roll": 0.04796137288212776, "pitch": -0.007132864091545343, "yaw": -1.9174593687057495}, "local_position": {"x": -2.960024833679199, "y": 9.423399925231934, "z": -1.767462968826294}, "status": {"flags": 33599, "velocity_variance": 0.09716861695051193, "pos_horiz_variance": 0.008402092382311821, "pos_vert_variance": 0.013196859508752823}}, "errors": []}
{"timestamp": "2026-01-15T12:57:10.000277Z", "telemetry": {"lat": 28.7530603, "lon": 77.1179782, "satellites": 7, "altitude_gps_m": 214.1699981689453, "groundspeed_mps": 0.20365408062934875}, "flight": {"mode": "STABILIZE", "armed": false}, "ekf": {"attitude": {"roll": 0.04869240149855614, "pitch": -0.00607794476673007, "yaw": -1.9173861742019653}, "local_position": {"x": -3.1000449657440186, "y": 9.449060440063477, "z": -1.8461499214172363}, "status": {"flags": 33599, "velocity_variance": 0.027450738474726677, "pos_horiz_variance": 0.009161841124296188, "pos_vert_variance": 0.06761471927165985}}, "errors": []}
{"timestamp": "2026-01-15T12:57:11.000305Z", "telemetry": {"lat": 28.753062, "lon": 77.1179756, "satellites": 7, "altitude_gps_m": 214.1599884033203, "groundspeed_mps": 0.12226074934005737}, "flight": {"mode": "STABILIZE", "armed": false}, "ekf": {"attitude": {"roll": 0.04962751269340515, "pitch": -0.005743808578699827, "yaw": -1.9172865152359009}, "local_position": {"x": -2.9824984073638916, "y": 9.433445930480957, "z": -1.8327300548553467}, "status": {"flags": 33599, "velocity_variance": 0.0254119373857975, "pos_horiz_variance": 0.01286489237099886, "pos_vert_variance": 0.028484279289841652}}, "errors": []}
{"timestamp": "2026-01-15T12:57:12.004466Z", "telemetry": {"lat": 28.7530609, "lon": 77.1179755, "satellites": 7, "altitude_gps_m": 214.14999389648438, "groundspeed_mps": 0.1181599572300911}, "flight": {"mode": "STABILIZE", "armed": false}, "ekf": {"attitude": {"roll": 0.04960959032177925, "pitch": -0.005691580008715391, "yaw": -1.917315125465393}, "local_position": {"x": -3.0665011405944824, "y": 9.399580955505371, "z": -1.8481879234313965}, "status": {"flags": 33599, "velocity_variance": 0.04515347257256508, "pos_horiz_variance": 0.011552918702363968, "pos_vert_variance": 0.03868337720632553}}, "errors": []}
{"timestamp": "2026-01-15T12:57:12.978339Z", "telemetry": {"lat": 28.7530627, "lon": 77.1179739, "satellites": 7, "altitude_gps_m": 214.0699920654297, "groundspeed_mps": 0.06434796005487442}, "flight": {"mode": "STABILIZE", "armed": false}, "ekf": {"attitude": {"roll": 0.05057057365775108, "pitch": -0.0052544730715453625, "yaw": -1.9173270463943481}, "local_position": {"x": -3.0389833450317383, "y": 9.297538757324219, "z": -1.7411638498306274}, "status": {"flags": 33599, "velocity_variance": 0.04738008603453636, "pos_horiz_variance": 0.013352626003324986, "pos_vert_variance": 0.02293476276099682}}, "errors": []}
{"timestamp": "2026-01-15T12:57:13.974734Z", "telemetry": {"lat": 28.7530638, "lon": 77.1179721, "satellites": 7, "altitude_gps_m": 214.0699920654297, "groundspeed_mps": 0.0325448140501976}, "flight": {"mode": "STABILIZE", "armed": false}, "ekf": {"attitude": {"roll": 0.0513572134077549, "pitch": -0.005007628817111254, "yaw": -1.9174257516860962}, "local_position": {"x": -2.947474479675293, "y": 9.159222602844238, "z": -1.7278437614440918}, "status": {"flags": 33599, "velocity_variance": 0.12158437818288803, "pos_horiz_variance": 0.014468173496425152, "pos_vert_variance": 0.02222849614918232}}, "errors": []}
{"timestamp": "2026-01-15T12:57:15.004640Z", "telemetry": {"lat": 28.7530619, "lon": 77.1179704, "satellites": 7, "altitude_gps_m": 214.0800018310547, "groundspeed_mps": 0.06920672208070755}, "flight": {"mode": "STABILIZE", "armed": false}, "ekf": {"attitude": {"roll": 0.05104734003543854, "pitch": -0.0055262367241084576, "yaw": -1.9174174070358276}, "local_position": {"x": -2.9804811477661133, "y": 8.931147575378418, "z": -1.7539775371551514}, "status": {"flags": 33599, "velocity_variance": 0.11767850071191788, "pos_horiz_variance": 0.01319225411862135, "pos_vert_variance": 0.03389947861433029}}, "errors": []}
{"timestamp": "2026-01-15T12:57:15.980854Z", "telemetry": {"lat": 28.7530607, "lon": 77.1179703, "satellites": 7, "altitude_gps_m": 214.04998779296875, "groundspeed_mps": 0.09452061355113983}, "flight": {"mode": "STABILIZE", "armed": false}, "ekf": {"attitude": {"roll": 0.05083867907524109, "pitch": -0.00567438593134284, "yaw": -1.9174621105194092}, "local_position": {"x": -3.0649375915527344, "y": 8.838807106018066, "z": -1.7615848779678345}, "status": {"flags": 33599, "velocity_variance": 0.07578250020742416, "pos_horiz_variance": 0.011713267304003239, "pos_vert_variance": 0.06537408381700516}}, "errors": []}
{"timestamp": "2026-01-15T12:57:16.986075Z", "telemetry": {"lat": 28.7530627, "lon": 77.1179697, "satellites": 7, "altitude_gps_m": 214.05999755859375, "groundspeed_mps": 0.08433336764574051}, "flight": {"mode": "STABILIZE", "armed": false}, "ekf": {"attitude": {"roll": 0.05150165781378746, "pitch": -0.004985671956092119, "yaw": -1.9172677993774414}, "local_position": {"x": -3.031937837600708, "y": 8.67466926574707, "z": -1.7192437648773193}, "status": {"flags": 33599, "velocity_variance": 0.11744330078363419, "pos_horiz_variance": 0.009794854559004307, "pos_vert_variance": 0.04485435038805008}}, "errors": []}
{"timestamp": "2026-01-15T12:57:17.985729Z", "telemetry": {"lat": 28.7530657, "lon": 77.1179694, "satellites": 7, "altitude_gps_m": 214.12998962402344, "groundspeed_mps": 0.12224623560905457}, "flight": {"mode": "STABILIZE", "armed": false}, "ekf": {"attitude": {"roll": 0.052207764238119125, "pitch": -0.004064242821186781, "yaw": -1.9172450304031372}, "local_position": {"x": -2.745818853378296, "y": 8.643184661865234, "z": -1.811370849609375}, "status": {"flags": 33599, "velocity_variance": 0.04969271644949913, "pos_horiz_variance": 0.00942145474255085, "pos_vert_variance": 0.0875253677368164}}, "errors": []}
{"timestamp": "2026-01-15T12:57:19.009321Z", "telemetry": {"lat": 28.7530665, "lon": 77.1179699, "satellites": 7, "altitude_gps_m": 214.0800018310547, "groundspeed_mps": 0.14361394941806793}, "flight": {"mode": "STABILIZE", "armed": false}, "ekf": {"attitude": {"roll": 0.05210219323635101, "pitch": -0.003591179382055998, "yaw": -1.9171267747879028}, "local_position": {"x": -2.5670955181121826, "y": 8.628072738647461, "z": -1.7658779621124268}, "status": {"flags": 33599, "velocity_variance": 0.09859252721071243, "pos_horiz_variance": 0.007999603636562824, "pos_vert_variance": 0.041717980057001114}}, "errors": []}
{"timestamp": "2026-01-15T12:57:20.012287Z", "telemetry": {"lat": 28.7530665, "lon": 77.1179685, "satellites": 7, "altitude_gps_m": 214.0800018310547, "groundspeed_mps": 0.1311696618795395}, "flight": {"mode": "STABILIZE", "armed": false}, "ekf": {"attitude": {"roll": 0.05173836648464203, "pitch": -0.003641031216830015, "yaw": -1.9169604778289795}, "local_position": {"x": -2.534078359603882, "y": 8.536727905273438, "z": -1.7429345846176147}, "status": {"flags": 33599, "velocity_variance": 0.12898403406143188, "pos_horiz_variance": 0.008578257635235786, "pos_vert_variance": 0.038960665464401245}}, "errors": []}
{"timestamp": "2026-01-15T12:57:21.012409Z", "telemetry": {"lat": 28.7530686, "lon": 77.1179662, "satellites": 7, "altitude_gps_m": 214.12998962402344, "groundspeed_mps": 0.18023017048835754}, "flight": {"mode": "STABILIZE", "armed": false}, "ekf": {"attitude": {"roll": 0.05221384018659592, "pitch": -0.0035124742425978184, "yaw": -1.916803240776062}, "local_position": {"x": -2.307563066482544, "y": 8.440780639648438, "z": -1.8107905387878418}, "status": {"flags": 33599, "velocity_variance": 0.09950757026672363, "pos_horiz_variance": 0.010596281848847866, "pos_vert_variance": 0.050858207046985626}}, "errors": []}
{"timestamp": "2026-01-15T12:57:21.987983Z", "telemetry": {"lat": 28.7530691, "lon": 77.1179661, "satellites": 7, "altitude_gps_m": 214.1199951171875, "groundspeed_mps": 0.1820223480463028}, "flight": {"mode": "STABILIZE", "armed": false}, "ekf": {"attitude": {"roll": 0.051854245364665985, "pitch": -0.003541229758411646, "yaw": -1.9166048765182495}, "local_position": {"x": -2.1736748218536377, "y": 8.310962677001953, "z": -1.8154757022857666}, "status": {"flags": 33599, "velocity_variance": 0.08379588276147842, "pos_horiz_variance": 0.008893582969903946, "pos_vert_variance": 0.008286154828965664}}, "errors": ["PreArm: Hardware safety switch"]}
{"timestamp": "2026-01-15T12:57:22.989588Z", "telemetry": {"lat": 28.7530697, "lon": 77.1179669, "satellites": 7, "altitude_gps_m": 214.01998901367188, "groundspeed_mps": 0.18195167183876038}, "flight": {"mode": "STABILIZE", "armed": false}, "ekf": {"attitude": {"roll": 0.05176399648189545, "pitch": -0.0034360098652541637, "yaw": -1.9163912534713745}, "local_position": {"x": -2.0542407035827637, "y": 8.23984146118164, "z": -1.709005355834961}, "status": {"flags": 33599, "velocity_variance": 0.11510741710662842, "pos_horiz_variance": 0.00669005885720253, "pos_vert_variance": 0.027418997138738632}}, "errors": ["PreArm: Hardware safety switch"]}
{"timestamp": "2026-01-15T12:57:23.987323Z", "telemetry": {"lat": 28.7530681, "lon": 77.1179674, "satellites": 7, "altitude_gps_m": 214.00999450683594, "groundspeed_mps": 0.12122239172458649}, "flight": {"mode": "STABILIZE", "armed": false}, "ekf": {"attitude": {"roll": 0.05073634535074234, "pitch": -0.0037694345228374004, "yaw": -1.9161819219589233}, "local_position": {"x": -2.1231746673583984, "y": 8.171575546264648, "z": -1.6842635869979858}, "status": {"flags": 33599, "velocity_variance": 0.023824261501431465, "pos_horiz_variance": 0.005682623479515314, "pos_vert_variance": 0.05316292122006416}}, "errors": ["PreArm: Hardware safety switch"]}
{"timestamp": "2026-01-15T12:57:24.990523Z", "telemetry": {"lat": 28.7530666, "lon": 77.1179673, "satellites": 7, "altitude_gps_m": 213.989990234375, "groundspeed_mps": 0.05040513724088669}, "flight": {"mode": "STABILIZE", "armed": false}, "ekf": {"attitude": {"roll": 0.04973982647061348, "pitch": -0.0038898135535418987, "yaw": -1.9160236120224}, "local_position": {"x": -2.288728713989258, "y": 8.160943031311035, "z": -1.6547482013702393}, "status": {"flags": 33599, "velocity_variance": 0.04148099198937416, "pos_horiz_variance": 0.006294936873018742, "pos_vert_variance": 0.018555929884314537}}, "errors": ["PreArm: Hardware safety switch"]}
{"timestamp": "2026-01-15T12:57:25.990462Z", "telemetry": {"lat": 28.7530675, "lon": 77.1179716, "satellites": 8, "altitude_gps_m": 213.989990234375, "groundspeed_mps": 0.04807186499238014}, "flight": {"mode": "STABILIZE", "armed": false}, "ekf": {"attitude": {"roll": 0.04945699870586395, "pitch": -0.0036925808526575565, "yaw": -1.9158896207809448}, "local_position": {"x": -2.3076953887939453, "y": 8.195749282836914, "z": -1.6652692556381226}, "status": {"flags": 33599, "velocity_variance": 0.103726327419281, "pos_horiz_variance": 0.005718437489122152, "pos_vert_variance": 0.045897021889686584}}, "errors": ["PreArm: Hardware safety switch"]}
{"timestamp": "2026-01-15T12:57:26.987593Z", "telemetry": {"lat": 28.7530679, "lon": 77.1179779, "satellites": 9, "altitude_gps_m": 214.02999877929688, "groundspeed_mps": 0.04324307665228844}, "flight": {"mode": "STABILIZE", "armed": false}, "ekf": {"attitude": {"roll": 0.04898745194077492, "pitch": -0.0036615668796002865, "yaw": -1.9157816171646118}, "local_position": {"x": -2.3988447189331055, "y": 8.27180004119873, "z": -1.6912704706192017}, "status": {"flags": 33599, "velocity_variance": 0.016643498092889786, "pos_horiz_variance": 0.015843480825424194, "pos_vert_variance": 0.011179148219525814}}, "errors": ["PreArm: Hardware safety switch"]}
{"timestamp": "2026-01-15T12:57:27.992318Z", "telemetry": {"lat": 28.753068, "lon": 77.1179824, "satellites": 9, "altitude_gps_m": 214.04998779296875, "groundspeed_mps": 0.05318980664014816}, "flight": {"mode": "STABILIZE", "armed": false}, "ekf": {"attitude": {"roll": 0.04850340262055397, "pitch": -0.00404471205547452, "yaw": -1.9157047271728516}, "local_position": {"x": -2.417926788330078, "y": 8.439740180969238, "z": -1.7222627401351929}, "status": {"flags": 33599, "velocity_variance": 0.09921599179506302, "pos_horiz_variance": 0.022205956280231476, "pos_vert_variance": 0.03283053636550903}}, "errors": ["PreArm: Hardware safety switch"]}
