{"timestamp": "2026-01-15T14:14:09.396713Z", "telemetry": {"lat": 28.7530059, "lon": 77.1179622, "satellites": 0, "altitude_gps_m": 0.28999999165534973, "groundspeed_mps": 0.006473152432590723}, "flight": {"mode": "STABILIZE", "armed": false}, "ekf": {"attitude": {"roll": 0.023628627881407738, "pitch": 0.003245376981794834, "yaw": -0.5125284790992737}, "local_position": {"x": null, "y": null, "z": null}, "status": {"flags": 135, "velocity_variance": 0.0, "pos_horiz_variance": 0.0011088646715506911, "pos_vert_variance": 0.06979412585496902}}, "errors": ["PreArm: Hardware safety switch", "PreArm: Battery 1 low voltage failsafe"]}
{"timestamp": "2026-01-15T14:14:10.485688Z", "telemetry": {"lat": 28.7530059, "lon": 77.1179622, "satellites": 0, "altitude_gps_m": 0.28999999165534973, "groundspeed_mps": 0.011184203438460827}, "flight": {"mode": "STABILIZE", "armed": false}, "ekf": {"attitude": {"roll": 0.023556038737297058, "pitch": 0.0030683891382068396, "yaw": -0.512366533279419}, "local_position": {"x": null, "y": null, "z": null}, "status": {"flags": 135, "velocity_variance": 0.0, "pos_horiz_variance": 0.0011088646715506911, "pos_vert_variance": 0.06979412585496902}}, "errors": ["PreArm: Hardware safety switch", "PreArm: Battery 1 low voltage failsafe"]}
{"timestamp": "2026-01-15T14:14:11.492575Z", "telemetry": {"lat": 28.7530059, "lon": 77.1179622, "satellites": 0, "altitude_gps_m": 0.28999999165534973, "groundspeed_mps": 0.011348233558237553}, "flight": {"mode": "STABILIZE", "armed": false}, "ekf": {"attitude": {"roll": 0.023584427312016487, "pitch": 0.003018453950062394, "yaw": -0.5124275088310242}, "local_position": {"x": null, "y": null, "z": null}, "status": {"flags": 135, "velocity_variance": 0.0, "pos_horiz_variance": 0.002129638334736228, "pos_vert_variance": 0.04421079531311989}}, "errors": ["PreArm: Hardware safety switch", "PreArm: Battery 1 low voltage failsafe"]}
{"timestamp": "2026-01-15T14:14:12.521691Z", "telemetry": {"lat": 28.7530059, "lon": 77.1179622, "satellites": 0, "altitude_gps_m": 0.28999999165534973, "groundspeed_mps": 0.007349704392254353}, "flight": {"mode": "STABILIZE", "armed": false}, "ekf": {"attitude": {"roll": 0.023506008088588715, "pitch": 0.0030109137296676636, "yaw": -0.512458086013794}, "local_position": {"x": null, "y": null, "z": null}, "status": {"flags": 135, "velocity_variance": 0.0, "pos_horiz_variance": 0.002185199176892638, "pos_vert_variance": 0.005540241952985525}}, "errors": ["PreArm: Hardware safety switch", "PreArm: Battery 1 low voltage failsafe"]}
{"timestamp": "2026-01-15T14:14:13.521524Z", "telemetry": {"lat": 28.7530059, "lon": 77.1179622, "satellites": 0, "altitude_gps_m": 0.28999999165534973, "groundspeed_mps": 0.00482751801609993}, "flight": {"mode": "STABILIZE", "armed": false}, "ekf": {"attitude": {"roll": 0.02360151894390583, "pitch": 0.0030076245311647654, "yaw": -0.5123885273933411}, "local_position": {"x": null, "y": null, "z": null}, "status": {"flags": 135, "velocity_variance": 0.0, "pos_horiz_variance": 0.0014407840790227056, "pos_vert_variance": 0.0524829663336277}}, "errors": ["PreArm: Hardware safety switch", "PreArm: Battery 1 low voltage failsafe"]}
{"timestamp": "2026-01-15T14:14:14.496897Z", "telemetry": {"lat": 28.7530059, "lon": 77.1179622, "satellites": 0, "altitude_gps_m": 0.28999999165534973, "groundspeed_mps": 0.005715047474950552}, "flight": {"mode": "STABILIZE", "armed": false}, "ekf": {"attitude": {"roll": 0.023554310202598572, "pitch": 0.0029334668070077896, "yaw": -0.5121738910675049}, "local_position": {"x": null, "y": null, "z": null}, "status": {"flags": 135, "velocity_variance": 0.0, "pos_horiz_variance": 0.0012498791329562664, "pos_vert_variance": 0.004795923829078674}}, "errors": ["PreArm: Hardware safety switch", "PreArm: Battery 1 low voltage failsafe"]}
{"timestamp": "2026-01-15T14:14:15.494843Z", "telemetry": {"lat": 28.7530059, "lon": 77.1179622, "satellites": 0, "altitude_gps_m": 0.28999999165534973, "groundspeed_mps": 0.004543918184936047}, "flight": {"mode": "STABILIZE", "armed": false}, "ekf": {"attitude": {"roll": 0.02341519109904766, "pitch": 0.0028881789185106754, "yaw": -0.5122735500335693}, "local_position": {"x": null, "y": null, "z": null}, "status": {"flags": 135, "velocity_variance": 0.0, "pos_horiz_variance": 0.0011497809318825603, "pos_vert_variance": 0.006998695898801088}}, "errors": ["PreArm: Hardware safety switch", "PreArm: Battery 1 low voltage failsafe"]}
{"timestamp": "2026-01-15T14:14:16.499455Z", "telemetry": {"lat": 28.7530059, "lon": 77.1179622, "satellites": 0, "altitude_gps_m": 0.28999999165534973, "groundspeed_mps": 0.003165402915328741}, "flight": {"mode": "STABILIZE", "armed": false}, "ekf": {"attitude": {"roll": 0.0233970545232296, "pitch": 0.002938897581771016, "yaw": -0.5121227502822876}, "local_position": {"x": null, "y": null, "z": null}, "status": {"flags": 135, "velocity_variance": 0.0, "pos_horiz_variance": 0.0008773598819971085, "pos_vert_variance": 0.036666739732027054}}, "errors": ["PreArm: Hardware safety switch", "PreArm: Battery 1 low voltage failsafe"]}
{"timestamp": "2026-01-15T14:14:17.490813Z", "telemetry": {"lat": 28.7530059, "lon": 77.1179622, "satellites": 0, "altitude_gps_m": 0.28999999165534973, "groundspeed_mps": 0.001854368019849062}, "flight": {"mode": "STABILIZE", "armed": false}, "ekf": {"attitude": {"roll": 0.02339097671210766, "pitch": 0.002914129989221692, "yaw": -0.5120606422424316}, "local_position": {"x": null, "y": null, "z": null}, "status": {"flags": 135, "velocity_variance": 0.0, "pos_horiz_variance": 0.000745018245652318, "pos_vert_variance": 0.03539619594812393}}, "errors": ["PreArm: Hardware safety switch", "PreArm: Battery 1 low voltage failsafe"]}
{"timestamp": "2026-01-15T14:14:18.493460Z", "telemetry": {"lat": 28.7530059, "lon": 77.1179622, "satellites": 0, "altitude_gps_m": 0.28999999165534973, "groundspeed_mps": 0.0016394632402807474}, "flight": {"mode": "STABILIZE", "armed": false}, "ekf": {"attitude": {"roll": 0.02335214428603649, "pitch": 0.0029076403006911278, "yaw": -0.5120415091514587}, "local_position": {"x": null, "y": null, "z": null}, "status": {"flags": 135, "velocity_variance": 0.0, "pos_horiz_variance": 0.00033282156800851226, "pos_vert_variance": 0.02560204267501831}}, "errors": ["PreArm: Hardware safety switch", "PreArm: Battery 1 low voltage failsafe"]}
{"timestamp": "2026-01-15T14:14:19.493019Z", "telemetry": {"lat": 28.7530059, "lon": 77.1179622, "satellites": 0, "altitude_gps_m": 0.28999999165534973, "groundspeed_mps": 0.002375134499743581}, "flight": {"mode": "STABILIZE", "armed": false}, "ekf": {"attitude": {"roll": 0.02324387989938259, "pitch": 0.002977655967697501, "yaw": -0.5119572281837463}, "local_position": {"x": null, "y": null, "z": null}, "status": {"flags": 135, "velocity_variance": 0.0, "pos_horiz_variance": 0.0002926467568613589, "pos_vert_variance": 0.0432887002825737}}, "errors": ["PreArm: Hardware safety switch", "PreArm: Battery 1 low voltage failsafe"]}
{"timestamp": "2026-01-15T14:14:20.469357Z", "telemetry": {"lat": 28.7530059, "lon": 77.1179622, "satellites": 0, "altitude_gps_m": 0.28999999165534973, "groundspeed_mps": 0.0033359078224748373}, "flight": {"mode": "STABILIZE", "armed": false}, "ekf": {"attitude": {"roll": 0.023276081308722496, "pitch": 0.002914132084697485, "yaw": -0.5120814442634583}, "local_position": {"x": null, "y": null, "z": null}, "status": {"flags": 135, "velocity_variance": 0.0, "pos_horiz_variance": 0.00040374122909270227, "pos_vert_variance": 0.028968647122383118}}, "errors": ["PreArm: Hardware safety switch", "PreArm: Battery 1 low voltage failsafe"]}
{"timestamp": "2026-01-15T14:14:21.476707Z", "telemetry": {"lat": 28.7530059, "lon": 77.1179622, "satellites": 0, "altitude_gps_m": 0.28999999165534973, "groundspeed_mps": 0.006250643637031317}, "flight": {"mode": "STABILIZE", "armed": false}, "ekf": {"attitude": {"roll": 0.023317405954003334, "pitch": 0.0028030097018927336, "yaw": -0.5117599964141846}, "local_position": {"x": null, "y": null, "z": null}, "status": {"flags": 135, "velocity_variance": 0.0, "pos_horiz_variance": 0.0007983228424564004, "pos_vert_variance": 0.006152565591037273}}, "errors": ["PreArm: Hardware safety switch", "PreArm: Battery 1 low voltage failsafe"]}
{"timestamp": "2026-01-15T14:14:22.513772Z", "telemetry": {"lat": 28.7530059, "lon": 77.1179622, "satellites": 0, "altitude_gps_m": 0.28999999165534973, "groundspeed_mps": 0.003620969830080867}, "flight": {"mode": "STABILIZE", "armed": false}, "ekf": {"attitude": {"roll": 0.023359766229987144, "pitch": 0.002738438779488206, "yaw": -0.5116750001907349}, "local_position": {"x": null, "y": null, "z": null}, "status": {"flags": 135, "velocity_variance": 0.0, "pos_horiz_variance": 0.0011417060159146786, "pos_vert_variance": 0.05317885801196098}}, "errors": ["PreArm: Hardware safety switch", "PreArm: Battery 1 low voltage failsafe"]}
{"timestamp": "2026-01-15T14:14:23.513226Z", "telemetry": {"lat": 28.7530059, "lon": 77.1179622, "satellites": 0, "altitude_gps_m": 0.28999999165534973, "groundspeed_mps": 0.00290644820779562}, "flight": {"mode": "STABILIZE", "armed": false}, "ekf": {"attitude": {"roll": 0.023432957008481026, "pitch": 0.002635092241689563, "yaw": -0.5116186738014221}, "local_position": {"x": null, "y": null, "z": null}, "status": {"flags": 135, "velocity_variance": 0.0, "pos_horiz_variance": 0.0006922304164618254, "pos_vert_variance": 0.03295702114701271}}, "errors": ["PreArm: Hardware safety switch", "PreArm: Battery 1 low voltage failsafe"]}
{"timestamp": "2026-01-15T14:14:24.469307Z", "telemetry": {"lat": 28.7530059, "lon": 77.1179622, "satellites": 0, "altitude_gps_m": 0.28999999165534973, "groundspeed_mps": 0.006391514092683792}, "flight": {"mode": "STABILIZE", "armed": false}, "ekf": {"attitude": {"roll": 0.023404451087117195, "pitch": 0.0026663572061806917, "yaw": -0.5117229223251343}, "local_position": {"x": null, "y": null, "z": null}, "status": {"flags": 135, "velocity_variance": 0.0, "pos_horiz_variance": 0.0007825388456694782, "pos_vert_variance": 0.03944961354136467}}, "errors": ["PreArm: Hardware safety switch", "PreArm: Battery 1 low voltage failsafe"]}
{"timestamp": "2026-01-15T14:14:25.468681Z", "telemetry": {"lat": 28.7530059, "lon": 77.1179622, "satellites": 0, "altitude_gps_m": 0.28999999165534973, "groundspeed_mps": 0.005406683310866356}, "flight": {"mode": "STABILIZE", "armed": false}, "ekf": {"attitude": {"roll": 0.02339540608227253, "pitch": 0.002741261152550578, "yaw": -0.511752188205719}, "local_position": {"x": null, "y": null, "z": null}, "status": {"flags": 135, "velocity_variance": 0.0, "pos_horiz_variance": 0.001232918701134622, "pos_vert_variance": 0.025705458596348763}}, "errors": ["PreArm: Hardware safety switch", "PreArm: Battery 1 low voltage failsafe"]}
{"timestamp": "2026-01-15T14:14:26.469550Z", "telemetry": {"lat": 28.7530059, "lon": 77.1179622, "satellites": 0, "altitude_gps_m": 0.28999999165534973, "groundspeed_mps": 0.004641822073608637}, "flight": {"mode": "STABILIZE", "armed": false}, "ekf": {"attitude": {"roll": 0.023325441405177116, "pitch": 0.0027743359096348286, "yaw": -0.5118112564086914}, "local_position": {"x": null, "y": null, "z": null}, "status": {"flags": 135, "velocity_variance": 0.0, "pos_horiz_variance": 0.0012035678373649716, "pos_vert_variance": 0.05942055583000183}}, "errors": ["PreArm: Hardware safety switch", "PreArm: Battery 1 low voltage failsafe"]}
{"timestamp": "2026-01-15T14:14:27.517396Z", "telemetry": {"lat": 28.7530059, "lon": 77.1179622, "satellites": 0, "altitude_gps_m": 0.28999999165534973, "groundspeed_mps": 0.005145952105522156}, "flight": {"mode": "STABILIZE", "armed": false}, "ekf": {"attitude": {"roll": 0.023442521691322327, "pitch": 0.00281524402089417, "yaw": -0.5117835402488708}, "local_position": {"x": null, "y": null, "z": null}, "status": {"flags": 135, "velocity_variance": 0.0, "pos_horiz_variance": 0.001290099578909576, "pos_vert_variance": 0.02995649166405201}}, "errors": ["PreArm: Hardware safety switch", "PreArm: Battery 1 low voltage failsafe"]}
{"timestamp": "2026-01-15T14:14:28.483618Z", "telemetry": {"lat": 28.7530059, "lon": 77.1179622, "satellites": 0, "altitude_gps_m": 0.28999999165534973, "groundspeed_mps": 0.005243898835033178}, "flight": {"mode": "STABILIZE", "armed": false}, "ekf": {"attitude": {"roll": 0.023425068706274033, "pitch": 0.0028782421723008156, "yaw": -0.5116879940032959}, "local_position": {"x": null, "y": null, "z": null}, "status": {"flags": 135, "velocity_variance": 0.0, "pos_horiz_variance": 0.0013047278625890613, "pos_vert_variance": 0.08186300098896027}}, "errors": ["PreArm: Hardware safety switch", "PreArm: Battery 1 low voltage failsafe"]}
