{"timestamp": "2026-01-15T12:56:12.824611Z", "telemetry": {"lat": 28.7530629, "lon": 77.1178661, "satellites": 9, "altitude_gps_m": 211.01998901367188, "groundspeed_mps": 0.05787790194153786}, "flight": {"mode": "STABILIZE", "armed": false}, "ekf": {"attitude": {"roll": 0.049398306757211685, "pitch": -0.003434064332395792, "yaw": -1.9146782159805298}, "local_position": {"x": -2.8809731006622314, "y": -2.85911226272583, "z": 1.3052152395248413}, "status": {"flags": 33599, "velocity_variance": 0.03315839543938637, "pos_horiz_variance": 0.022642191499471664, "pos_vert_variance": 0.0479649119079113}}, "errors": []}
{"timestamp": "2026-01-15T12:56:13.895703Z", "telemetry": {"lat": 28.7530629, "lon": 77.1178661, "satellites": 9, "altitude_gps_m": 211.0800018310547, "groundspeed_mps": 0.03533008322119713}, "flight": {"mode": "STABILIZE", "armed": false}, "ekf": {"attitude": {"roll": 0.04858391359448433, "pitch": -0.003288057167083025, "yaw": -1.914673924446106}, "local_position": {"x": -2.8809731006622314, "y": -2.85911226272583, "z": 1.3052152395248413}, "status": {"flags": 33599, "velocity_variance": 0.03315839543938637, "pos_horiz_variance": 0.022642191499471664, "pos_vert_variance": 0.0479649119079113}}, "errors": []}
{"timestamp": "2026-01-15T12:56:14.938927Z", "telemetry": {"lat": 28.753057, "lon": 77.1178717, "satellites": 9, "altitude_gps_m": 211.11000061035156, "groundspeed_mps": 0.07939990609884262}, "flight": {"mode": "STABILIZE", "armed": false}, "ekf": {"attitude": {"roll": 0.047916438430547714, "pitch": -0.0035272552631795406, "yaw": -1.9147343635559082}, "local_position": {"x": -3.151456832885742, "y": -2.407383441925049, "z": 1.2171722650527954}, "status": {"flags": 33599, "velocity_variance": 0.05395841225981712, "pos_horiz_variance": 0.027578044682741165, "pos_vert_variance": 0.017991840839385986}}, "errors": []}
{"timestamp": "2026-01-15T12:56:16.000023Z", "telemetry": {"lat": 28.7530566, "lon": 77.1178757, "satellites": 9, "altitude_gps_m": 211.13999938964844, "groundspeed_mps": 0.14310167729854584}, "flight": {"mode": "STABILIZE", "armed": false}, "ekf": {"attitude": {"roll": 0.04807004705071449, "pitch": -0.00267199007794261, "yaw": -1.9148223400115967}, "local_position": {"x": -3.212151050567627, "y": -2.054018020629883, "z": 1.186177372932434}, "status": {"flags": 33599, "velocity_variance": 0.05093199759721756, "pos_horiz_variance": 0.029026715084910393, "pos_vert_variance": 0.050530508160591125}}, "errors": []}
{"timestamp": "2026-01-15T12:56:16.999604Z", "telemetry": {"lat": 28.7530534, "lon": 77.1178755, "satellites": 9, "altitude_gps_m": 211.13999938964844, "groundspeed_mps": 0.16936244070529938}, "flight": {"mode": "STABILIZE", "armed": false}, "ekf": {"attitude": {"roll": 0.047886501997709274, "pitch": -0.0032744682393968105, "yaw": -1.9147801399230957}, "local_position": {"x": -3.41831636428833, "y": -1.859748125076294, "z": 1.1862599849700928}, "status": {"flags": 33599, "velocity_variance": 0.11949745565652847, "pos_horiz_variance": 0.02604752779006958, "pos_vert_variance": 0.08875083923339844}}, "errors": []}
{"timestamp": "2026-01-15T12:56:17.999623Z", "telemetry": {"lat": 28.7530534, "lon": 77.1178853, "satellites": 9, "altitude_gps_m": 211.12998962402344, "groundspeed_mps": 0.20810799300670624}, "flight": {"mode": "STABILIZE", "armed": false}, "ekf": {"attitude": {"roll": 0.04902472347021103, "pitch": -0.0025761229917407036, "yaw": -1.914818525314331}, "local_position": {"x": -3.413632392883301, "y": -1.2920117378234863, "z": 1.1963024139404297}, "status": {"flags": 33599, "velocity_variance": 0.04343211650848389, "pos_horiz_variance": 0.03449702635407448, "pos_vert_variance": 0.041176553815603256}}, "errors": []}
{"timestamp": "2026-01-15T12:56:18.999590Z", "telemetry": {"lat": 28.7530555, "lon": 77.1178911, "satellites": 9, "altitude_gps_m": 211.05999755859375, "groundspeed_mps": 0.2659505009651184}, "flight": {"mode": "STABILIZE", "armed": false}, "ekf": {"attitude": {"roll": 0.0498523935675621, "pitch": -0.0018580942414700985, "yaw": -1.9148321151733398}, "local_position": {"x": -3.293030261993408, "y": -0.8487187623977661, "z": 1.2652736902236938}, "status": {"flags": 33599, "velocity_variance": 0.24311023950576782, "pos_horiz_variance": 0.03662567585706711, "pos_vert_variance": 0.003361293813213706}}, "errors": []}
{"timestamp": "2026-01-15T12:56:19.975048Z", "telemetry": {"lat": 28.753057, "lon": 77.1178972, "satellites": 8, "altitude_gps_m": 211.1199951171875, "groundspeed_mps": 0.3445442318916321}, "flight": {"mode": "STABILIZE", "armed": false}, "ekf": {"attitude": {"roll": 0.050882380455732346, "pitch": -0.001112089492380619, "yaw": -1.9148887395858765}, "local_position": {"x": -3.102464437484741, "y": -0.342535138130188, "z": 1.2005661725997925}, "status": {"flags": 33599, "velocity_variance": 0.15984585881233215, "pos_horiz_variance": 0.03891464322805405, "pos_vert_variance": 0.017606012523174286}}, "errors": []}
{"timestamp": "2026-01-15T12:56:20.997065Z", "telemetry": {"lat": 28.7530565, "lon": 77.1178998, "satellites": 9, "altitude_gps_m": 211.1199951171875, "groundspeed_mps": 0.4192247986793518}, "flight": {"mode": "STABILIZE", "armed": false}, "ekf": {"attitude": {"roll": 0.05026759207248688, "pitch": -0.0011614379473030567, "yaw": -1.9146708250045776}, "local_position": {"x": -2.9989113807678223, "y": 0.17731061577796936, "z": 1.2378859519958496}, "status": {"flags": 33599, "velocity_variance": 0.14948369562625885, "pos_horiz_variance": 0.03500950708985329, "pos_vert_variance": 0.03889943286776543}}, "errors": []}
{"timestamp": "2026-01-15T12:56:21.990431Z", "telemetry": {"lat": 28.7530533, "lon": 77.1179047, "satellites": 9, "altitude_gps_m": 211.22999572753906, "groundspeed_mps": 0.4195805788040161}, "flight": {"mode": "STABILIZE", "armed": false}, "ekf": {"attitude": {"roll": 0.05119361728429794, "pitch": -0.0016384338960051537, "yaw": -1.9147142171859741}, "local_position": {"x": -3.20763897895813, "y": 0.9530341029167175, "z": 1.0952067375183105}, "status": {"flags": 33599, "velocity_variance": 0.19549256563186646, "pos_horiz_variance": 0.03156247362494469, "pos_vert_variance": 0.08825665712356567}}, "errors": ["PreArm: Hardware safety switch", "PreArm: Compasses inconsistent"]}
{"timestamp": "2026-01-15T12:56:23.003773Z", "telemetry": {"lat": 28.7530566, "lon": 77.1179136, "satellites": 9, "altitude_gps_m": 211.1699981689453, "groundspeed_mps": 0.46354883909225464}, "flight": {"mode": "STABILIZE", "armed": false}, "ekf": {"attitude": {"roll": 0.05211319401860237, "pitch": -0.0013398248702287674, "yaw": -1.914591670036316}, "local_position": {"x": -2.992443084716797, "y": 1.493564486503601, "z": 1.1514592170715332}, "status": {"flags": 33599, "velocity_variance": 0.2790678143501282, "pos_horiz_variance": 0.03589716553688049, "pos_vert_variance": 0.04403496906161308}}, "errors": ["PreArm: Hardware safety switch", "PreArm: Compasses inconsistent"]}
{"timestamp": "2026-01-15T12:56:23.995504Z", "telemetry": {"lat": 28.7530618, "lon": 77.1179217, "satellites": 9, "altitude_gps_m": 211.25999450683594, "groundspeed_mps": 0.5897639989852905}, "flight": {"mode": "STABILIZE", "armed": false}, "ekf": {"attitude": {"roll": 0.05380067229270935, "pitch": -0.0006387806497514248, "yaw": -1.9149326086044312}, "local_position": {"x": -2.5454273223876953, "y": 2.1963374614715576, "z": 1.0796319246292114}, "status": {"flags": 33599, "velocity_variance": 0.3152853548526764, "pos_horiz_variance": 0.036986615508794785, "pos_vert_variance": 0.004050201270729303}}, "errors": ["PreArm: Hardware safety switch", "PreArm: Compasses inconsistent"]}
{"timestamp": "2026-01-15T12:56:24.999604Z", "telemetry": {"lat": 28.7530644, "lon": 77.1179266, "satellites": 9, "altitude_gps_m": 211.3300018310547, "groundspeed_mps": 0.6479544639587402}, "flight": {"mode": "STABILIZE", "armed": false}, "ekf": {"attitude": {"roll": 0.05380247160792351, "pitch": -0.0006198766641318798, "yaw": -1.9151744842529297}, "local_position": {"x": -2.1506619453430176, "y": 2.9812939167022705, "z": 0.9897798895835876}, "status": {"flags": 33599, "velocity_variance": 0.21240025758743286, "pos_horiz_variance": 0.03249825909733772, "pos_vert_variance": 0.0750235840678215}}, "errors": ["PreArm: Hardware safety switch", "PreArm: Compasses inconsistent"]}
{"timestamp": "2026-01-15T12:56:25.999021Z", "telemetry": {"lat": 28.7530633, "lon": 77.1179252, "satellites": 9, "altitude_gps_m": 211.4099884033203, "groundspeed_mps": 0.5854609608650208}, "flight": {"mode": "STABILIZE", "armed": false}, "ekf": {"attitude": {"roll": 0.05308760702610016, "pitch": -0.002033290918916464, "yaw": -1.9152534008026123}, "local_position": {"x": -2.2203609943389893, "y": 3.31449556350708, "z": 0.9167786836624146}, "status": {"flags": 33599, "velocity_variance": 0.14947691559791565, "pos_horiz_variance": 0.023026118054986, "pos_vert_variance": 0.03311515226960182}}, "errors": ["PreArm: Hardware safety switch", "PreArm: Compasses inconsistent"]}
{"timestamp": "2026-01-15T12:56:27.000149Z", "telemetry": {"lat": 28.7530666, "lon": 77.1179273, "satellites": 9, "altitude_gps_m": 211.39999389648438, "groundspeed_mps": 0.5967620611190796}, "flight": {"mode": "STABILIZE", "armed": false}, "ekf": {"attitude": {"roll": 0.05358632653951645, "pitch": -0.0024391277693212032, "yaw": -1.9152628183364868}, "local_position": {"x": -1.9656028747558594, "y": 3.908015251159668, "z": 0.9234468340873718}, "status": {"flags": 33599, "velocity_variance": 0.1647394448518753, "pos_horiz_variance": 0.014564787968993187, "pos_vert_variance": 0.04916253313422203}}, "errors": ["PreArm: Hardware safety switch", "PreArm: Compasses inconsistent"]}
{"timestamp": "2026-01-15T12:56:27.993826Z", "telemetry": {"lat": 28.7530672, "lon": 77.117927, "satellites": 9, "altitude_gps_m": 211.37998962402344, "groundspeed_mps": 0.55427485704422}, "flight": {"mode": "STABILIZE", "armed": false}, "ekf": {"attitude": {"roll": 0.0530775748193264, "pitch": -0.0035832547582685947, "yaw": -1.9153245687484741}, "local_position": {"x": -1.8390321731567383, "y": 4.255617141723633, "z": 0.9512465596199036}, "status": {"flags": 33599, "velocity_variance": 0.13292092084884644, "pos_horiz_variance": 0.014287734404206276, "pos_vert_variance": 0.11427593976259232}}, "errors": ["PreArm: Hardware safety switch", "PreArm: Compasses inconsistent"]}
{"timestamp": "2026-01-15T12:56:28.995735Z", "telemetry": {"lat": 28.7530651, "lon": 77.1179222, "satellites": 9, "altitude_gps_m": 211.36000061035156, "groundspeed_mps": 0.4167627990245819}, "flight": {"mode": "STABILIZE", "armed": false}, "ekf": {"attitude": {"roll": 0.05204308032989502, "pitch": -0.005724243354052305, "yaw": -1.915399193763733}, "local_position": {"x": -1.9582266807556152, "y": 4.3118438720703125, "z": 0.9645161032676697}, "status": {"flags": 33599, "velocity_variance": 0.20942136645317078, "pos_horiz_variance": 0.023389428853988647, "pos_vert_variance": 0.019064344465732574}}, "errors": ["PreArm: Hardware safety switch", "PreArm: Compasses inconsistent"]}
{"timestamp": "2026-01-15T12:56:29.972559Z", "telemetry": {"lat": 28.753066, "lon": 77.1179204, "satellites": 8, "altitude_gps_m": 211.2899932861328, "groundspeed_mps": 0.30773645639419556}, "flight": {"mode": "STABILIZE", "armed": false}, "ekf": {"attitude": {"roll": 0.05207743123173714, "pitch": -0.007042097393423319, "yaw": -1.915453314781189}, "local_position": {"x": -1.9803270101547241, "y": 4.257136821746826, "z": 1.0398682355880737}, "status": {"flags": 33599, "velocity_variance": 0.0739489197731018, "pos_horiz_variance": 0.023673174902796745, "pos_vert_variance": 0.051487747579813004}}, "errors": ["PreArm: Hardware safety switch", "PreArm: Compasses inconsistent"]}
{"timestamp": "2026-01-15T12:56:30.971459Z", "telemetry": {"lat": 28.7530653, "lon": 77.1179186, "satellites": 8, "altitude_gps_m": 211.14999389648438, "groundspeed_mps": 0.1519041806459427}, "flight": {"mode": "STABILIZE", "armed": false}, "ekf": {"attitude": {"roll": 0.051492154598236084, "pitch": -0.009220080450177193, "yaw": -1.9155035018920898}, "local_position": {"x": -2.123873233795166, "y": 3.9937021732330322, "z": 1.1707991361618042}, "status": {"flags": 33599, "velocity_variance": 0.0742439329624176, "pos_horiz_variance": 0.02257143147289753, "pos_vert_variance": 0.05955216661095619}}, "errors": ["PreArm: Hardware safety switch", "PreArm: Compasses inconsistent"]}
{"timestamp": "2026-01-15T12:56:31.969246Z", "telemetry": {"lat": 28.7530644, "lon": 77.1179193, "satellites": 8, "altitude_gps_m": 211.14999389648438, "groundspeed_mps": 0.051495447754859924}, "flight": {"mode": "STABILIZE", "armed": false}, "ekf": {"attitude": {"roll": 0.05076955631375313, "pitch": -0.010185480117797852, "yaw": -1.915704369544983}, "local_position": {"x": -2.2572247982025146, "y": 3.882234573364258, "z": 1.169285535812378}, "status": {"flags": 33599, "velocity_variance": 0.09706498682498932, "pos_horiz_variance": 0.01965930126607418, "pos_vert_variance": 0.06484012305736542}}, "errors": ["PreArm: Hardware safety switch", "PreArm: Compasses inconsistent"]}
{"timestamp": "2026-01-15T12:56:32.969284Z", "telemetry": {"lat": 28.7530632, "lon": 77.1179238, "satellites": 10, "altitude_gps_m": 211.14999389648438, "groundspeed_mps": 0.03793272003531456}, "flight": {"mode": "STABILIZE", "armed": false}, "ekf": {"attitude": {"roll": 0.049978867173194885, "pitch": -0.010149277746677399, "yaw": -1.9159317016601562}, "local_position": {"x": -2.509787082672119, "y": 3.85587215423584, "z": 1.1777228116989136}, "status": {"flags": 33599, "velocity_variance": 0.1482856571674347, "pos_horiz_variance": 0.010874838568270206, "pos_vert_variance": 0.05065471678972244}}, "errors": ["PreArm: Hardware safety switch", "PreArm: Compasses inconsistent"]}
{"timestamp": "2026-01-15T12:56:33.999262Z", "telemetry": {"lat": 28.7530642, "lon": 77.1179282, "satellites": 10, "altitude_gps_m": 211.12998962402344, "groundspeed_mps": 0.05310394987463951}, "flight": {"mode": "STABILIZE", "armed": false}, "ekf": {"attitude": {"roll": 0.04951649531722069, "pitch": -0.009759554639458656, "yaw": -1.9161264896392822}, "local_position": {"x": -2.6008427143096924, "y": 4.020341396331787, "z": 1.1990141868591309}, "status": {"flags": 33599, "velocity_variance": 0.11968068033456802, "pos_horiz_variance": 0.00751652242615819, "pos_vert_variance": 0.028252754360437393}}, "errors": ["PreArm: Hardware safety switch", "PreArm: Compasses inconsistent"]}
{"timestamp": "2026-01-15T12:56:34.992492Z", "telemetry": {"lat": 28.7530652, "lon": 77.1179302, "satellites": 10, "altitude_gps_m": 211.17999267578125, "groundspeed_mps": 0.024849707260727882}, "flight": {"mode": "STABILIZE", "armed": false}, "ekf": {"attitude": {"roll": 0.05009711533784866, "pitch": -0.008996779099106789, "yaw": -1.9161502122879028}, "local_position": {"x": -2.589705467224121, "y": 4.159661293029785, "z": 1.1755586862564087}, "status": {"flags": 33599, "velocity_variance": 0.16617242991924286, "pos_horiz_variance": 0.005979030393064022, "pos_vert_variance": 0.029856326058506966}}, "errors": ["PreArm: Hardware safety switch", "PreArm: Compasses inconsistent"]}
{"timestamp": "2026-01-15T12:56:35.989471Z", "telemetry": {"lat": 28.7530717, "lon": 77.1179365, "satellites": 10, "altitude_gps_m": 211.17999267578125, "groundspeed_mps": 0.08966563642024994}, "flight": {"mode": "STABILIZE", "armed": false}, "ekf": {"attitude": {"roll": 0.051316969096660614, "pitch": -0.007625293452292681, "yaw": -1.9161750078201294}, "local_position": {"x": -2.14962100982666, "y": 4.497313976287842, "z": 1.150252103805542}, "status": {"flags": 33599, "velocity_variance": 0.16055849194526672, "pos_horiz_variance": 0.013062701560556889, "pos_vert_variance": 0.012370950542390347}}, "errors": ["PreArm: Hardware safety switch", "PreArm: Compasses inconsistent"]}
{"timestamp": "2026-01-15T12:56:37.002163Z", "telemetry": {"lat": 28.753077, "lon": 77.1179384, "satellites": 10, "altitude_gps_m": 211.1699981689453, "groundspeed_mps": 0.19934096932411194}, "flight": {"mode": "STABILIZE", "armed": false}, "ekf": {"attitude": {"roll": 0.0524011105298996, "pitch": -0.006890992168337107, "yaw": -1.9162795543670654}, "local_position": {"x": -1.644948959350586, "y": 4.702245235443115, "z": 1.1521217823028564}, "status": {"flags": 33599, "velocity_variance": 0.1080639660358429, "pos_horiz_variance": 0.014544895850121975, "pos_vert_variance": 0.08195340633392334}}, "errors": ["PreArm: Hardware safety switch", "PreArm: Compasses inconsistent"]}
