{"timestamp": "2025-12-28T10:52:03.868614Z", "telemetry": {"lat": null, "lon": null, "satellites": null, "altitude_gps_m": null, "groundspeed_mps": null}, "flight": {"mode": "LOITER", "armed": false}, "ekf": {"attitude": {"roll": -0.02780277654528618, "pitch": -0.004064974840730429, "yaw": 3.045727491378784}, "local_position": {"x": null, "y": null, "z": null}, "status": {"flags": null, "velocity_variance": null, "pos_horiz_variance": null, "pos_vert_variance": null}}, "errors": ["PreArm: Hardware safety switch", "PreArm: GPS glitching", "PreArm: Internal errors 0x100000 l:66 flow_of_ctrl"]}
{"timestamp": "2025-12-28T10:52:04.868754Z", "telemetry": {"lat": 28.75321, "lon": 77.117797, "satellites": 9, "altitude_gps_m": 213.25, "groundspeed_mps": 0.221390962600708}, "flight": {"mode": "LOITER", "armed": false}, "ekf": {"attitude": {"roll": -0.028180669993162155, "pitch": -0.0035740151070058346, "yaw": 3.04555082321167}, "local_position": {"x": 14.781087875366211, "y": -7.815210819244385, "z": -4.322465419769287}, "status": {"flags": 33599, "velocity_variance": 0.14810152351856232, "pos_horiz_variance": 0.004647021647542715, "pos_vert_variance": 0.01108901109546423}}, "errors": ["PreArm: Hardware safety switch", "PreArm: GPS glitching", "PreArm: Internal errors 0x100000 l:66 flow_of_ctrl"]}
{"timestamp": "2025-12-28T10:52:05.868773Z", "telemetry": {"lat": 28.7532103, "lon": 77.1177972, "satellites": 9, "altitude_gps_m": 213.20999145507812, "groundspeed_mps": 0.21111945807933807}, "flight": {"mode": "LOITER", "armed": false}, "ekf": {"attitude": {"roll": -0.02867191657423973, "pitch": -0.0030051213689148426, "yaw": 3.045440435409546}, "local_position": {"x": 14.814984321594238, "y": -7.874876976013184, "z": -4.278863906860352}, "status": {"flags": 33599, "velocity_variance": 0.09148916602134705, "pos_horiz_variance": 0.005675980821251869, "pos_vert_variance": 0.0024463015142828226}}, "errors": ["PreArm: Hardware safety switch", "PreArm: GPS glitching", "PreArm: Internal errors 0x100000 l:66 flow_of_ctrl"]}
{"timestamp": "2025-12-28T10:52:06.868321Z", "telemetry": {"lat": 28.7532119, "lon": 77.1177968, "satellites": 10, "altitude_gps_m": 213.22999572753906, "groundspeed_mps": 0.2183224856853485}, "flight": {"mode": "LOITER", "armed": false}, "ekf": {"attitude": {"roll": -0.028884414583444595, "pitch": -0.002671280410140753, "yaw": 3.045454263687134}, "local_position": {"x": 15.023489952087402, "y": -7.947387218475342, "z": -4.288732051849365}, "status": {"flags": 33599, "velocity_variance": 0.035178735852241516, "pos_horiz_variance": 0.006156607996672392, "pos_vert_variance": 0.01851864717900753}}, "errors": ["PreArm: Hardware safety switch", "PreArm: GPS glitching", "PreArm: Internal errors 0x100000 l:66 flow_of_ctrl"]}
{"timestamp": "2025-12-28T10:52:07.868244Z", "telemetry": {"lat": 28.7532108, "lon": 77.1177941, "satellites": 9, "altitude_gps_m": 213.25999450683594, "groundspeed_mps": 0.22857685387134552}, "flight": {"mode": "LOITER", "armed": false}, "ekf": {"attitude": {"roll": -0.02904113009572029, "pitch": -0.002717269118875265, "yaw": 3.045276641845703}, "local_position": {"x": 15.070070266723633, "y": -8.077016830444336, "z": -4.306415557861328}, "status": {"flags": 33599, "velocity_variance": 0.08846630901098251, "pos_horiz_variance": 0.002815099898725748, "pos_vert_variance": 0.027923017740249634}}, "errors": ["PreArm: Hardware safety switch", "PreArm: GPS glitching", "PreArm: Internal errors 0x100000 l:66 flow_of_ctrl"]}
{"timestamp": "2025-12-28T10:52:08.868542Z", "telemetry": {"lat": 28.7532106, "lon": 77.1177947, "satellites": 9, "altitude_gps_m": 213.34999084472656, "groundspeed_mps": 0.2338820844888687}, "flight": {"mode": "LOITER", "armed": false}, "ekf": {"attitude": {"roll": -0.02930423989892006, "pitch": -0.0029073101468384266, "yaw": 3.045171022415161}, "local_position": {"x": 15.06956672668457, "y": -8.214705467224121, "z": -4.428279876708984}, "status": {"flags": 33599, "velocity_variance": 0.2692374587059021, "pos_horiz_variance": 0.0065927449613809586, "pos_vert_variance": 0.04606914892792702}}, "errors": ["PreArm: Hardware safety switch", "PreArm: GPS glitching", "PreArm: Internal errors 0x100000 l:66 flow_of_ctrl"]}
{"timestamp": "2025-12-28T10:52:09.868208Z", "telemetry": {"lat": 28.7532101, "lon": 77.1177906, "satellites": 9, "altitude_gps_m": 213.3199920654297, "groundspeed_mps": 0.2579723000526428}, "flight": {"mode": "LOITER", "armed": false}, "ekf": {"attitude": {"roll": -0.029283899813890457, "pitch": -0.00248291390016675, "yaw": 3.045309543609619}, "local_position": {"x": 15.115130424499512, "y": -8.36058521270752, "z": -4.418109893798828}, "status": {"flags": 33599, "velocity_variance": 0.0584954135119915, "pos_horiz_variance": 0.0039579360745847225, "pos_vert_variance": 0.029132841154932976}}, "errors": ["PreArm: Hardware safety switch", "PreArm: GPS glitching", "PreArm: Internal errors 0x100000 l:66 flow_of_ctrl"]}
{"timestamp": "2025-12-28T10:52:10.868572Z", "telemetry": {"lat": 28.7532088, "lon": 77.11779, "satellites": 9, "altitude_gps_m": 213.2899932861328, "groundspeed_mps": 0.26110488176345825}, "flight": {"mode": "LOITER", "armed": false}, "ekf": {"attitude": {"roll": -0.029686514288187027, "pitch": -0.002571915742009878, "yaw": 3.0453505516052246}, "local_position": {"x": 15.1650972366333, "y": -8.549311637878418, "z": -4.364541530609131}, "status": {"flags": 33599, "velocity_variance": 0.10653632134199142, "pos_horiz_variance": 0.0074737342074513435, "pos_vert_variance": 0.020609822124242783}}, "errors": ["PreArm: Hardware safety switch", "PreArm: GPS glitching", "PreArm: Internal errors 0x100000 l:66 flow_of_ctrl"]}
{"timestamp": "2025-12-28T10:52:11.868510Z", "telemetry": {"lat": 28.7532076, "lon": 77.1177924, "satellites": 9, "altitude_gps_m": 213.1999969482422, "groundspeed_mps": 0.20270997285842896}, "flight": {"mode": "LOITER", "armed": false}, "ekf": {"attitude": {"roll": -0.030785661190748215, "pitch": -0.0030122785829007626, "yaw": 3.0452959537506104}, "local_position": {"x": 15.089259147644043, "y": -8.499471664428711, "z": -4.278946399688721}, "status": {"flags": 33599, "velocity_variance": 0.11862379312515259, "pos_horiz_variance": 0.010179834440350533, "pos_vert_variance": 0.049236197024583817}}, "errors": ["PreArm: Hardware safety switch", "PreArm: GPS glitching", "PreArm: Internal errors 0x100000 l:66 flow_of_ctrl"]}
{"timestamp": "2025-12-28T10:52:12.868294Z", "telemetry": {"lat": 28.7532064, "lon": 77.1177882, "satellites": 9, "altitude_gps_m": 213.20999145507812, "groundspeed_mps": 0.23355689644813538}, "flight": {"mode": "LOITER", "armed": false}, "ekf": {"attitude": {"roll": -0.030384976416826248, "pitch": -0.0030516372062265873, "yaw": 3.045311450958252}, "local_position": {"x": 15.083427429199219, "y": -8.724468231201172, "z": -4.280688285827637}, "status": {"flags": 33599, "velocity_variance": 0.19166506826877594, "pos_horiz_variance": 0.012033709324896336, "pos_vert_variance": 0.06889480352401733}}, "errors": ["PreArm: Hardware safety switch", "PreArm: GPS glitching", "PreArm: Internal errors 0x100000 l:66 flow_of_ctrl"]}
{"timestamp": "2025-12-28T10:52:13.867859Z", "telemetry": {"lat": 28.7532059, "lon": 77.1177891, "satellites": 9, "altitude_gps_m": 213.17999267578125, "groundspeed_mps": 0.20172572135925293}, "flight": {"mode": "LOITER", "armed": false}, "ekf": {"attitude": {"roll": -0.03090774640440941, "pitch": -0.0034330380149185658, "yaw": 3.0453267097473145}, "local_position": {"x": 14.985722541809082, "y": -8.7733154296875, "z": -4.25897216796875}, "status": {"flags": 33599, "velocity_variance": 0.13366234302520752, "pos_horiz_variance": 0.012179057113826275, "pos_vert_variance": 0.01627299189567566}}, "errors": ["PreArm: Hardware safety switch", "PreArm: GPS glitching", "PreArm: Internal errors 0x100000 l:66 flow_of_ctrl"]}
{"timestamp": "2025-12-28T10:52:14.867994Z", "telemetry": {"lat": 28.7532042, "lon": 77.1177894, "satellites": 10, "altitude_gps_m": 213.12998962402344, "groundspeed_mps": 0.15054801106452942}, "flight": {"mode": "LOITER", "armed": false}, "ekf": {"attitude": {"roll": -0.03132084384560585, "pitch": -0.0039950464852154255, "yaw": 3.0453202724456787}, "local_position": {"x": 14.797250747680664, "y": -8.730072021484375, "z": -4.203185558319092}, "status": {"flags": 33599, "velocity_variance": 0.15083202719688416, "pos_horiz_variance": 0.012135586701333523, "pos_vert_variance": 0.047621000558137894}}, "errors": ["PreArm: Hardware safety switch", "PreArm: GPS glitching", "PreArm: Internal errors 0x100000 l:66 flow_of_ctrl"]}
{"timestamp": "2025-12-28T10:52:15.868245Z", "telemetry": {"lat": 28.7532051, "lon": 77.1177866, "satellites": 10, "altitude_gps_m": 213.20999145507812, "groundspeed_mps": 0.17844155430793762}, "flight": {"mode": "LOITER", "armed": false}, "ekf": {"attitude": {"roll": -0.031013380736112595, "pitch": -0.004194664303213358, "yaw": 3.045165538787842}, "local_position": {"x": 14.7801513671875, "y": -8.909823417663574, "z": -4.286595821380615}, "status": {"flags": 33599, "velocity_variance": 0.104256771504879, "pos_horiz_variance": 0.009621480479836464, "pos_vert_variance": 0.008278567343950272}}, "errors": ["PreArm: Hardware safety switch", "PreArm: GPS glitching", "PreArm: Internal errors 0x100000 l:66 flow_of_ctrl"]}
{"timestamp": "2025-12-28T10:52:16.868168Z", "telemetry": {"lat": 28.7532039, "lon": 77.1177859, "satellites": 10, "altitude_gps_m": 213.17999267578125, "groundspeed_mps": 0.14068306982517242}, "flight": {"mode": "LOITER", "armed": false}, "ekf": {"attitude": {"roll": -0.031698476523160934, "pitch": -0.005058167967945337, "yaw": 3.0451436042785645}, "local_position": {"x": 14.603960990905762, "y": -8.97998332977295, "z": -4.249781608581543}, "status": {"flags": 33599, "velocity_variance": 0.1569894254207611, "pos_horiz_variance": 0.008947358466684818, "pos_vert_variance": 0.09892559796571732}}, "errors": ["PreArm: Hardware safety switch", "PreArm: GPS glitching", "PreArm: Internal errors 0x100000 l:66 flow_of_ctrl"]}
{"timestamp": "2025-12-28T10:52:17.868260Z", "telemetry": {"lat": 28.7532072, "lon": 77.1177825, "satellites": 10, "altitude_gps_m": 213.27999877929688, "groundspeed_mps": 0.15791326761245728}, "flight": {"mode": "LOITER", "armed": false}, "ekf": {"attitude": {"roll": -0.03109947219491005, "pitch": -0.004515002015978098, "yaw": 3.0452256202697754}, "local_position": {"x": 14.592854499816895, "y": -9.087170600891113, "z": -4.355328559875488}, "status": {"flags": 33599, "velocity_variance": 0.1685531735420227, "pos_horiz_variance": 0.0004418307216838002, "pos_vert_variance": 0.02762618102133274}}, "errors": ["PreArm: Hardware safety switch", "PreArm: GPS glitching", "PreArm: Internal errors 0x100000 l:66 flow_of_ctrl"]}
{"timestamp": "2025-12-28T10:52:18.867973Z", "telemetry": {"lat": 28.7532145, "lon": 77.1177783, "satellites": 10, "altitude_gps_m": 213.33999633789062, "groundspeed_mps": 0.2017107605934143}, "flight": {"mode": "LOITER", "armed": false}, "ekf": {"attitude": {"roll": -0.030947860330343246, "pitch": -0.003479470033198595, "yaw": 3.045105218887329}, "local_position": {"x": 14.886277198791504, "y": -9.328187942504883, "z": -4.416310787200928}, "status": {"flags": 33599, "velocity_variance": 0.3218725323677063, "pos_horiz_variance": 0.013396264053881168, "pos_vert_variance": 0.008870279416441917}}, "errors": ["PreArm: Hardware safety switch", "PreArm: GPS glitching", "PreArm: Internal errors 0x100000 l:66 flow_of_ctrl"]}
{"timestamp": "2025-12-28T10:52:19.868346Z", "telemetry": {"lat": 28.7532188, "lon": 77.1177745, "satellites": 10, "altitude_gps_m": 213.26998901367188, "groundspeed_mps": 0.2565142512321472}, "flight": {"mode": "LOITER", "armed": false}, "ekf": {"attitude": {"roll": -0.03120153769850731, "pitch": -0.0029229535721242428, "yaw": 3.045123338699341}, "local_position": {"x": 15.293070793151855, "y": -9.602849006652832, "z": -4.344425201416016}, "status": {"flags": 33599, "velocity_variance": 0.06718987226486206, "pos_horiz_variance": 0.015759460628032684, "pos_vert_variance": 0.00865532923489809}}, "errors": ["PreArm: Hardware safety switch", "PreArm: GPS glitching", "PreArm: Internal errors 0x100000 l:66 flow_of_ctrl"]}
{"timestamp": "2025-12-28T10:52:20.868520Z", "telemetry": {"lat": 28.7532197, "lon": 77.1177775, "satellites": 10, "altitude_gps_m": 213.25999450683594, "groundspeed_mps": 0.19817961752414703}, "flight": {"mode": "LOITER", "armed": false}, "ekf": {"attitude": {"roll": -0.032643165439367294, "pitch": -0.003549944143742323, "yaw": 3.0453040599823}, "local_position": {"x": 15.463809967041016, "y": -9.565082550048828, "z": -4.3348565101623535}, "status": {"flags": 33599, "velocity_variance": 0.32491958141326904, "pos_horiz_variance": 0.012643826194107533, "pos_vert_variance": 0.05381634458899498}}, "errors": ["PreArm: Hardware safety switch", "PreArm: GPS glitching", "PreArm: Internal errors 0x100000 l:66 flow_of_ctrl"]}
{"timestamp": "2025-12-28T10:52:21.872182Z", "telemetry": {"lat": 28.7532191, "lon": 77.1177816, "satellites": 10, "altitude_gps_m": 213.26998901367188, "groundspeed_mps": 0.07130551338195801}, "flight": {"mode": "LOITER", "armed": false}, "ekf": {"attitude": {"roll": -0.03403091058135033, "pitch": -0.0046472507528960705, "yaw": 3.0454227924346924}, "local_position": {"x": 15.353806495666504, "y": -9.233787536621094, "z": -4.350104331970215}, "status": {"flags": 33599, "velocity_variance": 0.12391559034585953, "pos_horiz_variance": 0.013950010761618614, "pos_vert_variance": 0.030574243515729904}}, "errors": ["PreArm: Hardware safety switch", "PreArm: GPS glitching", "PreArm: Internal errors 0x100000 l:66 flow_of_ctrl"]}
{"timestamp": "2025-12-28T10:52:22.868197Z", "telemetry": {"lat": 28.7532228, "lon": 77.1177773, "satellites": 10, "altitude_gps_m": 213.20999145507812, "groundspeed_mps": 0.14015460014343262}, "flight": {"mode": "LOITER", "armed": false}, "ekf": {"attitude": {"roll": -0.03407328948378563, "pitch": -0.003798880148679018, "yaw": 3.0456550121307373}, "local_position": {"x": 15.72266960144043, "y": -9.334254264831543, "z": -4.284775733947754}, "status": {"flags": 33599, "velocity_variance": 0.061980415135622025, "pos_horiz_variance": 0.014783531427383423, "pos_vert_variance": 0.04218832775950432}}, "errors": ["PreArm: Hardware safety switch", "PreArm: GPS glitching", "PreArm: Internal errors 0x100000 l:66 flow_of_ctrl"]}
{"timestamp": "2025-12-28T10:52:23.868255Z", "telemetry": {"lat": 28.7532177, "lon": 77.1177834, "satellites": 10, "altitude_gps_m": 213.1599884033203, "groundspeed_mps": 0.12386748939752579}, "flight": {"mode": "LOITER", "armed": false}, "ekf": {"attitude": {"roll": -0.035598274320364, "pitch": -0.005656385328620672, "yaw": 3.045870780944824}, "local_position": {"x": 15.530845642089844, "y": -8.9984130859375, "z": -4.231958389282227}, "status": {"flags": 33599, "velocity_variance": 0.1677113026380539, "pos_horiz_variance": 0.006224811542779207, "pos_vert_variance": 0.03596557304263115}}, "errors": ["PreArm: Hardware safety switch", "PreArm: GPS glitching", "PreArm: Internal errors 0x100000 l:66 flow_of_ctrl"]}
{"timestamp": "2025-12-28T10:52:24.871037Z", "telemetry": {"lat": 28.7532173, "lon": 77.1177832, "satellites": 10, "altitude_gps_m": 213.20999145507812, "groundspeed_mps": 0.16637471318244934}, "flight": {"mode": "LOITER", "armed": false}, "ekf": {"attitude": {"roll": -0.035659823566675186, "pitch": -0.006240167189389467, "yaw": 3.0460150241851807}, "local_position": {"x": 15.473526000976562, "y": -8.81229019165039, "z": -4.283217430114746}, "status": {"flags": 33599, "velocity_variance": 0.09960361570119858, "pos_horiz_variance": 0.00679346127435565, "pos_vert_variance": 0.03240576758980751}}, "errors": ["PreArm: Hardware safety switch", "PreArm: GPS glitching", "PreArm: Internal errors 0x100000 l:66 flow_of_ctrl"]}
{"timestamp": "2025-12-28T10:52:25.867947Z", "telemetry": {"lat": 28.7532246, "lon": 77.1177776, "satellites": 10, "altitude_gps_m": 213.22000122070312, "groundspeed_mps": 0.14243201911449432}, "flight": {"mode": "LOITER", "armed": false}, "ekf": {"attitude": {"roll": -0.03479715809226036, "pitch": -0.00482110446318984, "yaw": 3.046069860458374}, "local_position": {"x": 15.852778434753418, "y": -8.969844818115234, "z": -4.299068450927734}, "status": {"flags": 33599, "velocity_variance": 0.2541790306568146, "pos_horiz_variance": 0.01966923475265503, "pos_vert_variance": 0.004571726080030203}}, "errors": ["PreArm: Hardware safety switch", "PreArm: GPS glitching", "PreArm: Internal errors 0x100000 l:66 flow_of_ctrl"]}
{"timestamp": "2025-12-28T10:52:26.868210Z", "telemetry": {"lat": 28.7532289, "lon": 77.117771, "satellites": 10, "altitude_gps_m": 213.239990234375, "groundspeed_mps": 0.16484715044498444}, "flight": {"mode": "LOITER", "armed": false}, "ekf": {"attitude": {"roll": -0.033644091337919235, "pitch": -0.0042224121280014515, "yaw": 3.0461902618408203}, "local_position": {"x": 16.338045120239258, "y": -9.344245910644531, "z": -4.3169355392456055}, "status": {"flags": 33599, "velocity_variance": 0.135816752910614, "pos_horiz_variance": 0.023242345079779625, "pos_vert_variance": 0.022842084988951683}}, "errors": ["PreArm: Hardware safety switch", "PreArm: GPS glitching", "PreArm: Internal errors 0x100000 l:66 flow_of_ctrl"]}
{"timestamp": "2025-12-28T10:52:27.868518Z", "telemetry": {"lat": 28.7532298, "lon": 77.1177737, "satellites": 9, "altitude_gps_m": 213.1999969482422, "groundspeed_mps": 0.14972075819969177}, "flight": {"mode": "LOITER", "armed": false}, "ekf": {"attitude": {"roll": -0.03393643721938133, "pitch": -0.004763470496982336, "yaw": 3.04622745513916}, "local_position": {"x": 16.46368408203125, "y": -9.44668197631836, "z": -4.272356033325195}, "status": {"flags": 33599, "velocity_variance": 0.1342412680387497, "pos_horiz_variance": 0.021664537489414215, "pos_vert_variance": 0.017556512728333473}}, "errors": ["PreArm: Hardware safety switch", "PreArm: GPS glitching", "PreArm: Internal errors 0x100000 l:66 flow_of_ctrl"]}
{"timestamp": "2025-12-28T10:52:28.868734Z", "telemetry": {"lat": 28.7532303, "lon": 77.1177731, "satellites": 9, "altitude_gps_m": 213.14999389648438, "groundspeed_mps": 0.14064249396324158}, "flight": {"mode": "LOITER", "armed": false}, "ekf": {"attitude": {"roll": -0.03426859900355339, "pitch": -0.005477845203131437, "yaw": 3.046329975128174}, "local_position": {"x": 16.53618049621582, "y": -9.314046859741211, "z": -4.228365421295166}, "status": {"flags": 33599, "velocity_variance": 0.04936517775058746, "pos_horiz_variance": 0.017665060237050056, "pos_vert_variance": 0.004238708410412073}}, "errors": ["PreArm: Hardware safety switch", "PreArm: GPS glitching", "PreArm: Internal errors 0x100000 l:66 flow_of_ctrl"]}
{"timestamp": "2025-12-28T10:52:29.867889Z", "telemetry": {"lat": 28.7532354, "lon": 77.1177702, "satellites": 9, "altitude_gps_m": 213.1599884033203, "groundspeed_mps": 0.18067769706249237}, "flight": {"mode": "LOITER", "armed": false}, "ekf": {"attitude": {"roll": -0.033273372799158096, "pitch": -0.004435196053236723, "yaw": 3.046327829360962}, "local_position": {"x": 17.019662857055664, "y": -9.571070671081543, "z": -4.232607841491699}, "status": {"flags": 33599, "velocity_variance": 0.125335693359375, "pos_horiz_variance": 0.022727862000465393, "pos_vert_variance": 0.007544938009232283}}, "errors": ["PreArm: Hardware safety switch", "PreArm: GPS glitching", "PreArm: Internal errors 0x100000 l:66 flow_of_ctrl"]}
{"timestamp": "2025-12-28T10:52:30.868636Z", "telemetry": {"lat": 28.7532393, "lon": 77.1177648, "satellites": 9, "altitude_gps_m": 213.239990234375, "groundspeed_mps": 0.23046742379665375}, "flight": {"mode": "LOITER", "armed": false}, "ekf": {"attitude": {"roll": -0.03207608684897423, "pitch": -0.003801336046308279, "yaw": 3.0463926792144775}, "local_position": {"x": 17.454898834228516, "y": -9.958660125732422, "z": -4.309651851654053}, "status": {"flags": 33599, "velocity_variance": 0.16648337244987488, "pos_horiz_variance": 0.02573283389210701, "pos_vert_variance": 0.05528229475021362}}, "errors": ["PreArm: Hardware safety switch", "PreArm: GPS glitching", "PreArm: Internal errors 0x100000 l:66 flow_of_ctrl"]}
{"timestamp": "2025-12-28T10:52:31.868333Z", "telemetry": {"lat": 28.7532434, "lon": 77.11776, "satellites": 9, "altitude_gps_m": 213.19000244140625, "groundspeed_mps": 0.3257889747619629}, "flight": {"mode": "LOITER", "armed": false}, "ekf": {"attitude": {"roll": -0.03154267743229866, "pitch": -0.0033262106589972973, "yaw": 3.0462777614593506}, "local_position": {"x": 18.023033142089844, "y": -10.447868347167969, "z": -4.26264762878418}, "status": {"flags": 33599, "velocity_variance": 0.14134149253368378, "pos_horiz_variance": 0.02395707555115223, "pos_vert_variance": 0.03828375041484833}}, "errors": ["PreArm: Hardware safety switch", "PreArm: GPS glitching", "PreArm: Internal errors 0x100000 l:66 flow_of_ctrl"]}
{"timestamp": "2025-12-28T10:52:32.868594Z", "telemetry": {"lat": 28.7532451, "lon": 77.1177592, "satellites": 9, "altitude_gps_m": 213.22000122070312, "groundspeed_mps": 0.33397263288497925}, "flight": {"mode": "LOITER", "armed": false}, "ekf": {"attitude": {"roll": -0.03131109103560448, "pitch": -0.0035533695481717587, "yaw": 3.0463707447052}, "local_position": {"x": 18.33201026916504, "y": -10.698495864868164, "z": -4.29524040222168}, "status": {"flags": 33599, "velocity_variance": 0.13800302147865295, "pos_horiz_variance": 0.019670739769935608, "pos_vert_variance": 0.031389303505420685}}, "errors": ["PreArm: Hardware safety switch", "PreArm: GPS glitching", "PreArm: Internal errors 0x100000 l:66 flow_of_ctrl", "PreArm: Hardware safety switch", "PreArm: GPS glitching", "PreArm: Internal errors 0x100000 l:66 flow_of_ctrl"]}
{"timestamp": "2025-12-28T10:52:33.868606Z", "telemetry": {"lat": 28.7532526, "lon": 77.1177565, "satellites": 10, "altitude_gps_m": 213.25999450683594, "groundspeed_mps": 0.39977043867111206}, "flight": {"mode": "LOITER", "armed": false}, "ekf": {"attitude": {"roll": -0.03104361519217491, "pitch": -0.002762462478131056, "yaw": 3.0463783740997314}, "local_position": {"x": 18.860897064208984, "y": -11.026298522949219, "z": -4.335004806518555}, "status": {"flags": 33599, "velocity_variance": 0.13846029341220856, "pos_horiz_variance": 0.024108530953526497, "pos_vert_variance": 0.03212527558207512}}, "errors": ["PreArm: Hardware safety switch", "PreArm: GPS glitching", "PreArm: Internal errors 0x100000 l:66 flow_of_ctrl", "PreArm: Hardware safety switch", "PreArm: GPS glitching", "PreArm: Internal errors 0x100000 l:66 flow_of_ctrl"]}
{"timestamp": "2025-12-28T10:52:34.868451Z", "telemetry": {"lat": 28.7532567, "lon": 77.1177512, "satellites": 10, "altitude_gps_m": 213.20999145507812, "groundspeed_mps": 0.488788902759552}, "flight": {"mode": "LOITER", "armed": false}, "ekf": {"attitude": {"roll": -0.030568387359380722, "pitch": -0.0026100152172148228, "yaw": 3.046348810195923}, "local_position": {"x": 19.512176513671875, "y": -11.556035995483398, "z": -4.316591262817383}, "status": {"flags": 33599, "velocity_variance": 0.20143379271030426, "pos_horiz_variance": 0.02055913582444191, "pos_vert_variance": 0.031703609973192215}}, "errors": ["PreArm: Hardware safety switch", "PreArm: GPS glitching", "PreArm: Internal errors 0x100000 l:66 flow_of_ctrl", "PreArm: Hardware safety switch", "PreArm: GPS glitching", "PreArm: Internal errors 0x100000 l:66 flow_of_ctrl"]}
{"timestamp": "2025-12-28T10:52:35.868337Z", "telemetry": {"lat": 28.7532564, "lon": 77.1177545, "satellites": 10, "altitude_gps_m": 213.239990234375, "groundspeed_mps": 0.43503010272979736}, "flight": {"mode": "LOITER", "armed": false}, "ekf": {"attitude": {"roll": -0.03084627166390419, "pitch": -0.0034414357505738735, "yaw": 3.0461790561676025}, "local_position": {"x": 19.71780014038086, "y": -11.692765235900879, "z": -4.31383752822876}, "status": {"flags": 33599, "velocity_variance": 0.13902723789215088, "pos_horiz_variance": 0.011402549222111702, "pos_vert_variance": 0.02733662538230419}}, "errors": ["PreArm: Hardware safety switch", "PreArm: GPS glitching", "PreArm: Internal errors 0x100000 l:66 flow_of_ctrl", "PreArm: Hardware safety switch", "PreArm: GPS glitching", "PreArm: Internal errors 0x100000 l:66 flow_of_ctrl"]}
{"timestamp": "2025-12-28T10:52:36.867913Z", "telemetry": {"lat": 28.7532594, "lon": 77.1177545, "satellites": 10, "altitude_gps_m": 213.20999145507812, "groundspeed_mps": 0.41222918033599854}, "flight": {"mode": "LOITER", "armed": false}, "ekf": {"attitude": {"roll": -0.031090248376131058, "pitch": -0.00378659600391984, "yaw": 3.046144485473633}, "local_position": {"x": 20.042064666748047, "y": -11.834478378295898, "z": -4.289119720458984}, "status": {"flags": 33599, "velocity_variance": 0.13297051191329956, "pos_horiz_variance": 0.010149364359676838, "pos_vert_variance": 0.03447756916284561}}, "errors": ["PreArm: Hardware safety switch", "PreArm: GPS glitching", "PreArm: Internal errors 0x100000 l:66 flow_of_ctrl", "PreArm: Hardware safety switch", "PreArm: GPS glitching", "PreArm: Internal errors 0x100000 l:66 flow_of_ctrl"]}
{"timestamp": "2025-12-28T10:52:37.868300Z", "telemetry": {"lat": 28.7532637, "lon": 77.1177513, "satellites": 10, "altitude_gps_m": 213.22999572753906, "groundspeed_mps": 0.4556654095649719}, "flight": {"mode": "LOITER", "armed": false}, "ekf": {"attitude": {"roll": -0.030644278973340988, "pitch": -0.003603548277169466, "yaw": 3.0460007190704346}, "local_position": {"x": 20.540149688720703, "y": -12.083502769470215, "z": -4.260447025299072}, "status": {"flags": 33599, "velocity_variance": 0.11842083930969238, "pos_horiz_variance": 0.010686755180358887, "pos_vert_variance": 0.047458961606025696}}, "errors": ["PreArm: Hardware safety switch", "PreArm: GPS glitching", "PreArm: Internal errors 0x100000 l:66 flow_of_ctrl", "PreArm: Hardware safety switch", "PreArm: GPS glitching", "PreArm: Internal errors 0x100000 l:66 flow_of_ctrl"]}
{"timestamp": "2025-12-28T10:52:38.868615Z", "telemetry": {"lat": 28.7532649, "lon": 77.1177525, "satellites": 10, "altitude_gps_m": 213.2899932861328, "groundspeed_mps": 0.41967326402664185}, "flight": {"mode": "LOITER", "armed": false}, "ekf": {"attitude": {"roll": -0.031036142259836197, "pitch": -0.004350158851593733, "yaw": 3.045968770980835}, "local_position": {"x": 20.858638763427734, "y": -12.196836471557617, "z": -4.363797187805176}, "status": {"flags": 33599, "velocity_variance": 0.12986433506011963, "pos_horiz_variance": 0.006556687876582146, "pos_vert_variance": 0.035410232841968536}}, "errors": ["PreArm: Hardware safety switch", "PreArm: GPS glitching", "PreArm: Internal errors 0x100000 l:66 flow_of_ctrl", "PreArm: Hardware safety switch", "PreArm: GPS glitching", "PreArm: Internal errors 0x100000 l:66 flow_of_ctrl"]}
{"timestamp": "2025-12-28T10:52:39.868304Z", "telemetry": {"lat": 28.7532653, "lon": 77.1177515, "satellites": 9, "altitude_gps_m": 213.27999877929688, "groundspeed_mps": 0.35185760259628296}, "flight": {"mode": "LOITER", "armed": false}, "ekf": {"attitude": {"roll": -0.03130464628338814, "pitch": -0.005165326874703169, "yaw": 3.046013116836548}, "local_position": {"x": 20.9733829498291, "y": -12.27003002166748, "z": -4.3367743492126465}, "status": {"flags": 33599, "velocity_variance": 0.2080574929714203, "pos_horiz_variance": 0.004485765006393194, "pos_vert_variance": 0.0001646769669605419}}, "errors": ["PreArm: Hardware safety switch", "PreArm: GPS glitching", "PreArm: Internal errors 0x100000 l:66 flow_of_ctrl", "PreArm: Hardware safety switch", "PreArm: GPS glitching", "PreArm: Internal errors 0x100000 l:66 flow_of_ctrl"]}
{"timestamp": "2025-12-28T10:52:40.868445Z", "telemetry": {"lat": 28.7532703, "lon": 77.117753, "satellites": 9, "altitude_gps_m": 213.25999450683594, "groundspeed_mps": 0.3672916889190674}, "flight": {"mode": "LOITER", "armed": false}, "ekf": {"attitude": {"roll": -0.03183590993285179, "pitch": -0.004974767100065947, "yaw": 3.0459797382354736}, "local_position": {"x": 21.43646240234375, "y": -12.414186477661133, "z": -4.3326311111450195}, "status": {"flags": 33599, "velocity_variance": 0.1783844530582428, "pos_horiz_variance": 0.009955157525837421, "pos_vert_variance": 0.03378493711352348}}, "errors": ["PreArm: Hardware safety switch", "PreArm: GPS glitching", "PreArm: Internal errors 0x100000 l:66 flow_of_ctrl", "PreArm: Hardware safety switch", "PreArm: GPS glitching", "PreArm: Internal errors 0x100000 l:66 flow_of_ctrl"]}
{"timestamp": "2025-12-28T10:52:41.868291Z", "telemetry": {"lat": 28.7532719, "lon": 77.117755, "satellites": 9, "altitude_gps_m": 213.3199920654297, "groundspeed_mps": 0.33968931436538696}, "flight": {"mode": "LOITER", "armed": false}, "ekf": {"attitude": {"roll": -0.031986791640520096, "pitch": -0.005158029962331057, "yaw": 3.0459609031677246}, "local_position": {"x": 21.727663040161133, "y": -12.34008502960205, "z": -4.3957929611206055}, "status": {"flags": 33599, "velocity_variance": 0.08944319933652878, "pos_horiz_variance": 0.010244003497064114, "pos_vert_variance": 0.015521558932960033}}, "errors": ["PreArm: Hardware safety switch", "PreArm: GPS glitching", "PreArm: Internal errors 0x100000 l:66 flow_of_ctrl", "PreArm: Hardware safety switch", "PreArm: GPS glitching", "PreArm: Internal errors 0x100000 l:66 flow_of_ctrl"]}
{"timestamp": "2025-12-28T10:52:42.868541Z", "telemetry": {"lat": 28.7532796, "lon": 77.1177515, "satellites": 9, "altitude_gps_m": 213.36000061035156, "groundspeed_mps": 0.34098783135414124}, "flight": {"mode": "LOITER", "armed": false}, "ekf": {"attitude": {"roll": -0.03183062747120857, "pitch": -0.004869997035712004, "yaw": 3.0460407733917236}, "local_position": {"x": 22.094711303710938, "y": -12.347228050231934, "z": -4.437129497528076}, "status": {"flags": 33599, "velocity_variance": 0.40117698907852173, "pos_horiz_variance": 0.011044427752494812, "pos_vert_variance": 0.04908554255962372}}, "errors": ["PreArm: Hardware safety switch", "PreArm: GPS glitching", "PreArm: Internal errors 0x100000 l:66 flow_of_ctrl", "PreArm: Hardware safety switch", "PreArm: GPS glitching", "PreArm: Internal errors 0x100000 l:66 flow_of_ctrl"]}
{"timestamp": "2025-12-28T10:52:43.868511Z", "telemetry": {"lat": 28.7532852, "lon": 77.1177513, "satellites": 9, "altitude_gps_m": 213.3300018310547, "groundspeed_mps": 0.4611149728298187}, "flight": {"mode": "LOITER", "armed": false}, "ekf": {"attitude": {"roll": -0.031617533415555954, "pitch": -0.0036083185113966465, "yaw": 3.046095132827759}, "local_position": {"x": 22.899057388305664, "y": -12.578994750976562, "z": -4.399381160736084}, "status": {"flags": 33599, "velocity_variance": 0.1419094055891037, "pos_horiz_variance": 0.013758599758148193, "pos_vert_variance": 0.05988433212041855}}, "errors": ["PreArm: Hardware safety switch", "PreArm: GPS glitching", "PreArm: Internal errors 0x100000 l:66 flow_of_ctrl", "PreArm: Hardware safety switch", "PreArm: GPS glitching", "PreArm: Internal errors 0x100000 l:66 flow_of_ctrl"]}
{"timestamp": "2025-12-28T10:52:44.868233Z", "telemetry": {"lat": 28.7532898, "lon": 77.1177508, "satellites": 9, "altitude_gps_m": 213.22000122070312, "groundspeed_mps": 0.5243035554885864}, "flight": {"mode": "LOITER", "armed": false}, "ekf": {"attitude": {"roll": -0.03206036612391472, "pitch": -0.0028578960336744785, "yaw": 3.046161413192749}, "local_position": {"x": 23.588581085205078, "y": -12.657755851745605, "z": -4.293800354003906}, "status": {"flags": 33599, "velocity_variance": 0.10985862463712692, "pos_horiz_variance": 0.012304214760661125, "pos_vert_variance": 0.0512065552175045}}, "errors": ["PreArm: Hardware safety switch", "PreArm: GPS glitching", "PreArm: Internal errors 0x100000 l:66 flow_of_ctrl", "PreArm: Hardware safety switch", "PreArm: GPS glitching", "PreArm: Internal errors 0x100000 l:66 flow_of_ctrl"]}
{"timestamp": "2025-12-28T10:52:45.868541Z", "telemetry": {"lat": 28.7532898, "lon": 77.1177549, "satellites": 9, "altitude_gps_m": 213.13999938964844, "groundspeed_mps": 0.4746782183647156}, "flight": {"mode": "LOITER", "armed": false}, "ekf": {"attitude": {"roll": -0.03318110480904579, "pitch": -0.003803262021392584, "yaw": 3.046192169189453}, "local_position": {"x": 23.92589569091797, "y": -12.464234352111816, "z": -4.210450172424316}, "status": {"flags": 33599, "velocity_variance": 0.11111252754926682, "pos_horiz_variance": 0.013582677580416203, "pos_vert_variance": 0.03231040760874748}}, "errors": ["PreArm: Hardware safety switch", "PreArm: GPS glitching", "PreArm: Internal errors 0x100000 l:66 flow_of_ctrl", "PreArm: Hardware safety switch", "PreArm: GPS glitching", "PreArm: Internal errors 0x100000 l:66 flow_of_ctrl"]}
{"timestamp": "2025-12-28T10:52:46.868585Z", "telemetry": {"lat": 28.7532874, "lon": 77.1177571, "satellites": 9, "altitude_gps_m": 213.11000061035156, "groundspeed_mps": 0.38439443707466125}, "flight": {"mode": "LOITER", "armed": false}, "ekf": {"attitude": {"roll": -0.03361177071928978, "pitch": -0.005047621671110392, "yaw": 3.0463316440582275}, "local_position": {"x": 24.010467529296875, "y": -12.25892162322998, "z": -4.1838154792785645}, "status": {"flags": 33599, "velocity_variance": 0.13495555520057678, "pos_horiz_variance": 0.01516038179397583, "pos_vert_variance": 0.061028722673654556}}, "errors": ["PreArm: Hardware safety switch", "PreArm: GPS glitching", "PreArm: Internal errors 0x100000 l:66 flow_of_ctrl", "PreArm: Hardware safety switch", "PreArm: GPS glitching", "PreArm: Internal errors 0x100000 l:66 flow_of_ctrl"]}
{"timestamp": "2025-12-28T10:52:47.868223Z", "telemetry": {"lat": 28.7532858, "lon": 77.1177603, "satellites": 9, "altitude_gps_m": 213.1199951171875, "groundspeed_mps": 0.3192146420478821}, "flight": {"mode": "LOITER", "armed": false}, "ekf": {"attitude": {"roll": -0.033759523183107376, "pitch": -0.006117595825344324, "yaw": 3.0462567806243896}, "local_position": {"x": 24.079898834228516, "y": -12.037993431091309, "z": -4.194986343383789}, "status": {"flags": 33599, "velocity_variance": 0.12248541414737701, "pos_horiz_variance": 0.020521290600299835, "pos_vert_variance": 0.012533738277852535}}, "errors": ["PreArm: Hardware safety switch", "PreArm: GPS glitching", "PreArm: Internal errors 0x100000 l:66 flow_of_ctrl", "PreArm: Hardware safety switch", "PreArm: GPS glitching", "PreArm: Internal errors 0x100000 l:66 flow_of_ctrl"]}
{"timestamp": "2025-12-28T10:52:48.868377Z", "telemetry": {"lat": 28.7532816, "lon": 77.1177625, "satellites": 9, "altitude_gps_m": 213.1199951171875, "groundspeed_mps": 0.20878949761390686}, "flight": {"mode": "LOITER", "armed": false}, "ekf": {"attitude": {"roll": -0.034001607447862625, "pitch": -0.007601903285831213, "yaw": 3.046380043029785}, "local_position": {"x": 23.867454528808594, "y": -11.77876091003418, "z": -4.199316024780273}, "status": {"flags": 33599, "velocity_variance": 0.10430335998535156, "pos_horiz_variance": 0.024257803335785866, "pos_vert_variance": 0.058885879814624786}}, "errors": ["PreArm: Hardware safety switch", "PreArm: GPS glitching", "PreArm: Internal errors 0x100000 l:66 flow_of_ctrl", "PreArm: Hardware safety switch", "PreArm: GPS glitching", "PreArm: Internal errors 0x100000 l:66 flow_of_ctrl"]}
{"timestamp": "2025-12-28T10:52:49.867839Z", "telemetry": {"lat": 28.7532803, "lon": 77.1177641, "satellites": 9, "altitude_gps_m": 213.22000122070312, "groundspeed_mps": 0.15543363988399506}, "flight": {"mode": "LOITER", "armed": false}, "ekf": {"attitude": {"roll": -0.03380434587597847, "pitch": -0.008497271686792374, "yaw": 3.0465352535247803}, "local_position": {"x": 23.6713924407959, "y": -11.513047218322754, "z": -4.293399333953857}, "status": {"flags": 33599, "velocity_variance": 0.1608312427997589, "pos_horiz_variance": 0.02200452983379364, "pos_vert_variance": 0.03910360112786293}}, "errors": ["PreArm: Hardware safety switch", "PreArm: GPS glitching", "PreArm: Internal errors 0x100000 l:66 flow_of_ctrl", "PreArm: Hardware safety switch", "PreArm: GPS glitching", "PreArm: Internal errors 0x100000 l:66 flow_of_ctrl"]}
{"timestamp": "2025-12-28T10:52:50.867910Z", "telemetry": {"lat": 28.753273, "lon": 77.1177733, "satellites": 10, "altitude_gps_m": 213.0800018310547, "groundspeed_mps": 0.29604262113571167}, "flight": {"mode": "LOITER", "armed": false}, "ekf": {"attitude": {"roll": -0.03549027070403099, "pitch": -0.01056075282394886, "yaw": 3.046651601791382}, "local_position": {"x": 23.240333557128906, "y": -10.970586776733398, "z": -4.179353713989258}, "status": {"flags": 33599, "velocity_variance": 0.07074720412492752, "pos_horiz_variance": 0.033651966601610184, "pos_vert_variance": 0.05493370443582535}}, "errors": ["PreArm: Hardware safety switch", "PreArm: GPS glitching", "PreArm: Internal errors 0x100000 l:66 flow_of_ctrl", "PreArm: Hardware safety switch", "PreArm: GPS glitching", "PreArm: Internal errors 0x100000 l:66 flow_of_ctrl"]}
{"timestamp": "2025-12-28T10:52:51.868274Z", "telemetry": {"lat": 28.7532623, "lon": 77.1177839, "satellites": 10, "altitude_gps_m": 213.0699920654297, "groundspeed_mps": 0.4668993353843689}, "flight": {"mode": "LOITER", "armed": false}, "ekf": {"attitude": {"roll": -0.0362553708255291, "pitch": -0.012058982625603676, "yaw": 3.0466983318328857}, "local_position": {"x": 22.356552124023438, "y": -10.125781059265137, "z": -4.1490960121154785}, "status": {"flags": 33599, "velocity_variance": 0.132425919175148, "pos_horiz_variance": 0.04262709990143776, "pos_vert_variance": 0.015825394541025162}}, "errors": ["PreArm: Hardware safety switch", "PreArm: GPS glitching", "PreArm: Internal errors 0x100000 l:66 flow_of_ctrl", "PreArm: Hardware safety switch", "PreArm: GPS glitching", "PreArm: Internal errors 0x100000 l:66 flow_of_ctrl"]}
{"timestamp": "2025-12-28T10:52:52.868091Z", "telemetry": {"lat": 28.7532569, "lon": 77.1177942, "satellites": 10, "altitude_gps_m": 213.09999084472656, "groundspeed_mps": 0.6443852782249451}, "flight": {"mode": "LOITER", "armed": false}, "ekf": {"attitude": {"roll": -0.03733804449439049, "pitch": -0.013128701597452164, "yaw": 3.0470104217529297}, "local_position": {"x": 21.641361236572266, "y": -9.262106895446777, "z": -4.170568466186523}, "status": {"flags": 33599, "velocity_variance": 0.21164250373840332, "pos_horiz_variance": 0.04438908025622368, "pos_vert_variance": 0.01345682330429554}}, "errors": ["PreArm: Hardware safety switch", "PreArm: GPS glitching", "PreArm: Internal errors 0x100000 l:66 flow_of_ctrl", "PreArm: Hardware safety switch", "PreArm: GPS glitching", "PreArm: Internal errors 0x100000 l:66 flow_of_ctrl"]}
{"timestamp": "2025-12-28T10:52:53.868441Z", "telemetry": {"lat": 28.7532453, "lon": 77.1178013, "satellites": 11, "altitude_gps_m": 213.1599884033203, "groundspeed_mps": 0.8866660594940186}, "flight": {"mode": "LOITER", "armed": false}, "ekf": {"attitude": {"roll": -0.037532661110162735, "pitch": -0.014875425025820732, "yaw": 3.0471482276916504}, "local_position": {"x": 20.60995101928711, "y": -8.34780216217041, "z": -4.230875015258789}, "status": {"flags": 33599, "velocity_variance": 0.1649317443370819, "pos_horiz_variance": 0.04755426198244095, "pos_vert_variance": 0.02520625665783882}}, "errors": ["PreArm: Hardware safety switch", "PreArm: GPS glitching", "PreArm: Internal errors 0x100000 l:66 flow_of_ctrl", "PreArm: Hardware safety switch", "PreArm: GPS glitching", "PreArm: Internal errors 0x100000 l:66 flow_of_ctrl"]}
{"timestamp": "2025-12-28T10:52:54.868090Z", "telemetry": {"lat": 28.7532377, "lon": 77.1178055, "satellites": 10, "altitude_gps_m": 213.17999267578125, "groundspeed_mps": 0.9676685333251953}, "flight": {"mode": "LOITER", "armed": false}, "ekf": {"attitude": {"roll": -0.03722640499472618, "pitch": -0.014907706528902054, "yaw": 3.0471653938293457}, "local_position": {"x": 19.568504333496094, "y": -7.675227165222168, "z": -4.258312225341797}, "status": {"flags": 33599, "velocity_variance": 0.21717014908790588, "pos_horiz_variance": 0.041755300015211105, "pos_vert_variance": 0.055353350937366486}}, "errors": ["PreArm: Hardware safety switch", "PreArm: GPS glitching", "PreArm: Internal errors 0x100000 l:66 flow_of_ctrl", "PreArm: Hardware safety switch", "PreArm: GPS glitching", "PreArm: Internal errors 0x100000 l:66 flow_of_ctrl"]}
{"timestamp": "2025-12-28T10:52:55.867799Z", "telemetry": {"lat": 28.7532289, "lon": 77.1178114, "satellites": 10, "altitude_gps_m": 213.14999389648438, "groundspeed_mps": 1.086775541305542}, "flight": {"mode": "LOITER", "armed": false}, "ekf": {"attitude": {"roll": -0.037002746015787125, "pitch": -0.015209481120109558, "yaw": 3.0473573207855225}, "local_position": {"x": 18.468965530395508, "y": -6.94529914855957, "z": -4.22547721862793}, "status": {"flags": 33599, "velocity_variance": 0.3360494077205658, "pos_horiz_variance": 0.03862828388810158, "pos_vert_variance": 0.08322085440158844}}, "errors": ["PreArm: Hardware safety switch", "PreArm: GPS glitching", "PreArm: Internal errors 0x100000 l:66 flow_of_ctrl", "PreArm: Hardware safety switch", "PreArm: GPS glitching", "PreArm: Internal errors 0x100000 l:66 flow_of_ctrl"]}
{"timestamp": "2025-12-28T10:52:56.867796Z", "telemetry": {"lat": 28.7532174, "lon": 77.1178155, "satellites": 11, "altitude_gps_m": 213.22000122070312, "groundspeed_mps": 1.1897934675216675}, "flight": {"mode": "LOITER", "armed": false}, "ekf": {"attitude": {"roll": -0.03651978448033333, "pitch": -0.015392739325761795, "yaw": 3.047530174255371}, "local_position": {"x": 17.480648040771484, "y": -6.335600852966309, "z": -4.2794013023376465}, "status": {"flags": 33599, "velocity_variance": 0.11247160285711288, "pos_horiz_variance": 0.043429695069789886, "pos_vert_variance": 0.028076857328414917}}, "errors": ["PreArm: Hardware safety switch", "PreArm: GPS glitching", "PreArm: Internal errors 0x100000 l:66 flow_of_ctrl", "PreArm: Hardware safety switch", "PreArm: GPS glitching", "PreArm: Internal errors 0x100000 l:66 flow_of_ctrl"]}
{"timestamp": "2025-12-28T10:52:57.868548Z", "telemetry": {"lat": 28.7532058, "lon": 77.117822, "satellites": 11, "altitude_gps_m": 213.19000244140625, "groundspeed_mps": 1.292435646057129}, "flight": {"mode": "LOITER", "armed": false}, "ekf": {"attitude": {"roll": -0.0363030843436718, "pitch": -0.015064651146531105, "yaw": 3.047595739364624}, "local_position": {"x": 16.12244415283203, "y": -5.515769958496094, "z": -4.2627410888671875}, "status": {"flags": 33599, "velocity_variance": 0.2595522403717041, "pos_horiz_variance": 0.041572585701942444, "pos_vert_variance": 0.025849226862192154}}, "errors": ["PreArm: Hardware safety switch", "PreArm: GPS glitching", "PreArm: Internal errors 0x100000 l:66 flow_of_ctrl", "PreArm: Hardware safety switch", "PreArm: GPS glitching", "PreArm: Internal errors 0x100000 l:66 flow_of_ctrl"]}
{"timestamp": "2025-12-28T10:52:58.868086Z", "telemetry": {"lat": 28.7531981, "lon": 77.117823, "satellites": 11, "altitude_gps_m": 213.239990234375, "groundspeed_mps": 1.2790048122406006}, "flight": {"mode": "LOITER", "armed": false}, "ekf": {"attitude": {"roll": -0.03516380116343498, "pitch": -0.013913506641983986, "yaw": 3.0477712154388428}, "local_position": {"x": 15.035232543945312, "y": -5.016201972961426, "z": -4.318423271179199}, "status": {"flags": 33599, "velocity_variance": 0.46982383728027344, "pos_horiz_variance": 0.0351538360118866, "pos_vert_variance": 0.044151823967695236}}, "errors": ["PreArm: Hardware safety switch", "PreArm: GPS glitching", "PreArm: Internal errors 0x100000 l:66 flow_of_ctrl", "PreArm: Hardware safety switch", "PreArm: GPS glitching", "PreArm: Internal errors 0x100000 l:66 flow_of_ctrl"]}
{"timestamp": "2025-12-28T10:52:59.868822Z", "telemetry": {"lat": 28.753194, "lon": 77.1178251, "satellites": 11, "altitude_gps_m": 213.13999938964844, "groundspeed_mps": 1.1456886529922485}, "flight": {"mode": "LOITER", "armed": false}, "ekf": {"attitude": {"roll": -0.03383047506213188, "pitch": -0.011083932593464851, "yaw": 3.0480101108551025}, "local_position": {"x": 14.306760787963867, "y": -4.737170219421387, "z": -4.230830192565918}, "status": {"flags": 33599, "velocity_variance": 0.4690549373626709, "pos_horiz_variance": 0.029044633731245995, "pos_vert_variance": 0.003561756107956171}}, "errors": ["PreArm: Hardware safety switch", "PreArm: GPS glitching", "PreArm: Internal errors 0x100000 l:66 flow_of_ctrl", "PreArm: Hardware safety switch", "PreArm: GPS glitching", "PreArm: Internal errors 0x100000 l:66 flow_of_ctrl"]}
{"timestamp": "2025-12-28T10:53:00.868641Z", "telemetry": {"lat": 28.7531868, "lon": 77.117828, "satellites": 11, "altitude_gps_m": 213.09999084472656, "groundspeed_mps": 1.084503412246704}, "flight": {"mode": "LOITER", "armed": false}, "ekf": {"attitude": {"roll": -0.03284331038594246, "pitch": -0.009364930912852287, "yaw": 3.0480687618255615}, "local_position": {"x": 13.40670394897461, "y": -4.3691606521606445, "z": -4.172582149505615}, "status": {"flags": 33599, "velocity_variance": 0.29293110966682434, "pos_horiz_variance": 0.026807865127921104, "pos_vert_variance": 0.06256929039955139}}, "errors": ["PreArm: Hardware safety switch", "PreArm: GPS glitching", "PreArm: Internal errors 0x100000 l:66 flow_of_ctrl", "PreArm: Hardware safety switch", "PreArm: GPS glitching", "PreArm: Internal errors 0x100000 l:66 flow_of_ctrl"]}
{"timestamp": "2025-12-28T10:53:01.867855Z", "telemetry": {"lat": 28.7531846, "lon": 77.1178278, "satellites": 11, "altitude_gps_m": 213.1699981689453, "groundspeed_mps": 0.9558051824569702}, "flight": {"mode": "LOITER", "armed": false}, "ekf": {"attitude": {"roll": -0.031393226236104965, "pitch": -0.0074681551195681095, "yaw": 3.0481772422790527}, "local_position": {"x": 12.849016189575195, "y": -4.289004802703857, "z": -4.249279022216797}, "status": {"flags": 33599, "velocity_variance": 0.3463881015777588, "pos_horiz_variance": 0.020354369655251503, "pos_vert_variance": 0.0215348731726408}}, "errors": ["PreArm: Hardware safety switch", "PreArm: GPS glitching", "PreArm: Internal errors 0x100000 l:66 flow_of_ctrl", "PreArm: Hardware safety switch", "PreArm: GPS glitching", "PreArm: Internal errors 0x100000 l:66 flow_of_ctrl"]}
{"timestamp": "2025-12-28T10:53:02.868542Z", "telemetry": {"lat": 28.7531792, "lon": 77.1178282, "satellites": 11, "altitude_gps_m": 213.33999633789062, "groundspeed_mps": 0.829732358455658}, "flight": {"mode": "LOITER", "armed": false}, "ekf": {"attitude": {"roll": -0.029991064220666885, "pitch": -0.005685438867658377, "yaw": 3.0480337142944336}, "local_position": {"x": 12.18478775024414, "y": -4.225528240203857, "z": -4.4029765129089355}, "status": {"flags": 33599, "velocity_variance": 0.26840755343437195, "pos_horiz_variance": 0.019022732973098755, "pos_vert_variance": 0.04169735684990883}}, "errors": ["PreArm: Hardware safety switch", "PreArm: GPS glitching", "PreArm: Internal errors 0x100000 l:66 flow_of_ctrl", "PreArm: Hardware safety switch", "PreArm: GPS glitching", "PreArm: Internal errors 0x100000 l:66 flow_of_ctrl", "PreArm: Hardware safety switch", "PreArm: GPS glitching", "PreArm: Internal errors 0x100000 l:66 flow_of_ctrl"]}
{"timestamp": "2025-12-28T10:53:03.867908Z", "telemetry": {"lat": 28.7531724, "lon": 77.1178297, "satellites": 11, "altitude_gps_m": 213.34999084472656, "groundspeed_mps": 0.7955374717712402}, "flight": {"mode": "LOITER", "armed": false}, "ekf": {"attitude": {"roll": -0.029376011341810226, "pitch": -0.005207268055528402, "yaw": 3.0479140281677246}, "local_position": {"x": 11.404878616333008, "y": -4.1412529945373535, "z": -4.427657127380371}, "status": {"flags": 33599, "velocity_variance": 0.2438046634197235, "pos_horiz_variance": 0.01802278496325016, "pos_vert_variance": 0.06107870116829872}}, "errors": ["PreArm: Hardware safety switch", "PreArm: GPS glitching", "PreArm: Internal errors 0x100000 l:66 flow_of_ctrl", "PreArm: Hardware safety switch", "PreArm: GPS glitching", "PreArm: Internal errors 0x100000 l:66 flow_of_ctrl", "PreArm: Hardware safety switch", "PreArm: GPS glitching", "PreArm: Internal errors 0x100000 l:66 flow_of_ctrl"]}
{"timestamp": "2025-12-28T10:53:04.868390Z", "telemetry": {"lat": 28.7531708, "lon": 77.1178298, "satellites": 11, "altitude_gps_m": 213.26998901367188, "groundspeed_mps": 0.6608276963233948}, "flight": {"mode": "LOITER", "armed": false}, "ekf": {"attitude": {"roll": -0.028634827584028244, "pitch": -0.0029470515437424183, "yaw": 3.0478553771972656}, "local_position": {"x": 10.948959350585938, "y": -4.137767314910889, "z": -4.344329357147217}, "status": {"flags": 33599, "velocity_variance": 0.14900726079940796, "pos_horiz_variance": 0.013333545066416264, "pos_vert_variance": 0.009839859791100025}}, "errors": ["PreArm: Hardware safety switch", "PreArm: GPS glitching", "PreArm: Internal errors 0x100000 l:66 flow_of_ctrl", "PreArm: Hardware safety switch", "PreArm: GPS glitching", "PreArm: Internal errors 0x100000 l:66 flow_of_ctrl", "PreArm: Hardware safety switch", "PreArm: GPS glitching", "PreArm: Internal errors 0x100000 l:66 flow_of_ctrl"]}
{"timestamp": "2025-12-28T10:53:05.868502Z", "telemetry": {"lat": 28.7531627, "lon": 77.1178357, "satellites": 11, "altitude_gps_m": 213.26998901367188, "groundspeed_mps": 0.662204384803772}, "flight": {"mode": "LOITER", "armed": false}, "ekf": {"attitude": {"roll": -0.028834406286478043, "pitch": -0.003091349732130766, "yaw": 3.047614097595215}, "local_position": {"x": 10.198144912719727, "y": -3.898026466369629, "z": -4.341159343719482}, "status": {"flags": 33599, "velocity_variance": 0.052134376019239426, "pos_horiz_variance": 0.014642342925071716, "pos_vert_variance": 0.006677897647023201}}, "errors": ["PreArm: Hardware safety switch", "PreArm: GPS glitching", "PreArm: Internal errors 0x100000 l:66 flow_of_ctrl", "PreArm: Hardware safety switch", "PreArm: GPS glitching", "PreArm: Internal errors 0x100000 l:66 flow_of_ctrl", "PreArm: Hardware safety switch", "PreArm: GPS glitching", "PreArm: Internal errors 0x100000 l:66 flow_of_ctrl"]}
{"timestamp": "2025-12-28T10:53:06.868028Z", "telemetry": {"lat": 28.7531582, "lon": 77.1178383, "satellites": 11, "altitude_gps_m": 213.27999877929688, "groundspeed_mps": 0.6142999529838562}, "flight": {"mode": "LOITER", "armed": false}, "ekf": {"attitude": {"roll": -0.028508085757493973, "pitch": -0.0021087327040731907, "yaw": 3.0475521087646484}, "local_position": {"x": 9.537555694580078, "y": -3.6753408908843994, "z": -4.355002403259277}, "status": {"flags": 33599, "velocity_variance": 0.19525934755802155, "pos_horiz_variance": 0.010923593305051327, "pos_vert_variance": 0.012134300544857979}}, "errors": ["PreArm: Hardware safety switch", "PreArm: GPS glitching", "PreArm: Internal errors 0x100000 l:66 flow_of_ctrl", "PreArm: Hardware safety switch", "PreArm: GPS glitching", "PreArm: Internal errors 0x100000 l:66 flow_of_ctrl", "PreArm: Hardware safety switch", "PreArm: GPS glitching", "PreArm: Internal errors 0x100000 l:66 flow_of_ctrl"]}
{"timestamp": "2025-12-28T10:53:07.871271Z", "telemetry": {"lat": 28.7531514, "lon": 77.1178432, "satellites": 11, "altitude_gps_m": 213.22999572753906, "groundspeed_mps": 0.6224396824836731}, "flight": {"mode": "LOITER", "armed": false}, "ekf": {"attitude": {"roll": -0.02936694398522377, "pitch": -0.0024786079302430153, "yaw": 3.0474421977996826}, "local_position": {"x": 8.98311710357666, "y": -3.4019694328308105, "z": -4.311155796051025}, "status": {"flags": 33599, "velocity_variance": 0.11774056404829025, "pos_horiz_variance": 0.015435966663062572, "pos_vert_variance": 0.047568824142217636}}, "errors": ["PreArm: Hardware safety switch", "PreArm: GPS glitching", "PreArm: Internal errors 0x100000 l:66 flow_of_ctrl", "PreArm: Hardware safety switch", "PreArm: GPS glitching", "PreArm: Internal errors 0x100000 l:66 flow_of_ctrl", "PreArm: Hardware safety switch", "PreArm: GPS glitching", "PreArm: Internal errors 0x100000 l:66 flow_of_ctrl"]}
{"timestamp": "2025-12-28T10:53:08.868328Z", "telemetry": {"lat": 28.7531422, "lon": 77.117846, "satellites": 11, "altitude_gps_m": 213.0699920654297, "groundspeed_mps": 0.5911825299263}, "flight": {"mode": "LOITER", "armed": false}, "ekf": {"attitude": {"roll": -0.029382359236478806, "pitch": -0.0017789327539503574, "yaw": 3.0474607944488525}, "local_position": {"x": 8.031825065612793, "y": -3.0299627780914307, "z": -4.161678791046143}, "status": {"flags": 33599, "velocity_variance": 0.14146794378757477, "pos_horiz_variance": 0.017738157883286476, "pos_vert_variance": 0.03515658155083656}}, "errors": ["PreArm: Hardware safety switch", "PreArm: GPS glitching", "PreArm: Internal errors 0x100000 l:66 flow_of_ctrl", "PreArm: Hardware safety switch", "PreArm: GPS glitching", "PreArm: Internal errors 0x100000 l:66 flow_of_ctrl", "PreArm: Hardware safety switch", "PreArm: GPS glitching", "PreArm: Internal errors 0x100000 l:66 flow_of_ctrl"]}
{"timestamp": "2025-12-28T10:53:09.868476Z", "telemetry": {"lat": 28.7531413, "lon": 77.1178424, "satellites": 11, "altitude_gps_m": 213.02999877929688, "groundspeed_mps": 0.49159055948257446}, "flight": {"mode": "LOITER", "armed": false}, "ekf": {"attitude": {"roll": -0.028804641216993332, "pitch": -0.0005392935127019882, "yaw": 3.0473973751068115}, "local_position": {"x": 7.635124206542969, "y": -3.134603977203369, "z": -4.102883338928223}, "status": {"flags": 33599, "velocity_variance": 0.06928310543298721, "pos_horiz_variance": 0.010606097988784313, "pos_vert_variance": 0.06602316349744797}}, "errors": ["PreArm: Hardware safety switch", "PreArm: GPS glitching", "PreArm: Internal errors 0x100000 l:66 flow_of_ctrl", "PreArm: Hardware safety switch", "PreArm: GPS glitching", "PreArm: Internal errors 0x100000 l:66 flow_of_ctrl", "PreArm: Hardware safety switch", "PreArm: GPS glitching", "PreArm: Internal errors 0x100000 l:66 flow_of_ctrl"]}
{"timestamp": "2025-12-28T10:53:10.870832Z", "telemetry": {"lat": 28.753139, "lon": 77.1178441, "satellites": 11, "altitude_gps_m": 213.04998779296875, "groundspeed_mps": 0.44089484214782715}, "flight": {"mode": "LOITER", "armed": false}, "ekf": {"attitude": {"roll": -0.028732184320688248, "pitch": -5.691591650247574e-05, "yaw": 3.0474114418029785}, "local_position": {"x": 7.145105361938477, "y": -3.0238046646118164, "z": -4.130115032196045}, "status": {"flags": 33599, "velocity_variance": 0.17856299877166748, "pos_horiz_variance": 0.004960194230079651, "pos_vert_variance": 0.052917711436748505}}, "errors": ["PreArm: Hardware safety switch", "PreArm: GPS glitching", "PreArm: Internal errors 0x100000 l:66 flow_of_ctrl", "PreArm: Hardware safety switch", "PreArm: GPS glitching", "PreArm: Internal errors 0x100000 l:66 flow_of_ctrl", "PreArm: Hardware safety switch", "PreArm: GPS glitching", "PreArm: Internal errors 0x100000 l:66 flow_of_ctrl"]}
{"timestamp": "2025-12-28T10:53:11.868787Z", "telemetry": {"lat": 28.7531394, "lon": 77.1178469, "satellites": 11, "altitude_gps_m": 213.04998779296875, "groundspeed_mps": 0.33569031953811646}, "flight": {"mode": "LOITER", "armed": false}, "ekf": {"attitude": {"roll": -0.029175084084272385, "pitch": 0.0014095266815274954, "yaw": 3.0473949909210205}, "local_position": {"x": 6.93182897567749, "y": -2.8836894035339355, "z": -4.121565818786621}, "status": {"flags": 33599, "velocity_variance": 0.20423118770122528, "pos_horiz_variance": 0.0035417547915130854, "pos_vert_variance": 0.030967816710472107}}, "errors": ["PreArm: Hardware safety switch", "PreArm: GPS glitching", "PreArm: Internal errors 0x100000 l:66 flow_of_ctrl", "PreArm: Hardware safety switch", "PreArm: GPS glitching", "PreArm: Internal errors 0x100000 l:66 flow_of_ctrl", "PreArm: Hardware safety switch", "PreArm: GPS glitching", "PreArm: Internal errors 0x100000 l:66 flow_of_ctrl"]}
{"timestamp": "2025-12-28T10:53:12.868741Z", "telemetry": {"lat": 28.7531395, "lon": 77.1178449, "satellites": 11, "altitude_gps_m": 213.0699920654297, "groundspeed_mps": 0.18996000289916992}, "flight": {"mode": "LOITER", "armed": false}, "ekf": {"attitude": {"roll": -0.02831420674920082, "pitch": 0.0025027815718203783, "yaw": 3.0472986698150635}, "local_position": {"x": 6.947290420532227, "y": -2.899188995361328, "z": -4.146369457244873}, "status": {"flags": 33599, "velocity_variance": 0.1984124630689621, "pos_horiz_variance": 0.0033227705862373114, "pos_vert_variance": 0.0025901957415044308}}, "errors": ["PreArm: Hardware safety switch", "PreArm: GPS glitching", "PreArm: Internal errors 0x100000 l:66 flow_of_ctrl", "PreArm: Hardware safety switch", "PreArm: GPS glitching", "PreArm: Internal errors 0x100000 l:66 flow_of_ctrl", "PreArm: Hardware safety switch", "PreArm: GPS glitching", "PreArm: Internal errors 0x100000 l:66 flow_of_ctrl"]}
{"timestamp": "2025-12-28T10:53:13.868526Z", "telemetry": {"lat": 28.7531412, "lon": 77.1178392, "satellites": 11, "altitude_gps_m": 213.14999389648438, "groundspeed_mps": 0.1426551789045334}, "flight": {"mode": "LOITER", "armed": false}, "ekf": {"attitude": {"roll": -0.027172911912202835, "pitch": 0.0039037740789353848, "yaw": 3.0470833778381348}, "local_position": {"x": 7.052819728851318, "y": -3.2038097381591797, "z": -4.223859786987305}, "status": {"flags": 33599, "velocity_variance": 0.3199656903743744, "pos_horiz_variance": 0.010442784056067467, "pos_vert_variance": 0.00319428532384336}}, "errors": ["PreArm: Hardware safety switch", "PreArm: GPS glitching", "PreArm: Internal errors 0x100000 l:66 flow_of_ctrl", "PreArm: Hardware safety switch", "PreArm: GPS glitching", "PreArm: Internal errors 0x100000 l:66 flow_of_ctrl", "PreArm: Hardware safety switch", "PreArm: GPS glitching", "PreArm: Internal errors 0x100000 l:66 flow_of_ctrl"]}
{"timestamp": "2025-12-28T10:53:14.868773Z", "telemetry": {"lat": 28.7531467, "lon": 77.1178345, "satellites": 11, "altitude_gps_m": 213.14999389648438, "groundspeed_mps": 0.3306715190410614}, "flight": {"mode": "LOITER", "armed": false}, "ekf": {"attitude": {"roll": -0.026479560881853104, "pitch": 0.00634652329608798, "yaw": 3.0467448234558105}, "local_position": {"x": 7.440900802612305, "y": -3.589939832687378, "z": -4.239475727081299}, "status": {"flags": 33599, "velocity_variance": 0.4312758147716522, "pos_horiz_variance": 0.017419857904314995, "pos_vert_variance": 0.050044234842061996}}, "errors": ["PreArm: Hardware safety switch", "PreArm: GPS glitching", "PreArm: Internal errors 0x100000 l:66 flow_of_ctrl", "PreArm: Hardware safety switch", "PreArm: GPS glitching", "PreArm: Internal errors 0x100000 l:66 flow_of_ctrl", "PreArm: Hardware safety switch", "PreArm: GPS glitching", "PreArm: Internal errors 0x100000 l:66 flow_of_ctrl"]}
{"timestamp": "2025-12-28T10:53:15.868159Z", "telemetry": {"lat": 28.753153, "lon": 77.1178312, "satellites": 11, "altitude_gps_m": 213.14999389648438, "groundspeed_mps": 0.4690874516963959}, "flight": {"mode": "LOITER", "armed": false}, "ekf": {"attitude": {"roll": -0.026240769773721695, "pitch": 0.007674046792089939, "yaw": 3.0464322566986084}, "local_position": {"x": 8.075329780578613, "y": -3.9820051193237305, "z": -4.222001075744629}, "status": {"flags": 33599, "velocity_variance": 0.10782323032617569, "pos_horiz_variance": 0.018683811649680138, "pos_vert_variance": 0.03245658800005913}}, "errors": ["PreArm: Hardware safety switch", "PreArm: GPS glitching", "PreArm: Internal errors 0x100000 l:66 flow_of_ctrl", "PreArm: Hardware safety switch", "PreArm: GPS glitching", "PreArm: Internal errors 0x100000 l:66 flow_of_ctrl", "PreArm: Hardware safety switch", "PreArm: GPS glitching", "PreArm: Internal errors 0x100000 l:66 flow_of_ctrl"]}
