{"timestamp": "2025-12-27T11:00:50.905263Z", "telemetry": {"lat": null, "lon": null, "satellites": null, "altitude_gps_m": null, "groundspeed_mps": null}, "flight": {"mode": "STABILIZE", "armed": false}, "ekf": {"attitude": {"roll": null, "pitch": null, "yaw": null}, "local_position": {"x": null, "y": null, "z": null}, "status": {"flags": null, "velocity_variance": null, "pos_horiz_variance": null, "pos_vert_variance": null}}, "errors": []}
{"timestamp": "2025-12-27T11:00:51.855592Z", "telemetry": {"lat": 28.7530795, "lon": 77.117739, "satellites": 6, "altitude_gps_m": 219.67999267578125, "groundspeed_mps": 0.013210180215537548}, "flight": {"mode": "STABILIZE", "armed": false}, "ekf": {"attitude": {"roll": 0.05312574654817581, "pitch": 0.0036980663426220417, "yaw": 1.0771924257278442}, "local_position": {"x": null, "y": null, "z": null}, "status": {"flags": 135, "velocity_variance": 0.0, "pos_horiz_variance": 0.0027364494744688272, "pos_vert_variance": 0.03400960937142372}}, "errors": []}
{"timestamp": "2025-12-27T11:00:52.805268Z", "telemetry": {"lat": 28.753086, "lon": 77.1177448, "satellites": 6, "altitude_gps_m": 217.0800018310547, "groundspeed_mps": 0.01022836472839117}, "flight": {"mode": "STABILIZE", "armed": false}, "ekf": {"attitude": {"roll": 0.05280598625540733, "pitch": 0.004436597693711519, "yaw": 1.0766745805740356}, "local_position": {"x": null, "y": null, "z": null}, "status": {"flags": 135, "velocity_variance": 0.0, "pos_horiz_variance": 0.003325816709548235, "pos_vert_variance": 0.06228824704885483}}, "errors": []}
{"timestamp": "2025-12-27T11:00:53.798921Z", "telemetry": {"lat": 28.7530875, "lon": 77.1177462, "satellites": 6, "altitude_gps_m": 215.76998901367188, "groundspeed_mps": 0.009316995739936829}, "flight": {"mode": "STABILIZE", "armed": false}, "ekf": {"attitude": {"roll": 0.052350807934999466, "pitch": 0.005171848926693201, "yaw": 1.0779645442962646}, "local_position": {"x": null, "y": null, "z": null}, "status": {"flags": 135, "velocity_variance": 0.0, "pos_horiz_variance": 0.003248949535191059, "pos_vert_variance": 0.01904049701988697}}, "errors": []}
{"timestamp": "2025-12-27T11:00:54.799177Z", "telemetry": {"lat": 28.7530953, "lon": 77.1177458, "satellites": 6, "altitude_gps_m": 215.0, "groundspeed_mps": 0.009514597244560719}, "flight": {"mode": "STABILIZE", "armed": false}, "ekf": {"attitude": {"roll": 0.052494391798973083, "pitch": 0.0049395207315683365, "yaw": 1.0777971744537354}, "local_position": {"x": null, "y": null, "z": null}, "status": {"flags": 135, "velocity_variance": 0.0, "pos_horiz_variance": 0.003054099390283227, "pos_vert_variance": 0.009867711924016476}}, "errors": []}
{"timestamp": "2025-12-27T11:00:55.799418Z", "telemetry": {"lat": 28.7531052, "lon": 77.1177512, "satellites": 6, "altitude_gps_m": 212.489990234375, "groundspeed_mps": 0.008740879595279694}, "flight": {"mode": "STABILIZE", "armed": false}, "ekf": {"attitude": {"roll": 0.05247068032622337, "pitch": 0.005107854027301073, "yaw": 1.0776478052139282}, "local_position": {"x": null, "y": null, "z": null}, "status": {"flags": 135, "velocity_variance": 0.0, "pos_horiz_variance": 0.0029553326312452555, "pos_vert_variance": 0.02929849363863468}}, "errors": []}
{"timestamp": "2025-12-27T11:00:56.798749Z", "telemetry": {"lat": 28.753106, "lon": 77.1177549, "satellites": 6, "altitude_gps_m": 213.05999755859375, "groundspeed_mps": 0.0059781307354569435}, "flight": {"mode": "STABILIZE", "armed": false}, "ekf": {"attitude": {"roll": 0.05246426537632942, "pitch": 0.005278320983052254, "yaw": 1.0773472785949707}, "local_position": {"x": null, "y": null, "z": null}, "status": {"flags": 135, "velocity_variance": 0.0, "pos_horiz_variance": 0.0024499893188476562, "pos_vert_variance": 0.10212879627943039}}, "errors": []}
{"timestamp": "2025-12-27T11:00:57.798347Z", "telemetry": {"lat": 28.7530987, "lon": 77.1177483, "satellites": 6, "altitude_gps_m": 215.1199951171875, "groundspeed_mps": 0.004016853403300047}, "flight": {"mode": "STABILIZE", "armed": false}, "ekf": {"attitude": {"roll": 0.0527007132768631, "pitch": 0.005066724494099617, "yaw": 1.077417016029358}, "local_position": {"x": null, "y": null, "z": null}, "status": {"flags": 135, "velocity_variance": 0.0, "pos_horiz_variance": 0.002018528524786234, "pos_vert_variance": 0.026956360787153244}}, "errors": []}
{"timestamp": "2025-12-27T11:00:58.798794Z", "telemetry": {"lat": 28.7530892, "lon": 77.1177414, "satellites": 6, "altitude_gps_m": 217.64999389648438, "groundspeed_mps": 0.0015424479497596622}, "flight": {"mode": "STABILIZE", "armed": false}, "ekf": {"attitude": {"roll": 0.052966322749853134, "pitch": 0.004662998951971531, "yaw": 1.0773855447769165}, "local_position": {"x": null, "y": null, "z": null}, "status": {"flags": 135, "velocity_variance": 0.0, "pos_horiz_variance": 0.0012021183501929045, "pos_vert_variance": 0.00853846687823534}}, "errors": []}
{"timestamp": "2025-12-27T11:00:59.799369Z", "telemetry": {"lat": 28.7530943, "lon": 77.1177435, "satellites": 6, "altitude_gps_m": 217.1599884033203, "groundspeed_mps": 0.003813286544755101}, "flight": {"mode": "STABILIZE", "armed": false}, "ekf": {"attitude": {"roll": 0.0527794286608696, "pitch": 0.004867426585406065, "yaw": 1.0772452354431152}, "local_position": {"x": null, "y": null, "z": null}, "status": {"flags": 135, "velocity_variance": 0.0, "pos_horiz_variance": 0.0005651697865687311, "pos_vert_variance": 0.02651509828865528}}, "errors": ["PreArm: Hardware safety switch"]}
{"timestamp": "2025-12-27T11:01:00.798684Z", "telemetry": {"lat": 28.7530954, "lon": 77.1177494, "satellites": 6, "altitude_gps_m": 216.36000061035156, "groundspeed_mps": 0.005732125137001276}, "flight": {"mode": "STABILIZE", "armed": false}, "ekf": {"attitude": {"roll": 0.052687086164951324, "pitch": 0.00470581091940403, "yaw": 1.077393889427185}, "local_position": {"x": null, "y": null, "z": null}, "status": {"flags": 135, "velocity_variance": 0.0, "pos_horiz_variance": 0.001067747944034636, "pos_vert_variance": 0.018700189888477325}}, "errors": ["PreArm: Hardware safety switch"]}
{"timestamp": "2025-12-27T11:01:01.803159Z", "telemetry": {"lat": 28.7530984, "lon": 77.1177487, "satellites": 7, "altitude_gps_m": 214.47000122070312, "groundspeed_mps": 0.003260701661929488}, "flight": {"mode": "STABILIZE", "armed": false}, "ekf": {"attitude": {"roll": 0.05278420448303223, "pitch": 0.004621125292032957, "yaw": 1.0775058269500732}, "local_position": {"x": null, "y": null, "z": null}, "status": {"flags": 135, "velocity_variance": 0.0, "pos_horiz_variance": 0.0014652027748525143, "pos_vert_variance": 0.014678620733320713}}, "errors": ["PreArm: Hardware safety switch"]}
{"timestamp": "2025-12-27T11:01:02.798892Z", "telemetry": {"lat": 28.7531052, "lon": 77.1177577, "satellites": 7, "altitude_gps_m": 211.8199920654297, "groundspeed_mps": 0.00359027530066669}, "flight": {"mode": "STABILIZE", "armed": false}, "ekf": {"attitude": {"roll": 0.053609445691108704, "pitch": 0.0033405539579689503, "yaw": 1.076565146446228}, "local_position": {"x": null, "y": null, "z": null}, "status": {"flags": 135, "velocity_variance": 0.0, "pos_horiz_variance": 0.0014035814674571157, "pos_vert_variance": 0.017830556258559227}}, "errors": ["PreArm: Hardware safety switch"]}
{"timestamp": "2025-12-27T11:01:03.798624Z", "telemetry": {"lat": 28.7531195, "lon": 77.1177765, "satellites": 7, "altitude_gps_m": 207.05999755859375, "groundspeed_mps": 0.007281319238245487}, "flight": {"mode": "STABILIZE", "armed": false}, "ekf": {"attitude": {"roll": 0.05301906540989876, "pitch": 0.004234750755131245, "yaw": 1.0779856443405151}, "local_position": {"x": null, "y": null, "z": null}, "status": {"flags": 135, "velocity_variance": 0.0, "pos_horiz_variance": 0.0011253576958552003, "pos_vert_variance": 0.01312789972871542}}, "errors": ["PreArm: Hardware safety switch"]}
{"timestamp": "2025-12-27T11:01:04.798768Z", "telemetry": {"lat": 28.7531268, "lon": 77.1177814, "satellites": 7, "altitude_gps_m": 202.69000244140625, "groundspeed_mps": 0.007343104109168053}, "flight": {"mode": "STABILIZE", "armed": false}, "ekf": {"attitude": {"roll": 0.053753357380628586, "pitch": 0.0031971309799700975, "yaw": 1.0766217708587646}, "local_position": {"x": null, "y": null, "z": null}, "status": {"flags": 135, "velocity_variance": 0.0, "pos_horiz_variance": 0.0016098427586257458, "pos_vert_variance": 0.02143651619553566}}, "errors": ["PreArm: Hardware safety switch"]}
{"timestamp": "2025-12-27T11:01:05.799179Z", "telemetry": {"lat": 28.7531381, "lon": 77.1177879, "satellites": 6, "altitude_gps_m": 197.22000122070312, "groundspeed_mps": 0.011011130176484585}, "flight": {"mode": "STABILIZE", "armed": false}, "ekf": {"attitude": {"roll": 0.053531743586063385, "pitch": 0.003726885188370943, "yaw": 1.0762925148010254}, "local_position": {"x": null, "y": null, "z": null}, "status": {"flags": 135, "velocity_variance": 0.0, "pos_horiz_variance": 0.0021537074353545904, "pos_vert_variance": 0.0542154423892498}}, "errors": ["PreArm: Hardware safety switch"]}
{"timestamp": "2025-12-27T11:01:06.798652Z", "telemetry": {"lat": 28.7531647, "lon": 77.1177996, "satellites": 7, "altitude_gps_m": 187.59999084472656, "groundspeed_mps": 0.0055557177402079105}, "flight": {"mode": "STABILIZE", "armed": false}, "ekf": {"attitude": {"roll": 0.053301624953746796, "pitch": 0.004159007221460342, "yaw": 1.0764161348342896}, "local_position": {"x": null, "y": null, "z": null}, "status": {"flags": 135, "velocity_variance": 0.0, "pos_horiz_variance": 0.0022513691801577806, "pos_vert_variance": 0.013388730585575104}}, "errors": ["PreArm: Hardware safety switch"]}
{"timestamp": "2025-12-27T11:01:07.798818Z", "telemetry": {"lat": 28.7531948, "lon": 77.1178197, "satellites": 7, "altitude_gps_m": 176.6999969482422, "groundspeed_mps": 0.006446662824600935}, "flight": {"mode": "STABILIZE", "armed": false}, "ekf": {"attitude": {"roll": 0.05389491096138954, "pitch": 0.003162040840834379, "yaw": 1.0761114358901978}, "local_position": {"x": null, "y": null, "z": null}, "status": {"flags": 135, "velocity_variance": 0.0, "pos_horiz_variance": 0.0019917383324354887, "pos_vert_variance": 0.018953612074255943}}, "errors": ["PreArm: Hardware safety switch"]}
{"timestamp": "2025-12-27T11:01:08.798965Z", "telemetry": {"lat": 28.7532332, "lon": 77.117841, "satellites": 7, "altitude_gps_m": 163.58999633789062, "groundspeed_mps": 0.007085541263222694}, "flight": {"mode": "STABILIZE", "armed": false}, "ekf": {"attitude": {"roll": 0.054034240543842316, "pitch": 0.0032065347768366337, "yaw": 1.0761923789978027}, "local_position": {"x": null, "y": null, "z": null}, "status": {"flags": 135, "velocity_variance": 0.0, "pos_horiz_variance": 0.0019103435333818197, "pos_vert_variance": 0.04393478110432625}}, "errors": ["PreArm: Hardware safety switch"]}
{"timestamp": "2025-12-27T11:01:09.798986Z", "telemetry": {"lat": 28.7532606, "lon": 77.1178556, "satellites": 6, "altitude_gps_m": 153.37998962402344, "groundspeed_mps": 0.0069875819608569145}, "flight": {"mode": "STABILIZE", "armed": false}, "ekf": {"attitude": {"roll": 0.05413937568664551, "pitch": 0.0034054629504680634, "yaw": 1.0761457681655884}, "local_position": {"x": null, "y": null, "z": null}, "status": {"flags": 135, "velocity_variance": 0.0, "pos_horiz_variance": 0.0019908130634576082, "pos_vert_variance": 0.047424010932445526}}, "errors": ["PreArm: Hardware safety switch"]}
{"timestamp": "2025-12-27T11:01:10.799094Z", "telemetry": {"lat": 28.7532798, "lon": 77.117869, "satellites": 6, "altitude_gps_m": 148.4199981689453, "groundspeed_mps": 0.0060887946747243404}, "flight": {"mode": "STABILIZE", "armed": false}, "ekf": {"attitude": {"roll": 0.054172199219465256, "pitch": 0.00362303014844656, "yaw": 1.0760854482650757}, "local_position": {"x": null, "y": null, "z": null}, "status": {"flags": 135, "velocity_variance": 0.0, "pos_horiz_variance": 0.0017825349932536483, "pos_vert_variance": 0.07477337121963501}}, "errors": ["PreArm: Hardware safety switch"]}
{"timestamp": "2025-12-27T11:01:11.803926Z", "telemetry": {"lat": 28.7532959, "lon": 77.1178796, "satellites": 6, "altitude_gps_m": 143.95999145507812, "groundspeed_mps": 0.00671353517100215}, "flight": {"mode": "STABILIZE", "armed": false}, "ekf": {"attitude": {"roll": 0.05420594662427902, "pitch": 0.003699955064803362, "yaw": 1.0759838819503784}, "local_position": {"x": null, "y": null, "z": null}, "status": {"flags": 135, "velocity_variance": 0.0, "pos_horiz_variance": 0.0015441166469827294, "pos_vert_variance": 0.004990515764802694}}, "errors": ["PreArm: Hardware safety switch"]}
{"timestamp": "2025-12-27T11:01:12.805045Z", "telemetry": {"lat": 28.7533, "lon": 77.1178803, "satellites": 6, "altitude_gps_m": 141.1199951171875, "groundspeed_mps": 0.01102179754525423}, "flight": {"mode": "STABILIZE", "armed": false}, "ekf": {"attitude": {"roll": 0.05418408662080765, "pitch": 0.0037609634455293417, "yaw": 1.0758496522903442}, "local_position": {"x": null, "y": null, "z": null}, "status": {"flags": 135, "velocity_variance": 0.0, "pos_horiz_variance": 0.0017863661050796509, "pos_vert_variance": 0.028714606538414955}}, "errors": ["PreArm: Hardware safety switch"]}
{"timestamp": "2025-12-27T11:01:13.799719Z", "telemetry": {"lat": 28.7533069, "lon": 77.1178754, "satellites": 6, "altitude_gps_m": 138.5, "groundspeed_mps": 0.011713987216353416}, "flight": {"mode": "STABILIZE", "armed": false}, "ekf": {"attitude": {"roll": 0.05403713509440422, "pitch": 0.003960992209613323, "yaw": 1.0757430791854858}, "local_position": {"x": null, "y": null, "z": null}, "status": {"flags": 135, "velocity_variance": 0.0, "pos_horiz_variance": 0.0025027384981513023, "pos_vert_variance": 0.04108867049217224}}, "errors": ["PreArm: Hardware safety switch"]}
{"timestamp": "2025-12-27T11:01:14.798474Z", "telemetry": {"lat": 28.7533207, "lon": 77.1178712, "satellites": 6, "altitude_gps_m": 135.1999969482422, "groundspeed_mps": 0.011924294754862785}, "flight": {"mode": "STABILIZE", "armed": false}, "ekf": {"attitude": {"roll": 0.05401343107223511, "pitch": 0.0038822186179459095, "yaw": 1.0757490396499634}, "local_position": {"x": null, "y": null, "z": null}, "status": {"flags": 135, "velocity_variance": 0.0, "pos_horiz_variance": 0.002843318274244666, "pos_vert_variance": 0.013890216127038002}}, "errors": ["PreArm: Hardware safety switch"]}
{"timestamp": "2025-12-27T11:01:15.798320Z", "telemetry": {"lat": 28.7533281, "lon": 77.1178702, "satellites": 6, "altitude_gps_m": 131.89999389648438, "groundspeed_mps": 0.010807618498802185}, "flight": {"mode": "STABILIZE", "armed": false}, "ekf": {"attitude": {"roll": 0.05388256907463074, "pitch": 0.0039927042089402676, "yaw": 1.0755351781845093}, "local_position": {"x": null, "y": null, "z": null}, "status": {"flags": 135, "velocity_variance": 0.0, "pos_horiz_variance": 0.0028606464620679617, "pos_vert_variance": 0.0163273885846138}}, "errors": ["PreArm: Hardware safety switch"]}
{"timestamp": "2025-12-27T11:01:16.798313Z", "telemetry": {"lat": 28.7533316, "lon": 77.1178756, "satellites": 6, "altitude_gps_m": 129.63999938964844, "groundspeed_mps": 0.008500582538545132}, "flight": {"mode": "STABILIZE", "armed": false}, "ekf": {"attitude": {"roll": 0.05387987941503525, "pitch": 0.0038959807716310024, "yaw": 1.0754969120025635}, "local_position": {"x": null, "y": null, "z": null}, "status": {"flags": 135, "velocity_variance": 0.0, "pos_horiz_variance": 0.0025859465822577477, "pos_vert_variance": 0.023073602467775345}}, "errors": ["PreArm: Hardware safety switch"]}
{"timestamp": "2025-12-27T11:01:17.798957Z", "telemetry": {"lat": 28.753348, "lon": 77.1178782, "satellites": 6, "altitude_gps_m": 126.89999389648438, "groundspeed_mps": 0.0074696470983326435}, "flight": {"mode": "STABILIZE", "armed": false}, "ekf": {"attitude": {"roll": 0.0537867434322834, "pitch": 0.003980990964919329, "yaw": 1.075262188911438}, "local_position": {"x": null, "y": null, "z": null}, "status": {"flags": 135, "velocity_variance": 0.0, "pos_horiz_variance": 0.002329072915017605, "pos_vert_variance": 0.03344456106424332}}, "errors": ["PreArm: Hardware safety switch"]}
{"timestamp": "2025-12-27T11:01:18.798336Z", "telemetry": {"lat": 28.7533596, "lon": 77.1178836, "satellites": 6, "altitude_gps_m": 123.88999938964844, "groundspeed_mps": 0.005580546334385872}, "flight": {"mode": "STABILIZE", "armed": false}, "ekf": {"attitude": {"roll": 0.053797099739313126, "pitch": 0.00394422048702836, "yaw": 1.075070858001709}, "local_position": {"x": null, "y": null, "z": null}, "status": {"flags": 135, "velocity_variance": 0.0, "pos_horiz_variance": 0.002095453906804323, "pos_vert_variance": 0.004686372820287943}}, "errors": ["PreArm: Hardware safety switch"]}
{"timestamp": "2025-12-27T11:01:19.798378Z", "telemetry": {"lat": 28.7533698, "lon": 77.1178872, "satellites": 6, "altitude_gps_m": 120.91999816894531, "groundspeed_mps": 0.0058096605353057384}, "flight": {"mode": "STABILIZE", "armed": false}, "ekf": {"attitude": {"roll": 0.053796399384737015, "pitch": 0.00383836030960083, "yaw": 1.0750200748443604}, "local_position": {"x": null, "y": null, "z": null}, "status": {"flags": 135, "velocity_variance": 0.0, "pos_horiz_variance": 0.0017188171623274684, "pos_vert_variance": 0.02910645678639412}}, "errors": ["PreArm: Hardware safety switch"]}
{"timestamp": "2025-12-27T11:01:20.798704Z", "telemetry": {"lat": 28.7533831, "lon": 77.1178909, "satellites": 6, "altitude_gps_m": 116.79000091552734, "groundspeed_mps": 0.0036408938467502594}, "flight": {"mode": "STABILIZE", "armed": false}, "ekf": {"attitude": {"roll": 0.05367914214730263, "pitch": 0.0038136160001158714, "yaw": 1.0749887228012085}, "local_position": {"x": null, "y": null, "z": null}, "status": {"flags": 135, "velocity_variance": 0.0, "pos_horiz_variance": 0.0013802731409668922, "pos_vert_variance": 0.03648534417152405}}, "errors": ["PreArm: Hardware safety switch"]}
{"timestamp": "2025-12-27T11:01:21.799122Z", "telemetry": {"lat": 28.7533955, "lon": 77.1178911, "satellites": 6, "altitude_gps_m": 113.08999633789062, "groundspeed_mps": 0.007285196799784899}, "flight": {"mode": "STABILIZE", "armed": false}, "ekf": {"attitude": {"roll": 0.053655195981264114, "pitch": 0.003777662990614772, "yaw": 1.0749099254608154}, "local_position": {"x": null, "y": null, "z": null}, "status": {"flags": 135, "velocity_variance": 0.0, "pos_horiz_variance": 0.0010915894526988268, "pos_vert_variance": 0.06723948568105698}}, "errors": ["PreArm: Hardware safety switch"]}
{"timestamp": "2025-12-27T11:01:22.804168Z", "telemetry": {"lat": 28.7534049, "lon": 77.1179005, "satellites": 6, "altitude_gps_m": 110.55999755859375, "groundspeed_mps": 0.00801835861057043}, "flight": {"mode": "STABILIZE", "armed": false}, "ekf": {"attitude": {"roll": 0.053662773221731186, "pitch": 0.0037571443244814873, "yaw": 1.0748257637023926}, "local_position": {"x": null, "y": null, "z": null}, "status": {"flags": 135, "velocity_variance": 0.0, "pos_horiz_variance": 0.0016203279374167323, "pos_vert_variance": 0.03588835150003433}}, "errors": ["PreArm: Hardware safety switch"]}
{"timestamp": "2025-12-27T11:01:23.800338Z", "telemetry": {"lat": 28.7534096, "lon": 77.1179011, "satellites": 6, "altitude_gps_m": 108.63999938964844, "groundspeed_mps": 0.006596639286726713}, "flight": {"mode": "STABILIZE", "armed": false}, "ekf": {"attitude": {"roll": 0.05357792228460312, "pitch": 0.003761409316211939, "yaw": 1.0748250484466553}, "local_position": {"x": null, "y": null, "z": null}, "status": {"flags": 135, "velocity_variance": 0.0, "pos_horiz_variance": 0.0017145236488431692, "pos_vert_variance": 0.042297568172216415}}, "errors": ["PreArm: Hardware safety switch"]}
{"timestamp": "2025-12-27T11:01:24.798956Z", "telemetry": {"lat": 28.7534297, "lon": 77.1179063, "satellites": 6, "altitude_gps_m": 103.55999755859375, "groundspeed_mps": 0.0071937390603125095}, "flight": {"mode": "STABILIZE", "armed": false}, "ekf": {"attitude": {"roll": 0.053511232137680054, "pitch": 0.0036190003156661987, "yaw": 1.074823260307312}, "local_position": {"x": null, "y": null, "z": null}, "status": {"flags": 135, "velocity_variance": 0.0, "pos_horiz_variance": 0.0018125168280676007, "pos_vert_variance": 0.06690611690282822}}, "errors": ["PreArm: Hardware safety switch"]}
{"timestamp": "2025-12-27T11:01:25.798691Z", "telemetry": {"lat": 28.7534423, "lon": 77.1179144, "satellites": 7, "altitude_gps_m": 98.97000122070312, "groundspeed_mps": 0.0049069724045693874}, "flight": {"mode": "STABILIZE", "armed": false}, "ekf": {"attitude": {"roll": 0.05356711894273758, "pitch": 0.0036728286650031805, "yaw": 1.07466721534729}, "local_position": {"x": null, "y": null, "z": null}, "status": {"flags": 135, "velocity_variance": 0.0, "pos_horiz_variance": 0.001777210389263928, "pos_vert_variance": 0.10088033229112625}}, "errors": ["PreArm: Hardware safety switch"]}
{"timestamp": "2025-12-27T11:01:26.798980Z", "telemetry": {"lat": 28.7534528, "lon": 77.1179137, "satellites": 7, "altitude_gps_m": 95.5999984741211, "groundspeed_mps": 0.004721703473478556}, "flight": {"mode": "STABILIZE", "armed": false}, "ekf": {"attitude": {"roll": 0.0535651370882988, "pitch": 0.003735883394256234, "yaw": 1.074639916419983}, "local_position": {"x": null, "y": null, "z": null}, "status": {"flags": 135, "velocity_variance": 0.0, "pos_horiz_variance": 0.001425239723175764, "pos_vert_variance": 0.016645602881908417}}, "errors": ["PreArm: Hardware safety switch"]}
{"timestamp": "2025-12-27T11:01:27.798973Z", "telemetry": {"lat": 28.7534562, "lon": 77.1179161, "satellites": 6, "altitude_gps_m": 95.13999938964844, "groundspeed_mps": 0.005527484230697155}, "flight": {"mode": "STABILIZE", "armed": false}, "ekf": {"attitude": {"roll": 0.0535096749663353, "pitch": 0.0038961393292993307, "yaw": 1.0745213031768799}, "local_position": {"x": null, "y": null, "z": null}, "status": {"flags": 135, "velocity_variance": 0.0, "pos_horiz_variance": 0.0013150175800547004, "pos_vert_variance": 0.08167918026447296}}, "errors": ["PreArm: Hardware safety switch"]}
{"timestamp": "2025-12-27T11:01:28.799017Z", "telemetry": {"lat": 28.7534692, "lon": 77.1179179, "satellites": 6, "altitude_gps_m": 92.8499984741211, "groundspeed_mps": 0.003071591490879655}, "flight": {"mode": "STABILIZE", "armed": false}, "ekf": {"attitude": {"roll": 0.053525619208812714, "pitch": 0.003854349022731185, "yaw": 1.0746033191680908}, "local_position": {"x": null, "y": null, "z": null}, "status": {"flags": 135, "velocity_variance": 0.0, "pos_horiz_variance": 0.0014525223523378372, "pos_vert_variance": 0.0011915328213945031}}, "errors": ["PreArm: Hardware safety switch"]}
{"timestamp": "2025-12-27T11:01:29.798261Z", "telemetry": {"lat": 28.7534732, "lon": 77.117928, "satellites": 6, "altitude_gps_m": 91.73999786376953, "groundspeed_mps": 0.001654790947213769}, "flight": {"mode": "STABILIZE", "armed": false}, "ekf": {"attitude": {"roll": 0.053416717797517776, "pitch": 0.004138009622693062, "yaw": 1.0744481086730957}, "local_position": {"x": null, "y": null, "z": null}, "status": {"flags": 135, "velocity_variance": 0.0, "pos_horiz_variance": 0.0009275589836761355, "pos_vert_variance": 0.036546964198350906}}, "errors": ["PreArm: Hardware safety switch"]}
{"timestamp": "2025-12-27T11:01:30.798878Z", "telemetry": {"lat": 28.7534769, "lon": 77.1179354, "satellites": 5, "altitude_gps_m": 90.1500015258789, "groundspeed_mps": 0.005952470935881138}, "flight": {"mode": "STABILIZE", "armed": false}, "ekf": {"attitude": {"roll": 0.05343988537788391, "pitch": 0.003880327334627509, "yaw": 1.074357032775879}, "local_position": {"x": null, "y": null, "z": null}, "status": {"flags": 135, "velocity_variance": 0.0, "pos_horiz_variance": 0.0009214192978106439, "pos_vert_variance": 0.03255429118871689}}, "errors": ["PreArm: Hardware safety switch", "PreArm: Hardware safety switch"]}
{"timestamp": "2025-12-27T11:01:31.799019Z", "telemetry": {"lat": 28.7534835, "lon": 77.1179503, "satellites": 5, "altitude_gps_m": 88.19999694824219, "groundspeed_mps": 0.006961996201425791}, "flight": {"mode": "STABILIZE", "armed": false}, "ekf": {"attitude": {"roll": 0.05354335159063339, "pitch": 0.003947879187762737, "yaw": 1.0743951797485352}, "local_position": {"x": null, "y": null, "z": null}, "status": {"flags": 135, "velocity_variance": 0.0, "pos_horiz_variance": 0.0011978154070675373, "pos_vert_variance": 0.049992531538009644}}, "errors": ["PreArm: Hardware safety switch", "PreArm: Hardware safety switch"]}
{"timestamp": "2025-12-27T11:01:32.798923Z", "telemetry": {"lat": 28.7534907, "lon": 77.117956, "satellites": 5, "altitude_gps_m": 85.19999694824219, "groundspeed_mps": 0.004053276032209396}, "flight": {"mode": "STABILIZE", "armed": false}, "ekf": {"attitude": {"roll": 0.05345302075147629, "pitch": 0.0040467269718647, "yaw": 1.0742154121398926}, "local_position": {"x": null, "y": null, "z": null}, "status": {"flags": 135, "velocity_variance": 0.0, "pos_horiz_variance": 0.0014886556891724467, "pos_vert_variance": 0.011533215641975403}}, "errors": ["PreArm: Hardware safety switch", "PreArm: Hardware safety switch"]}
{"timestamp": "2025-12-27T11:01:33.801690Z", "telemetry": {"lat": 28.7534948, "lon": 77.1179605, "satellites": 6, "altitude_gps_m": 83.29000091552734, "groundspeed_mps": 0.005320344585925341}, "flight": {"mode": "STABILIZE", "armed": false}, "ekf": {"attitude": {"roll": 0.053407855331897736, "pitch": 0.0037635876797139645, "yaw": 1.074346661567688}, "local_position": {"x": null, "y": null, "z": null}, "status": {"flags": 135, "velocity_variance": 0.0, "pos_horiz_variance": 0.0015188868856057525, "pos_vert_variance": 0.06037265434861183}}, "errors": ["PreArm: Hardware safety switch", "PreArm: Hardware safety switch"]}
{"timestamp": "2025-12-27T11:01:34.799899Z", "telemetry": {"lat": 28.7534993, "lon": 77.1179564, "satellites": 6, "altitude_gps_m": 81.63999938964844, "groundspeed_mps": 0.008754133246839046}, "flight": {"mode": "STABILIZE", "armed": false}, "ekf": {"attitude": {"roll": 0.05353168398141861, "pitch": 0.003658035071566701, "yaw": 1.0745166540145874}, "local_position": {"x": null, "y": null, "z": null}, "status": {"flags": 135, "velocity_variance": 0.0, "pos_horiz_variance": 0.0015879417769610882, "pos_vert_variance": 0.03277171030640602}}, "errors": ["PreArm: Hardware safety switch", "PreArm: Hardware safety switch"]}
{"timestamp": "2025-12-27T11:01:35.798386Z", "telemetry": {"lat": 28.7535003, "lon": 77.1179522, "satellites": 6, "altitude_gps_m": 80.43999481201172, "groundspeed_mps": 0.006584827322512865}, "flight": {"mode": "STABILIZE", "armed": false}, "ekf": {"attitude": {"roll": 0.05356185510754585, "pitch": 0.003420471679419279, "yaw": 1.074535846710205}, "local_position": {"x": null, "y": null, "z": null}, "status": {"flags": 135, "velocity_variance": 0.0, "pos_horiz_variance": 0.001696246094070375, "pos_vert_variance": 0.016105979681015015}}, "errors": ["PreArm: Hardware safety switch", "PreArm: Hardware safety switch"]}
{"timestamp": "2025-12-27T11:01:36.799011Z", "telemetry": {"lat": 28.7535021, "lon": 77.117945, "satellites": 6, "altitude_gps_m": 79.22000122070312, "groundspeed_mps": 0.005395071115344763}, "flight": {"mode": "STABILIZE", "armed": false}, "ekf": {"attitude": {"roll": 0.05360451340675354, "pitch": 0.003325574565678835, "yaw": 1.0743683576583862}, "local_position": {"x": null, "y": null, "z": null}, "status": {"flags": 135, "velocity_variance": 0.0, "pos_horiz_variance": 0.00156477652490139, "pos_vert_variance": 0.001683513168245554}}, "errors": ["PreArm: Hardware safety switch", "PreArm: Hardware safety switch"]}
{"timestamp": "2025-12-27T11:01:37.799032Z", "telemetry": {"lat": 28.7535055, "lon": 77.117938, "satellites": 6, "altitude_gps_m": 76.68000030517578, "groundspeed_mps": 0.005285033956170082}, "flight": {"mode": "STABILIZE", "armed": false}, "ekf": {"attitude": {"roll": 0.05366140976548195, "pitch": 0.0033156885765492916, "yaw": 1.074517846107483}, "local_position": {"x": null, "y": null, "z": null}, "status": {"flags": 135, "velocity_variance": 0.0, "pos_horiz_variance": 0.0013493836158886552, "pos_vert_variance": 0.08147595077753067}}, "errors": ["PreArm: Hardware safety switch", "PreArm: Hardware safety switch"]}
{"timestamp": "2025-12-27T11:01:38.798736Z", "telemetry": {"lat": 28.7535159, "lon": 77.1179313, "satellites": 6, "altitude_gps_m": 73.23999786376953, "groundspeed_mps": 0.008612504228949547}, "flight": {"mode": "STABILIZE", "armed": false}, "ekf": {"attitude": {"roll": 0.0538630411028862, "pitch": 0.0032388290856033564, "yaw": 1.074649691581726}, "local_position": {"x": null, "y": null, "z": null}, "status": {"flags": 135, "velocity_variance": 0.0, "pos_horiz_variance": 0.0013558630598708987, "pos_vert_variance": 0.03701021894812584}}, "errors": ["PreArm: Hardware safety switch", "PreArm: Hardware safety switch"]}
{"timestamp": "2025-12-27T11:01:39.798768Z", "telemetry": {"lat": 28.753522, "lon": 77.117944, "satellites": 5, "altitude_gps_m": 71.83000183105469, "groundspeed_mps": 0.01154336892068386}, "flight": {"mode": "STABILIZE", "armed": false}, "ekf": {"attitude": {"roll": 0.05408458411693573, "pitch": 0.0032828389666974545, "yaw": 1.074804663658142}, "local_position": {"x": null, "y": null, "z": null}, "status": {"flags": 135, "velocity_variance": 0.0, "pos_horiz_variance": 0.0022656116634607315, "pos_vert_variance": 0.037065889686346054}}, "errors": ["PreArm: Hardware safety switch", "PreArm: Hardware safety switch"]}
{"timestamp": "2025-12-27T11:01:40.798214Z", "telemetry": {"lat": 28.7535251, "lon": 77.117952, "satellites": 5, "altitude_gps_m": 70.54999542236328, "groundspeed_mps": 0.012042645364999771}, "flight": {"mode": "STABILIZE", "armed": false}, "ekf": {"attitude": {"roll": 0.05418050289154053, "pitch": 0.0032589337788522243, "yaw": 1.0749609470367432}, "local_position": {"x": null, "y": null, "z": null}, "status": {"flags": 135, "velocity_variance": 0.0, "pos_horiz_variance": 0.002712214831262827, "pos_vert_variance": 0.029362525790929794}}, "errors": ["PreArm: Hardware safety switch", "PreArm: Hardware safety switch"]}
{"timestamp": "2025-12-27T11:01:41.798310Z", "telemetry": {"lat": 28.7535253, "lon": 77.117976, "satellites": 5, "altitude_gps_m": 69.19999694824219, "groundspeed_mps": 0.011274469085037708}, "flight": {"mode": "STABILIZE", "armed": false}, "ekf": {"attitude": {"roll": 0.0542975515127182, "pitch": 0.003415194107219577, "yaw": 1.0748956203460693}, "local_position": {"x": null, "y": null, "z": null}, "status": {"flags": 135, "velocity_variance": 0.0, "pos_horiz_variance": 0.0027723682578653097, "pos_vert_variance": 0.02462312951683998}}, "errors": ["PreArm: Hardware safety switch", "PreArm: Hardware safety switch"]}
{"timestamp": "2025-12-27T11:01:42.798287Z", "telemetry": {"lat": 28.7535204, "lon": 77.1180045, "satellites": 5, "altitude_gps_m": 66.77999877929688, "groundspeed_mps": 0.009814590215682983}, "flight": {"mode": "STABILIZE", "armed": false}, "ekf": {"attitude": {"roll": 0.05416424572467804, "pitch": 0.0036214389838278294, "yaw": 1.074988603591919}, "local_position": {"x": null, "y": null, "z": null}, "status": {"flags": 135, "velocity_variance": 0.0, "pos_horiz_variance": 0.0029504122212529182, "pos_vert_variance": 0.061755161732435226}}, "errors": ["PreArm: Hardware safety switch", "PreArm: Hardware safety switch"]}
{"timestamp": "2025-12-27T11:01:43.801627Z", "telemetry": {"lat": 28.7535312, "lon": 77.1180202, "satellites": 5, "altitude_gps_m": 63.029998779296875, "groundspeed_mps": 0.01130895595997572}, "flight": {"mode": "STABILIZE", "armed": false}, "ekf": {"attitude": {"roll": 0.054078664630651474, "pitch": 0.0037073041312396526, "yaw": 1.0749534368515015}, "local_position": {"x": null, "y": null, "z": null}, "status": {"flags": 135, "velocity_variance": 0.0, "pos_horiz_variance": 0.0029303228948265314, "pos_vert_variance": 0.01658061519265175}}, "errors": ["PreArm: Hardware safety switch", "PreArm: Hardware safety switch"]}
{"timestamp": "2025-12-27T11:01:44.801146Z", "telemetry": {"lat": 28.7535356, "lon": 77.1180199, "satellites": 5, "altitude_gps_m": 61.55999755859375, "groundspeed_mps": 0.0134237390011549}, "flight": {"mode": "STABILIZE", "armed": false}, "ekf": {"attitude": {"roll": 0.054091308265924454, "pitch": 0.0037266353610903025, "yaw": 1.0749948024749756}, "local_position": {"x": null, "y": null, "z": null}, "status": {"flags": 135, "velocity_variance": 0.0, "pos_horiz_variance": 0.0031676029320806265, "pos_vert_variance": 0.07171529531478882}}, "errors": ["PreArm: Hardware safety switch", "PreArm: Hardware safety switch"]}
{"timestamp": "2025-12-27T11:01:45.799804Z", "telemetry": {"lat": 28.7535351, "lon": 77.1180112, "satellites": 5, "altitude_gps_m": 60.439998626708984, "groundspeed_mps": 0.012357870116829872}, "flight": {"mode": "STABILIZE", "armed": false}, "ekf": {"attitude": {"roll": 0.05411861836910248, "pitch": 0.003849627450108528, "yaw": 1.075162410736084}, "local_position": {"x": null, "y": null, "z": null}, "status": {"flags": 135, "velocity_variance": 0.0, "pos_horiz_variance": 0.0033923008013516665, "pos_vert_variance": 0.006763719487935305}}, "errors": ["PreArm: Hardware safety switch", "PreArm: Hardware safety switch"]}
{"timestamp": "2025-12-27T11:01:46.798704Z", "telemetry": {"lat": 28.7535361, "lon": 77.1180042, "satellites": 4, "altitude_gps_m": 59.0099983215332, "groundspeed_mps": 0.008401394821703434}, "flight": {"mode": "STABILIZE", "armed": false}, "ekf": {"attitude": {"roll": 0.05395098030567169, "pitch": 0.003975643776357174, "yaw": 1.0751127004623413}, "local_position": {"x": null, "y": null, "z": null}, "status": {"flags": 135, "velocity_variance": 0.0, "pos_horiz_variance": 0.0029836436733603477, "pos_vert_variance": 0.014278744347393513}}, "errors": ["PreArm: Hardware safety switch", "PreArm: Hardware safety switch"]}
{"timestamp": "2025-12-27T11:01:47.802649Z", "telemetry": {"lat": 28.7535525, "lon": 77.1179851, "satellites": 4, "altitude_gps_m": 56.32999801635742, "groundspeed_mps": 0.00890994444489479}, "flight": {"mode": "STABILIZE", "armed": false}, "ekf": {"attitude": {"roll": 0.05375446751713753, "pitch": 0.00396268954500556, "yaw": 1.0750815868377686}, "local_position": {"x": null, "y": null, "z": null}, "status": {"flags": 135, "velocity_variance": 0.0, "pos_horiz_variance": 0.0023629229981452227, "pos_vert_variance": 0.0024686872493475676}}, "errors": ["PreArm: Hardware safety switch", "PreArm: Hardware safety switch"]}
{"timestamp": "2025-12-27T11:01:48.802585Z", "telemetry": {"lat": 28.7535592, "lon": 77.1179763, "satellites": 4, "altitude_gps_m": 55.48999786376953, "groundspeed_mps": 0.008300992660224438}, "flight": {"mode": "STABILIZE", "armed": false}, "ekf": {"attitude": {"roll": 0.05325702577829361, "pitch": 0.004888514522463083, "yaw": 1.0752217769622803}, "local_position": {"x": null, "y": null, "z": null}, "status": {"flags": 135, "velocity_variance": 0.0, "pos_horiz_variance": 0.0021504065953195095, "pos_vert_variance": 0.04047168046236038}}, "errors": ["PreArm: Hardware safety switch", "PreArm: Hardware safety switch"]}
{"timestamp": "2025-12-27T11:01:49.798906Z", "telemetry": {"lat": 28.753562, "lon": 77.1179754, "satellites": 4, "altitude_gps_m": 55.89999771118164, "groundspeed_mps": 0.0074892351403832436}, "flight": {"mode": "STABILIZE", "armed": false}, "ekf": {"attitude": {"roll": 0.0535726398229599, "pitch": 0.0042040725238621235, "yaw": 1.075156807899475}, "local_position": {"x": null, "y": null, "z": null}, "status": {"flags": 135, "velocity_variance": 0.0, "pos_horiz_variance": 0.0016970185097306967, "pos_vert_variance": 0.021096408367156982}}, "errors": ["PreArm: Hardware safety switch", "PreArm: Hardware safety switch"]}
{"timestamp": "2025-12-27T11:01:50.798921Z", "telemetry": {"lat": 28.7535593, "lon": 77.117972, "satellites": 5, "altitude_gps_m": 58.099998474121094, "groundspeed_mps": 0.006680380553007126}, "flight": {"mode": "STABILIZE", "armed": false}, "ekf": {"attitude": {"roll": 0.053266894072294235, "pitch": 0.004506427329033613, "yaw": 1.074944019317627}, "local_position": {"x": null, "y": null, "z": null}, "status": {"flags": 135, "velocity_variance": 0.0, "pos_horiz_variance": 0.001533051603473723, "pos_vert_variance": 0.025867575779557228}}, "errors": ["PreArm: Hardware safety switch", "PreArm: Hardware safety switch"]}
{"timestamp": "2025-12-27T11:01:51.799497Z", "telemetry": {"lat": 28.7535488, "lon": 77.1179829, "satellites": 5, "altitude_gps_m": 61.849998474121094, "groundspeed_mps": 0.007593268994241953}, "flight": {"mode": "STABILIZE", "armed": false}, "ekf": {"attitude": {"roll": 0.05335286259651184, "pitch": 0.004572257865220308, "yaw": 1.0749626159667969}, "local_position": {"x": null, "y": null, "z": null}, "status": {"flags": 135, "velocity_variance": 0.0, "pos_horiz_variance": 0.0016685948939993978, "pos_vert_variance": 0.04559842497110367}}, "errors": ["PreArm: Hardware safety switch", "PreArm: Hardware safety switch"]}
{"timestamp": "2025-12-27T11:01:52.798372Z", "telemetry": {"lat": 28.7535403, "lon": 77.1179891, "satellites": 5, "altitude_gps_m": 64.5199966430664, "groundspeed_mps": 0.00716876657679677}, "flight": {"mode": "STABILIZE", "armed": false}, "ekf": {"attitude": {"roll": 0.0534309484064579, "pitch": 0.004479169845581055, "yaw": 1.0750046968460083}, "local_position": {"x": null, "y": null, "z": null}, "status": {"flags": 135, "velocity_variance": 0.0, "pos_horiz_variance": 0.0018613125430420041, "pos_vert_variance": 0.013026638887822628}}, "errors": ["PreArm: Hardware safety switch", "PreArm: Hardware safety switch"]}
{"timestamp": "2025-12-27T11:01:53.799181Z", "telemetry": {"lat": 28.7535341, "lon": 77.1179969, "satellites": 5, "altitude_gps_m": 66.3499984741211, "groundspeed_mps": 0.0018324435222893953}, "flight": {"mode": "STABILIZE", "armed": false}, "ekf": {"attitude": {"roll": 0.05343405157327652, "pitch": 0.004242042079567909, "yaw": 1.0751055479049683}, "local_position": {"x": null, "y": null, "z": null}, "status": {"flags": 135, "velocity_variance": 0.0, "pos_horiz_variance": 0.0014272707048803568, "pos_vert_variance": 0.0038914212491363287}}, "errors": ["PreArm: Hardware safety switch", "PreArm: Hardware safety switch"]}
{"timestamp": "2025-12-27T11:01:54.800900Z", "telemetry": {"lat": 28.7535301, "lon": 77.1180076, "satellites": 5, "altitude_gps_m": 68.45999908447266, "groundspeed_mps": 0.0032902343664318323}, "flight": {"mode": "STABILIZE", "armed": false}, "ekf": {"attitude": {"roll": 0.05351634323596954, "pitch": 0.004263997543603182, "yaw": 1.0748863220214844}, "local_position": {"x": null, "y": null, "z": null}, "status": {"flags": 135, "velocity_variance": 0.0, "pos_horiz_variance": 0.00058618193725124, "pos_vert_variance": 0.001738390070386231}}, "errors": ["PreArm: Hardware safety switch", "PreArm: Hardware safety switch"]}
{"timestamp": "2025-12-27T11:01:55.799521Z", "telemetry": {"lat": 28.7535226, "lon": 77.1180029, "satellites": 6, "altitude_gps_m": 72.8499984741211, "groundspeed_mps": 0.0064557804726064205}, "flight": {"mode": "STABILIZE", "armed": false}, "ekf": {"attitude": {"roll": 0.0535547137260437, "pitch": 0.004447860177606344, "yaw": 1.0748145580291748}, "local_position": {"x": null, "y": null, "z": null}, "status": {"flags": 135, "velocity_variance": 0.0, "pos_horiz_variance": 0.0005319623160175979, "pos_vert_variance": 0.029496600851416588}}, "errors": ["PreArm: Hardware safety switch", "PreArm: Hardware safety switch"]}
{"timestamp": "2025-12-27T11:01:56.798617Z", "telemetry": {"lat": 28.753513, "lon": 77.1179807, "satellites": 6, "altitude_gps_m": 79.31999969482422, "groundspeed_mps": 0.01038564182817936}, "flight": {"mode": "STABILIZE", "armed": false}, "ekf": {"attitude": {"roll": 0.053396452218294144, "pitch": 0.004673604387789965, "yaw": 1.075255036354065}, "local_position": {"x": null, "y": null, "z": null}, "status": {"flags": 135, "velocity_variance": 0.0, "pos_horiz_variance": 0.0015368341701105237, "pos_vert_variance": 0.047885969281196594}}, "errors": ["PreArm: Hardware safety switch", "PreArm: Hardware safety switch"]}
{"timestamp": "2025-12-27T11:01:57.802538Z", "telemetry": {"lat": 28.7535036, "lon": 77.1179629, "satellites": 6, "altitude_gps_m": 85.25, "groundspeed_mps": 0.011138352565467358}, "flight": {"mode": "STABILIZE", "armed": false}, "ekf": {"attitude": {"roll": 0.05363001301884651, "pitch": 0.004506346769630909, "yaw": 1.075323462486267}, "local_position": {"x": null, "y": null, "z": null}, "status": {"flags": 135, "velocity_variance": 0.0, "pos_horiz_variance": 0.002514028921723366, "pos_vert_variance": 0.017542855814099312}}, "errors": ["PreArm: Hardware safety switch", "PreArm: Hardware safety switch"]}
{"timestamp": "2025-12-27T11:01:58.799164Z", "telemetry": {"lat": 28.7534657, "lon": 77.1179432, "satellites": 7, "altitude_gps_m": 98.3699951171875, "groundspeed_mps": 0.014763208106160164}, "flight": {"mode": "STABILIZE", "armed": false}, "ekf": {"attitude": {"roll": 0.05407672002911568, "pitch": 0.0036366397980600595, "yaw": 1.0743799209594727}, "local_position": {"x": null, "y": null, "z": null}, "status": {"flags": 135, "velocity_variance": 0.0, "pos_horiz_variance": 0.0030882705468684435, "pos_vert_variance": 0.019246913492679596}}, "errors": ["PreArm: Hardware safety switch", "PreArm: Hardware safety switch"]}
{"timestamp": "2025-12-27T11:01:59.798861Z", "telemetry": {"lat": 28.7534375, "lon": 77.117928, "satellites": 7, "altitude_gps_m": 109.13999938964844, "groundspeed_mps": 0.010834470391273499}, "flight": {"mode": "STABILIZE", "armed": false}, "ekf": {"attitude": {"roll": 0.054028257727622986, "pitch": 0.0038545336574316025, "yaw": 1.0746365785598755}, "local_position": {"x": null, "y": null, "z": null}, "status": {"flags": 135, "velocity_variance": 0.0, "pos_horiz_variance": 0.0033137055579572916, "pos_vert_variance": 0.02294754423201084}}, "errors": ["PreArm: Hardware safety switch", "PreArm: Hardware safety switch"]}
{"timestamp": "2025-12-27T11:02:00.798754Z", "telemetry": {"lat": 28.7534128, "lon": 77.1179153, "satellites": 7, "altitude_gps_m": 118.63999938964844, "groundspeed_mps": 0.009449966251850128}, "flight": {"mode": "STABILIZE", "armed": false}, "ekf": {"attitude": {"roll": 0.05361902713775635, "pitch": 0.00429950375109911, "yaw": 1.0744397640228271}, "local_position": {"x": null, "y": null, "z": null}, "status": {"flags": 135, "velocity_variance": 0.0, "pos_horiz_variance": 0.0031227259896695614, "pos_vert_variance": 0.017480775713920593}}, "errors": ["PreArm: Hardware safety switch", "PreArm: Hardware safety switch"]}
{"timestamp": "2025-12-27T11:02:01.798455Z", "telemetry": {"lat": 28.7533986, "lon": 77.1178937, "satellites": 7, "altitude_gps_m": 125.32999420166016, "groundspeed_mps": 0.008615577593445778}, "flight": {"mode": "STABILIZE", "armed": false}, "ekf": {"attitude": {"roll": 0.05301574245095253, "pitch": 0.004731636960059404, "yaw": 1.0748451948165894}, "local_position": {"x": null, "y": null, "z": null}, "status": {"flags": 135, "velocity_variance": 0.0, "pos_horiz_variance": 0.002595832571387291, "pos_vert_variance": 0.0015328492736443877}}, "errors": ["PreArm: Hardware safety switch", "PreArm: Hardware safety switch", "PreArm: Hardware safety switch"]}
{"timestamp": "2025-12-27T11:02:02.798398Z", "telemetry": {"lat": 28.7533838, "lon": 77.1178738, "satellites": 7, "altitude_gps_m": 130.86000061035156, "groundspeed_mps": 0.002839949680492282}, "flight": {"mode": "STABILIZE", "armed": false}, "ekf": {"attitude": {"roll": 0.0535128191113472, "pitch": 0.003778431797400117, "yaw": 1.074761152267456}, "local_position": {"x": null, "y": null, "z": null}, "status": {"flags": 135, "velocity_variance": 0.0, "pos_horiz_variance": 0.0019783098250627518, "pos_vert_variance": 0.12761247158050537}}, "errors": ["PreArm: Hardware safety switch", "PreArm: Hardware safety switch", "PreArm: Hardware safety switch"]}
{"timestamp": "2025-12-27T11:02:03.807524Z", "telemetry": {"lat": 28.753367, "lon": 77.117857, "satellites": 7, "altitude_gps_m": 135.87998962402344, "groundspeed_mps": 0.0020387957338243723}, "flight": {"mode": "STABILIZE", "armed": false}, "ekf": {"attitude": {"roll": 0.05333093926310539, "pitch": 0.0038644401356577873, "yaw": 1.0748533010482788}, "local_position": {"x": null, "y": null, "z": null}, "status": {"flags": 135, "velocity_variance": 0.0, "pos_horiz_variance": 0.0010417219018563628, "pos_vert_variance": 0.04614781215786934}}, "errors": ["PreArm: Hardware safety switch", "PreArm: Hardware safety switch", "PreArm: Hardware safety switch"]}
{"timestamp": "2025-12-27T11:02:04.801794Z", "telemetry": {"lat": 28.7533525, "lon": 77.1178569, "satellites": 7, "altitude_gps_m": 139.4499969482422, "groundspeed_mps": 0.009350492618978024}, "flight": {"mode": "STABILIZE", "armed": false}, "ekf": {"attitude": {"roll": 0.0534113273024559, "pitch": 0.0037727528251707554, "yaw": 1.0751087665557861}, "local_position": {"x": null, "y": null, "z": null}, "status": {"flags": 135, "velocity_variance": 0.0, "pos_horiz_variance": 0.0005632427055388689, "pos_vert_variance": 0.014956806786358356}}, "errors": ["PreArm: Hardware safety switch", "PreArm: Hardware safety switch", "PreArm: Hardware safety switch"]}
{"timestamp": "2025-12-27T11:02:05.801941Z", "telemetry": {"lat": 28.7533453, "lon": 77.1178481, "satellites": 7, "altitude_gps_m": 142.1199951171875, "groundspeed_mps": 0.0082337511703372}, "flight": {"mode": "STABILIZE", "armed": false}, "ekf": {"attitude": {"roll": 0.05322102829813957, "pitch": 0.004123936872929335, "yaw": 1.0749688148498535}, "local_position": {"x": null, "y": null, "z": null}, "status": {"flags": 135, "velocity_variance": 0.0, "pos_horiz_variance": 0.0015835963422432542, "pos_vert_variance": 0.007310444489121437}}, "errors": ["PreArm: Hardware safety switch", "PreArm: Hardware safety switch", "PreArm: Hardware safety switch"]}
{"timestamp": "2025-12-27T11:02:06.798997Z", "telemetry": {"lat": 28.7533379, "lon": 77.117835, "satellites": 7, "altitude_gps_m": 144.11000061035156, "groundspeed_mps": 0.008384750224649906}, "flight": {"mode": "STABILIZE", "armed": false}, "ekf": {"attitude": {"roll": 0.053208816796541214, "pitch": 0.003945347853004932, "yaw": 1.0748714208602905}, "local_position": {"x": null, "y": null, "z": null}, "status": {"flags": 135, "velocity_variance": 0.0, "pos_horiz_variance": 0.001836818060837686, "pos_vert_variance": 0.021801836788654327}}, "errors": ["PreArm: Hardware safety switch", "PreArm: Hardware safety switch", "PreArm: Hardware safety switch"]}
{"timestamp": "2025-12-27T11:02:07.798810Z", "telemetry": {"lat": 28.7533394, "lon": 77.1178267, "satellites": 7, "altitude_gps_m": 144.0, "groundspeed_mps": 0.010729765519499779}, "flight": {"mode": "STABILIZE", "armed": false}, "ekf": {"attitude": {"roll": 0.0530388318002224, "pitch": 0.004057630896568298, "yaw": 1.0747171640396118}, "local_position": {"x": null, "y": null, "z": null}, "status": {"flags": 135, "velocity_variance": 0.0, "pos_horiz_variance": 0.0021198720205575228, "pos_vert_variance": 0.008902776055037975}}, "errors": ["PreArm: Hardware safety switch", "PreArm: Hardware safety switch", "PreArm: Hardware safety switch"]}
{"timestamp": "2025-12-27T11:02:08.802349Z", "telemetry": {"lat": 28.7533506, "lon": 77.117824, "satellites": 7, "altitude_gps_m": 141.5800018310547, "groundspeed_mps": 0.00920778140425682}, "flight": {"mode": "STABILIZE", "armed": false}, "ekf": {"attitude": {"roll": 0.05323123186826706, "pitch": 0.003955250605940819, "yaw": 1.0749164819717407}, "local_position": {"x": null, "y": null, "z": null}, "status": {"flags": 135, "velocity_variance": 0.0, "pos_horiz_variance": 0.002487520221620798, "pos_vert_variance": 0.006432884838432074}}, "errors": ["PreArm: Hardware safety switch", "PreArm: Hardware safety switch", "PreArm: Hardware safety switch"]}
{"timestamp": "2025-12-27T11:02:09.802247Z", "telemetry": {"lat": 28.753357, "lon": 77.1178259, "satellites": 7, "altitude_gps_m": 139.02000427246094, "groundspeed_mps": 0.007762843277305365}, "flight": {"mode": "STABILIZE", "armed": false}, "ekf": {"attitude": {"roll": 0.053201694041490555, "pitch": 0.004118364304304123, "yaw": 1.0749269723892212}, "local_position": {"x": null, "y": null, "z": null}, "status": {"flags": 135, "velocity_variance": 0.0, "pos_horiz_variance": 0.002518392400816083, "pos_vert_variance": 0.028335528448224068}}, "errors": ["PreArm: Hardware safety switch", "PreArm: Hardware safety switch", "PreArm: Hardware safety switch"]}
{"timestamp": "2025-12-27T11:02:10.799045Z", "telemetry": {"lat": 28.7533703, "lon": 77.1178219, "satellites": 7, "altitude_gps_m": 136.13999938964844, "groundspeed_mps": 0.009287799708545208}, "flight": {"mode": "STABILIZE", "armed": false}, "ekf": {"attitude": {"roll": 0.05317416414618492, "pitch": 0.004069970920681953, "yaw": 1.0748159885406494}, "local_position": {"x": null, "y": null, "z": null}, "status": {"flags": 135, "velocity_variance": 0.0, "pos_horiz_variance": 0.0024288902059197426, "pos_vert_variance": 0.01649463176727295}}, "errors": ["PreArm: Hardware safety switch", "PreArm: Hardware safety switch", "PreArm: Hardware safety switch"]}
{"timestamp": "2025-12-27T11:02:11.798986Z", "telemetry": {"lat": 28.7533711, "lon": 77.1178247, "satellites": 7, "altitude_gps_m": 136.19000244140625, "groundspeed_mps": 0.006808394566178322}, "flight": {"mode": "STABILIZE", "armed": false}, "ekf": {"attitude": {"roll": 0.05248680338263512, "pitch": 0.005149602424353361, "yaw": 1.0746666193008423}, "local_position": {"x": null, "y": null, "z": null}, "status": {"flags": 135, "velocity_variance": 0.0, "pos_horiz_variance": 0.0022402575705200434, "pos_vert_variance": 0.017517857253551483}}, "errors": ["PreArm: Hardware safety switch", "PreArm: Hardware safety switch", "PreArm: Hardware safety switch"]}
{"timestamp": "2025-12-27T11:02:12.802098Z", "telemetry": {"lat": 28.7533699, "lon": 77.117828, "satellites": 7, "altitude_gps_m": 135.84999084472656, "groundspeed_mps": 0.006740356795489788}, "flight": {"mode": "STABILIZE", "armed": false}, "ekf": {"attitude": {"roll": 0.052767977118492126, "pitch": 0.004632310941815376, "yaw": 1.0746479034423828}, "local_position": {"x": null, "y": null, "z": null}, "status": {"flags": 135, "velocity_variance": 0.0, "pos_horiz_variance": 0.0020244803745299578, "pos_vert_variance": 0.10620953887701035}}, "errors": ["PreArm: Hardware safety switch", "PreArm: Hardware safety switch", "PreArm: Hardware safety switch"]}
{"timestamp": "2025-12-27T11:02:13.798998Z", "telemetry": {"lat": 28.7533665, "lon": 77.1178293, "satellites": 7, "altitude_gps_m": 135.8199920654297, "groundspeed_mps": 0.009615457616746426}, "flight": {"mode": "STABILIZE", "armed": false}, "ekf": {"attitude": {"roll": 0.05279696360230446, "pitch": 0.004836214240640402, "yaw": 1.0747253894805908}, "local_position": {"x": null, "y": null, "z": null}, "status": {"flags": 135, "velocity_variance": 0.0, "pos_horiz_variance": 0.00213769287802279, "pos_vert_variance": 0.0017713417764753103}}, "errors": ["PreArm: Hardware safety switch", "PreArm: Hardware safety switch", "PreArm: Hardware safety switch"]}
{"timestamp": "2025-12-27T11:02:14.798467Z", "telemetry": {"lat": 28.7533653, "lon": 77.1178449, "satellites": 8, "altitude_gps_m": 134.37998962402344, "groundspeed_mps": 0.006197717506438494}, "flight": {"mode": "STABILIZE", "armed": false}, "ekf": {"attitude": {"roll": 0.05300657078623772, "pitch": 0.004452215041965246, "yaw": 1.0749092102050781}, "local_position": {"x": null, "y": null, "z": null}, "status": {"flags": 135, "velocity_variance": 0.0, "pos_horiz_variance": 0.0019667306914925575, "pos_vert_variance": 0.07695440948009491}}, "errors": ["PreArm: Hardware safety switch", "PreArm: Hardware safety switch", "PreArm: Hardware safety switch"]}
{"timestamp": "2025-12-27T11:02:15.802041Z", "telemetry": {"lat": 28.7533643, "lon": 77.1178782, "satellites": 8, "altitude_gps_m": 131.77999877929688, "groundspeed_mps": 0.0057560778222978115}, "flight": {"mode": "STABILIZE", "armed": false}, "ekf": {"attitude": {"roll": 0.05323900282382965, "pitch": 0.004503703210502863, "yaw": 1.075079083442688}, "local_position": {"x": null, "y": null, "z": null}, "status": {"flags": 135, "velocity_variance": 0.0, "pos_horiz_variance": 0.0018356811488047242, "pos_vert_variance": 0.11273995786905289}}, "errors": ["PreArm: Hardware safety switch", "PreArm: Hardware safety switch", "PreArm: Hardware safety switch"]}
{"timestamp": "2025-12-27T11:02:16.799220Z", "telemetry": {"lat": 28.7533669, "lon": 77.117884, "satellites": 7, "altitude_gps_m": 130.97999572753906, "groundspeed_mps": 0.002844283590093255}, "flight": {"mode": "STABILIZE", "armed": false}, "ekf": {"attitude": {"roll": 0.053209081292152405, "pitch": 0.004929563496261835, "yaw": 1.0748820304870605}, "local_position": {"x": null, "y": null, "z": null}, "status": {"flags": 135, "velocity_variance": 0.0, "pos_horiz_variance": 0.0016586679266765714, "pos_vert_variance": 0.0017343979561701417}}, "errors": ["PreArm: Hardware safety switch", "PreArm: Hardware safety switch", "PreArm: Hardware safety switch"]}
{"timestamp": "2025-12-27T11:02:17.799400Z", "telemetry": {"lat": 28.7533741, "lon": 77.1178937, "satellites": 7, "altitude_gps_m": 128.1199951171875, "groundspeed_mps": 0.002860776148736477}, "flight": {"mode": "STABILIZE", "armed": false}, "ekf": {"attitude": {"roll": 0.05333184450864792, "pitch": 0.004700289107859135, "yaw": 1.0748615264892578}, "local_position": {"x": null, "y": null, "z": null}, "status": {"flags": 135, "velocity_variance": 0.0, "pos_horiz_variance": 0.001062871189787984, "pos_vert_variance": 0.04204659163951874}}, "errors": ["PreArm: Hardware safety switch", "PreArm: Hardware safety switch", "PreArm: Hardware safety switch"]}
{"timestamp": "2025-12-27T11:02:18.799663Z", "telemetry": {"lat": 28.7533752, "lon": 77.1179008, "satellites": 7, "altitude_gps_m": 127.37999725341797, "groundspeed_mps": 0.0028349594213068485}, "flight": {"mode": "STABILIZE", "armed": false}, "ekf": {"attitude": {"roll": 0.053676120936870575, "pitch": 0.004371786955744028, "yaw": 1.0743966102600098}, "local_position": {"x": null, "y": null, "z": null}, "status": {"flags": 135, "velocity_variance": 0.0, "pos_horiz_variance": 0.000552851241081953, "pos_vert_variance": 0.0443233847618103}}, "errors": ["PreArm: Hardware safety switch", "PreArm: Hardware safety switch", "PreArm: Hardware safety switch"]}
{"timestamp": "2025-12-27T11:02:19.802165Z", "telemetry": {"lat": 28.753379, "lon": 77.1178989, "satellites": 7, "altitude_gps_m": 127.11000061035156, "groundspeed_mps": 0.0021337794605642557}, "flight": {"mode": "STABILIZE", "armed": false}, "ekf": {"attitude": {"roll": 0.0537995919585228, "pitch": 0.004138513933867216, "yaw": 1.07472825050354}, "local_position": {"x": null, "y": null, "z": null}, "status": {"flags": 135, "velocity_variance": 0.0, "pos_horiz_variance": 0.00030576842254959047, "pos_vert_variance": 0.009340799413621426}}, "errors": ["PreArm: Hardware safety switch", "PreArm: Hardware safety switch", "PreArm: Hardware safety switch"]}
{"timestamp": "2025-12-27T11:02:20.798711Z", "telemetry": {"lat": 28.7533847, "lon": 77.1178965, "satellites": 7, "altitude_gps_m": 126.25, "groundspeed_mps": 0.003907474689185619}, "flight": {"mode": "STABILIZE", "armed": false}, "ekf": {"attitude": {"roll": 0.05326630175113678, "pitch": 0.005313189700245857, "yaw": 1.0750348567962646}, "local_position": {"x": null, "y": null, "z": null}, "status": {"flags": 135, "velocity_variance": 0.0, "pos_horiz_variance": 0.00030132842948660254, "pos_vert_variance": 0.04976080730557442}}, "errors": ["PreArm: Hardware safety switch", "PreArm: Hardware safety switch", "PreArm: Hardware safety switch"]}
{"timestamp": "2025-12-27T11:02:21.799104Z", "telemetry": {"lat": 28.7533941, "lon": 77.1178886, "satellites": 7, "altitude_gps_m": 125.00999450683594, "groundspeed_mps": 0.008842960931360722}, "flight": {"mode": "STABILIZE", "armed": false}, "ekf": {"attitude": {"roll": 0.05317308381199837, "pitch": 0.005305473227053881, "yaw": 1.0754482746124268}, "local_position": {"x": null, "y": null, "z": null}, "status": {"flags": 135, "velocity_variance": 0.0, "pos_horiz_variance": 0.0011008168803527951, "pos_vert_variance": 0.03779836744070053}}, "errors": ["PreArm: Hardware safety switch", "PreArm: Hardware safety switch", "PreArm: Hardware safety switch"]}
{"timestamp": "2025-12-27T11:02:22.798456Z", "telemetry": {"lat": 28.7534054, "lon": 77.1178874, "satellites": 7, "altitude_gps_m": 122.98999786376953, "groundspeed_mps": 0.01052416767925024}, "flight": {"mode": "STABILIZE", "armed": false}, "ekf": {"attitude": {"roll": 0.05325918644666672, "pitch": 0.005134706851094961, "yaw": 1.0757194757461548}, "local_position": {"x": null, "y": null, "z": null}, "status": {"flags": 135, "velocity_variance": 0.0, "pos_horiz_variance": 0.0021587354131042957, "pos_vert_variance": 0.009010180830955505}}, "errors": ["PreArm: Hardware safety switch", "PreArm: Hardware safety switch", "PreArm: Hardware safety switch"]}
{"timestamp": "2025-12-27T11:02:23.801647Z", "telemetry": {"lat": 28.75341, "lon": 77.1178732, "satellites": 7, "altitude_gps_m": 123.5999984741211, "groundspeed_mps": 0.010630837641656399}, "flight": {"mode": "STABILIZE", "armed": false}, "ekf": {"attitude": {"roll": 0.05304837226867676, "pitch": 0.005490526556968689, "yaw": 1.0756150484085083}, "local_position": {"x": null, "y": null, "z": null}, "status": {"flags": 135, "velocity_variance": 0.0, "pos_horiz_variance": 0.002525599906221032, "pos_vert_variance": 0.04977947100996971}}, "errors": ["PreArm: Hardware safety switch", "PreArm: Hardware safety switch", "PreArm: Hardware safety switch"]}
{"timestamp": "2025-12-27T11:02:24.806733Z", "telemetry": {"lat": 28.7534051, "lon": 77.1178693, "satellites": 7, "altitude_gps_m": 125.54999542236328, "groundspeed_mps": 0.009245732799172401}, "flight": {"mode": "STABILIZE", "armed": false}, "ekf": {"attitude": {"roll": 0.052912209182977676, "pitch": 0.005558254197239876, "yaw": 1.0757039785385132}, "local_position": {"x": null, "y": null, "z": null}, "status": {"flags": 135, "velocity_variance": 0.0, "pos_horiz_variance": 0.0026092694606631994, "pos_vert_variance": 0.04522470757365227}}, "errors": ["PreArm: Hardware safety switch", "PreArm: Hardware safety switch", "PreArm: Hardware safety switch"]}
{"timestamp": "2025-12-27T11:02:25.807357Z", "telemetry": {"lat": 28.7534103, "lon": 77.1178613, "satellites": 7, "altitude_gps_m": 125.18000030517578, "groundspeed_mps": 0.00535780843347311}, "flight": {"mode": "STABILIZE", "armed": false}, "ekf": {"attitude": {"roll": 0.05294667184352875, "pitch": 0.005356882233172655, "yaw": 1.0760114192962646}, "local_position": {"x": null, "y": null, "z": null}, "status": {"flags": 135, "velocity_variance": 0.0, "pos_horiz_variance": 0.002213995438069105, "pos_vert_variance": 0.0030954061076045036}}, "errors": ["PreArm: Hardware safety switch", "PreArm: Hardware safety switch", "PreArm: Hardware safety switch"]}
{"timestamp": "2025-12-27T11:02:26.802088Z", "telemetry": {"lat": 28.7534204, "lon": 77.1178515, "satellites": 7, "altitude_gps_m": 124.22999572753906, "groundspeed_mps": 0.005380847025662661}, "flight": {"mode": "STABILIZE", "armed": false}, "ekf": {"attitude": {"roll": 0.05268608778715134, "pitch": 0.005433547310531139, "yaw": 1.0761698484420776}, "local_position": {"x": null, "y": null, "z": null}, "status": {"flags": 135, "velocity_variance": 0.0, "pos_horiz_variance": 0.001460493542253971, "pos_vert_variance": 0.03978925198316574}}, "errors": ["PreArm: Hardware safety switch", "PreArm: Hardware safety switch", "PreArm: Hardware safety switch"]}
