{"timestamp": "2026-01-15T12:44:33.971421Z", "telemetry": {"lat": null, "lon": null, "satellites": null, "altitude_gps_m": 221.0399932861328, "groundspeed_mps": 0.13322807848453522}, "flight": {"mode": "STABILIZE", "armed": false}, "ekf": {"attitude": {"roll": 0.051977455615997314, "pitch": -0.007583158556371927, "yaw": -2.018366813659668}, "local_position": {"x": null, "y": null, "z": null}, "status": {"flags": null, "velocity_variance": null, "pos_horiz_variance": null, "pos_vert_variance": null}}, "errors": []}
{"timestamp": "2026-01-15T12:44:34.977989Z", "telemetry": {"lat": 28.7530869, "lon": 77.117897, "satellites": 12, "altitude_gps_m": 221.20999145507812, "groundspeed_mps": 0.123810775578022}, "flight": {"mode": "STABILIZE", "armed": false}, "ekf": {"attitude": {"roll": 0.05170142278075218, "pitch": -0.0075045241974294186, "yaw": -2.018673896789551}, "local_position": {"x": -0.3962743878364563, "y": 0.751151442527771, "z": -8.886862754821777}, "status": {"flags": 831, "velocity_variance": 0.014739550650119781, "pos_horiz_variance": 0.013284890912473202, "pos_vert_variance": 0.08476728945970535}}, "errors": []}
{"timestamp": "2026-01-15T12:44:35.981378Z", "telemetry": {"lat": 28.7530892, "lon": 77.1178975, "satellites": 12, "altitude_gps_m": 221.86000061035156, "groundspeed_mps": 0.16328074038028717}, "flight": {"mode": "STABILIZE", "armed": false}, "ekf": {"attitude": {"roll": 0.052425917237997055, "pitch": -0.0069734142161905766, "yaw": -2.018927574157715}, "local_position": {"x": -0.116948202252388, "y": 0.6912707686424255, "z": -9.545852661132812}, "status": {"flags": 831, "velocity_variance": 0.06790255755186081, "pos_horiz_variance": 0.01595146767795086, "pos_vert_variance": 0.12424381822347641}}, "errors": []}
{"timestamp": "2026-01-15T12:44:37.006943Z", "telemetry": {"lat": 28.753089, "lon": 77.1178985, "satellites": 11, "altitude_gps_m": 222.58999633789062, "groundspeed_mps": 0.13264812529087067}, "flight": {"mode": "STABILIZE", "armed": false}, "ekf": {"attitude": {"roll": 0.05174423009157181, "pitch": -0.00658580893650651, "yaw": -2.019073009490967}, "local_position": {"x": -0.055183131247758865, "y": 0.7573268413543701, "z": -10.27099323272705}, "status": {"flags": 831, "velocity_variance": 0.1662396788597107, "pos_horiz_variance": 0.01758776232600212, "pos_vert_variance": 0.13507355749607086}}, "errors": []}
{"timestamp": "2026-01-15T12:44:38.006958Z", "telemetry": {"lat": 28.753085, "lon": 77.1179069, "satellites": 11, "altitude_gps_m": 223.1999969482422, "groundspeed_mps": 0.03129695728421211}, "flight": {"mode": "STABILIZE", "armed": false}, "ekf": {"attitude": {"roll": 0.04965222626924515, "pitch": -0.005175830330699682, "yaw": -2.0190672874450684}, "local_position": {"x": -0.22587215900421143, "y": 1.0788108110427856, "z": -10.761011123657227}, "status": {"flags": 831, "velocity_variance": 0.13664507865905762, "pos_horiz_variance": 0.024980664253234863, "pos_vert_variance": 0.12401281297206879}}, "errors": []}
{"timestamp": "2026-01-15T12:44:38.981542Z", "telemetry": {"lat": 28.7530844, "lon": 77.1179104, "satellites": 11, "altitude_gps_m": 223.86000061035156, "groundspeed_mps": 0.19904755055904388}, "flight": {"mode": "STABILIZE", "armed": false}, "ekf": {"attitude": {"roll": 0.047886379063129425, "pitch": -0.004059733357280493, "yaw": -2.0190014839172363}, "local_position": {"x": -0.5144064426422119, "y": 1.7519060373306274, "z": -11.538690567016602}, "status": {"flags": 831, "velocity_variance": 0.19306403398513794, "pos_horiz_variance": 0.025175632908940315, "pos_vert_variance": 0.10708197951316833}}, "errors": []}
{"timestamp": "2026-01-15T12:44:39.989222Z", "telemetry": {"lat": 28.7530971, "lon": 77.1178931, "satellites": 11, "altitude_gps_m": 224.77999877929688, "groundspeed_mps": 0.123477041721344}, "flight": {"mode": "STABILIZE", "armed": false}, "ekf": {"attitude": {"roll": 0.05254451930522919, "pitch": -0.0050506615079939365, "yaw": -2.018951416015625}, "local_position": {"x": -0.12703672051429749, "y": 1.6229987144470215, "z": -12.27389907836914}, "status": {"flags": 831, "velocity_variance": 0.6971750259399414, "pos_horiz_variance": 0.03893953561782837, "pos_vert_variance": 0.05275021493434906}}, "errors": []}
{"timestamp": "2026-01-15T12:44:40.990916Z", "telemetry": {"lat": 28.7531126, "lon": 77.117872, "satellites": 11, "altitude_gps_m": 225.12998962402344, "groundspeed_mps": 0.4015484154224396}, "flight": {"mode": "STABILIZE", "armed": false}, "ekf": {"attitude": {"roll": 0.056797273457050323, "pitch": -0.007187646348029375, "yaw": -2.019021511077881}, "local_position": {"x": 1.0174527168273926, "y": 0.560896635055542, "z": -12.803698539733887}, "status": {"flags": 831, "velocity_variance": 0.4726486802101135, "pos_horiz_variance": 0.07770329713821411, "pos_vert_variance": 0.00020435666374396533}}, "errors": []}
{"timestamp": "2026-01-15T12:44:41.987005Z", "telemetry": {"lat": 28.7531245, "lon": 77.1178521, "satellites": 11, "altitude_gps_m": 224.86000061035156, "groundspeed_mps": 1.0806610584259033}, "flight": {"mode": "STABILIZE", "armed": false}, "ekf": {"attitude": {"roll": 0.06391920149326324, "pitch": -0.012688396498560905, "yaw": -2.019333839416504}, "local_position": {"x": 2.382598876953125, "y": -1.3239513635635376, "z": -12.680561065673828}, "status": {"flags": 831, "velocity_variance": 0.462509423494339, "pos_horiz_variance": 0.08221700042486191, "pos_vert_variance": 0.04301535710692406}}, "errors": []}
{"timestamp": "2026-01-15T12:44:42.991745Z", "telemetry": {"lat": 28.7531323, "lon": 77.1178398, "satellites": 10, "altitude_gps_m": 223.94000244140625, "groundspeed_mps": 1.5145312547683716}, "flight": {"mode": "STABILIZE", "armed": false}, "ekf": {"attitude": {"roll": 0.06621649861335754, "pitch": -0.015805143862962723, "yaw": -2.0197625160217285}, "local_position": {"x": 3.755356550216675, "y": -3.5396833419799805, "z": -11.87386417388916}, "status": {"flags": 831, "velocity_variance": 0.5962597131729126, "pos_horiz_variance": 0.05258425697684288, "pos_vert_variance": 0.04439738020300865}}, "errors": []}
{"timestamp": "2026-01-15T12:44:43.993107Z", "telemetry": {"lat": 28.7531311, "lon": 77.1178444, "satellites": 10, "altitude_gps_m": 223.27999877929688, "groundspeed_mps": 1.4466227293014526}, "flight": {"mode": "STABILIZE", "armed": false}, "ekf": {"attitude": {"roll": 0.06305038928985596, "pitch": -0.014664283022284508, "yaw": -2.019975185394287}, "local_position": {"x": 4.341351509094238, "y": -4.528343677520752, "z": -11.05281925201416}, "status": {"flags": 831, "velocity_variance": 0.4507220685482025, "pos_horiz_variance": 0.0167824886739254, "pos_vert_variance": 0.0019389839144423604}}, "errors": []}
{"timestamp": "2026-01-15T12:44:45.014603Z", "telemetry": {"lat": 28.7531269, "lon": 77.1178513, "satellites": 10, "altitude_gps_m": 223.08999633789062, "groundspeed_mps": 1.2750418186187744}, "flight": {"mode": "STABILIZE", "armed": false}, "ekf": {"attitude": {"roll": 0.059670671820640564, "pitch": -0.01296999305486679, "yaw": -2.02017879486084}, "local_position": {"x": 4.5656023025512695, "y": -4.86153507232666, "z": -10.773902893066406}, "status": {"flags": 831, "velocity_variance": 0.2034725695848465, "pos_horiz_variance": 0.03740905225276947, "pos_vert_variance": 0.008929009549319744}}, "errors": []}
{"timestamp": "2026-01-15T12:44:46.015658Z", "telemetry": {"lat": 28.7531268, "lon": 77.1178536, "satellites": 10, "altitude_gps_m": 223.1699981689453, "groundspeed_mps": 1.127217411994934}, "flight": {"mode": "STABILIZE", "armed": false}, "ekf": {"attitude": {"roll": 0.057444166392087936, "pitch": -0.010889878496527672, "yaw": -2.020272731781006}, "local_position": {"x": 4.826489448547363, "y": -5.0454254150390625, "z": -10.802702903747559}, "status": {"flags": 831, "velocity_variance": 0.21901358664035797, "pos_horiz_variance": 0.053934287279844284, "pos_vert_variance": 0.01999492757022381}}, "errors": []}
{"timestamp": "2026-01-15T12:44:47.019461Z", "telemetry": {"lat": 28.7531269, "lon": 77.1178537, "satellites": 10, "altitude_gps_m": 223.26998901367188, "groundspeed_mps": 1.01974356174469}, "flight": {"mode": "STABILIZE", "armed": false}, "ekf": {"attitude": {"roll": 0.05548807233572006, "pitch": -0.009597914293408394, "yaw": -2.0202622413635254}, "local_position": {"x": 5.111602783203125, "y": -5.212721347808838, "z": -10.941116333007812}, "status": {"flags": 831, "velocity_variance": 0.40550974011421204, "pos_horiz_variance": 0.06309369206428528, "pos_vert_variance": 0.02237301878631115}}, "errors": []}
{"timestamp": "2026-01-15T12:44:47.993769Z", "telemetry": {"lat": 28.7531235, "lon": 77.1178623, "satellites": 11, "altitude_gps_m": 223.27999877929688, "groundspeed_mps": 0.719325840473175}, "flight": {"mode": "STABILIZE", "armed": false}, "ekf": {"attitude": {"roll": 0.05041804537177086, "pitch": -0.006308141630142927, "yaw": -2.020246982574463}, "local_position": {"x": 4.983782768249512, "y": -4.88396692276001, "z": -10.960586547851562}, "status": {"flags": 831, "velocity_variance": 0.2915733754634857, "pos_horiz_variance": 0.08071493357419968, "pos_vert_variance": 0.03371572494506836}}, "errors": ["PreArm: Hardware safety switch", "PreArm: Compasses inconsistent"]}
{"timestamp": "2026-01-15T12:44:48.996221Z", "telemetry": {"lat": 28.7531233, "lon": 77.1178661, "satellites": 11, "altitude_gps_m": 223.489990234375, "groundspeed_mps": 0.4512006938457489}, "flight": {"mode": "STABILIZE", "armed": false}, "ekf": {"attitude": {"roll": 0.04854170233011246, "pitch": -0.004722413141280413, "yaw": -2.020073175430298}, "local_position": {"x": 4.847780704498291, "y": -4.401172637939453, "z": -11.164280891418457}, "status": {"flags": 831, "velocity_variance": 0.13664838671684265, "pos_horiz_variance": 0.07945798337459564, "pos_vert_variance": 0.04065926373004913}}, "errors": ["PreArm: Hardware safety switch", "PreArm: Compasses inconsistent"]}
{"timestamp": "2026-01-15T12:44:49.992973Z", "telemetry": {"lat": 28.7531253, "lon": 77.1178656, "satellites": 10, "altitude_gps_m": 223.79998779296875, "groundspeed_mps": 0.2409965842962265}, "flight": {"mode": "STABILIZE", "armed": false}, "ekf": {"attitude": {"roll": 0.04696030169725418, "pitch": -0.003131046425551176, "yaw": -2.019958019256592}, "local_position": {"x": 4.8044633865356445, "y": -4.047119617462158, "z": -11.424619674682617}, "status": {"flags": 831, "velocity_variance": 0.04485224932432175, "pos_horiz_variance": 0.06780202686786652, "pos_vert_variance": 0.04977111890912056}}, "errors": ["PreArm: Hardware safety switch", "PreArm: Compasses inconsistent"]}
{"timestamp": "2026-01-15T12:44:50.993324Z", "telemetry": {"lat": 28.7531221, "lon": 77.1178715, "satellites": 9, "altitude_gps_m": 223.95999145507812, "groundspeed_mps": 0.02600998803973198}, "flight": {"mode": "STABILIZE", "armed": false}, "ekf": {"attitude": {"roll": 0.04407735541462898, "pitch": -0.0018020570278167725, "yaw": -2.019804000854492}, "local_position": {"x": 4.563469409942627, "y": -3.5387825965881348, "z": -11.59227466583252}, "status": {"flags": 831, "velocity_variance": 0.2579187750816345, "pos_horiz_variance": 0.07124211639165878, "pos_vert_variance": 0.05852998420596123}}, "errors": ["PreArm: Hardware safety switch", "PreArm: Compasses inconsistent"]}
{"timestamp": "2026-01-15T12:44:52.000640Z", "telemetry": {"lat": 28.75312, "lon": 77.1178762, "satellites": 10, "altitude_gps_m": 224.239990234375, "groundspeed_mps": 0.21154619753360748}, "flight": {"mode": "STABILIZE", "armed": false}, "ekf": {"attitude": {"roll": 0.04288089647889137, "pitch": -0.0009540426544845104, "yaw": -2.019606351852417}, "local_position": {"x": 4.208094596862793, "y": -2.90104341506958, "z": -11.836800575256348}, "status": {"flags": 831, "velocity_variance": 0.043870117515325546, "pos_horiz_variance": 0.06581786274909973, "pos_vert_variance": 0.0641063004732132}}, "errors": ["PreArm: Hardware safety switch", "PreArm: Compasses inconsistent"]}
{"timestamp": "2026-01-15T12:44:52.991872Z", "telemetry": {"lat": 28.7531202, "lon": 77.1178791, "satellites": 10, "altitude_gps_m": 224.62998962402344, "groundspeed_mps": 0.32626858353614807}, "flight": {"mode": "STABILIZE", "armed": false}, "ekf": {"attitude": {"roll": 0.04265807569026947, "pitch": -0.0007453169673681259, "yaw": -2.019280433654785}, "local_position": {"x": 3.997201919555664, "y": -2.3406200408935547, "z": -12.20724868774414}, "status": {"flags": 831, "velocity_variance": 0.06836125254631042, "pos_horiz_variance": 0.05721207335591316, "pos_vert_variance": 0.07385585457086563}}, "errors": ["PreArm: Hardware safety switch", "PreArm: Compasses inconsistent"]}
{"timestamp": "2026-01-15T12:44:53.993640Z", "telemetry": {"lat": 28.7531185, "lon": 77.1178829, "satellites": 10, "altitude_gps_m": 225.1199951171875, "groundspeed_mps": 0.4017263948917389}, "flight": {"mode": "STABILIZE", "armed": false}, "ekf": {"attitude": {"roll": 0.04267582297325134, "pitch": -0.0011322801001369953, "yaw": -2.019101142883301}, "local_position": {"x": 3.78509783744812, "y": -1.8777966499328613, "z": -12.671142578125}, "status": {"flags": 831, "velocity_variance": 0.08695357292890549, "pos_horiz_variance": 0.0502251498401165, "pos_vert_variance": 0.08406698703765869}}, "errors": ["PreArm: Hardware safety switch", "PreArm: Compasses inconsistent"]}
{"timestamp": "2026-01-15T12:44:54.969305Z", "telemetry": {"lat": 28.7531184, "lon": 77.1178843, "satellites": 10, "altitude_gps_m": 225.5, "groundspeed_mps": 0.4603760838508606}, "flight": {"mode": "STABILIZE", "armed": false}, "ekf": {"attitude": {"roll": 0.043165773153305054, "pitch": -0.001375035848468542, "yaw": -2.0190348625183105}, "local_position": {"x": 3.5586342811584473, "y": -1.335243582725525, "z": -13.180892944335938}, "status": {"flags": 831, "velocity_variance": 0.14947810769081116, "pos_horiz_variance": 0.04063819721341133, "pos_vert_variance": 0.07968460023403168}}, "errors": ["PreArm: Hardware safety switch", "PreArm: Compasses inconsistent"]}
{"timestamp": "2026-01-15T12:44:55.975521Z", "telemetry": {"lat": 28.7531221, "lon": 77.1178798, "satellites": 9, "altitude_gps_m": 226.0, "groundspeed_mps": 0.417734295129776}, "flight": {"mode": "STABILIZE", "armed": false}, "ekf": {"attitude": {"roll": 0.045012615621089935, "pitch": -0.001829677727073431, "yaw": -2.01912522315979}, "local_position": {"x": 3.6185591220855713, "y": -1.0717558860778809, "z": -13.678821563720703}, "status": {"flags": 831, "velocity_variance": 0.3520481288433075, "pos_horiz_variance": 0.018698494881391525, "pos_vert_variance": 0.059332624077796936}}, "errors": ["PreArm: Hardware safety switch", "PreArm: Compasses inconsistent"]}
{"timestamp": "2026-01-15T12:44:57.011737Z", "telemetry": {"lat": 28.7531226, "lon": 77.1178757, "satellites": 9, "altitude_gps_m": 226.44000244140625, "groundspeed_mps": 0.2960206866264343}, "flight": {"mode": "STABILIZE", "armed": false}, "ekf": {"attitude": {"roll": 0.04702324420213699, "pitch": -0.003781392704695463, "yaw": -2.018807888031006}, "local_position": {"x": 3.699362277984619, "y": -1.0957800149917603, "z": -14.05362319946289}, "status": {"flags": 831, "velocity_variance": 0.1999530792236328, "pos_horiz_variance": 0.006670024245977402, "pos_vert_variance": 0.04569346830248833}}, "errors": ["PreArm: Hardware safety switch", "PreArm: Compasses inconsistent"]}
{"timestamp": "2026-01-15T12:44:57.985922Z", "telemetry": {"lat": 28.7531252, "lon": 77.1178701, "satellites": 9, "altitude_gps_m": 226.6199951171875, "groundspeed_mps": 0.14942023158073425}, "flight": {"mode": "STABILIZE", "armed": false}, "ekf": {"attitude": {"roll": 0.049283966422080994, "pitch": -0.005567286629229784, "yaw": -2.0188848972320557}, "local_position": {"x": 3.82558012008667, "y": -1.4027198553085327, "z": -14.302114486694336}, "status": {"flags": 831, "velocity_variance": 0.23043042421340942, "pos_horiz_variance": 0.004136194009333849, "pos_vert_variance": 0.03967321664094925}}, "errors": ["PreArm: Hardware safety switch", "PreArm: Compasses inconsistent"]}
{"timestamp": "2026-01-15T12:44:58.985975Z", "telemetry": {"lat": 28.7531277, "lon": 77.117867, "satellites": 9, "altitude_gps_m": 226.8699951171875, "groundspeed_mps": 0.060723934322595596}, "flight": {"mode": "STABILIZE", "armed": false}, "ekf": {"attitude": {"roll": 0.051837436854839325, "pitch": -0.007359701674431562, "yaw": -2.0188612937927246}, "local_position": {"x": 4.115723133087158, "y": -1.8859566450119019, "z": -14.546838760375977}, "status": {"flags": 831, "velocity_variance": 0.14344730973243713, "pos_horiz_variance": 0.0045421309769153595, "pos_vert_variance": 0.04439576715230942}}, "errors": ["PreArm: Hardware safety switch", "PreArm: Compasses inconsistent"]}
{"timestamp": "2026-01-15T12:45:00.000109Z", "telemetry": {"lat": 28.7531307, "lon": 77.1178641, "satellites": 8, "altitude_gps_m": 227.0399932861328, "groundspeed_mps": 0.18301071226596832}, "flight": {"mode": "STABILIZE", "armed": false}, "ekf": {"attitude": {"roll": 0.05342942476272583, "pitch": -0.008887693285942078, "yaw": -2.0188543796539307}, "local_position": {"x": 4.306978225708008, "y": -2.2135512828826904, "z": -14.714024543762207}, "status": {"flags": 831, "velocity_variance": 0.18466651439666748, "pos_horiz_variance": 0.009293900802731514, "pos_vert_variance": 0.0409378856420517}}, "errors": ["PreArm: Hardware safety switch", "PreArm: Compasses inconsistent"]}
{"timestamp": "2026-01-15T12:45:00.977036Z", "telemetry": {"lat": 28.7531362, "lon": 77.1178556, "satellites": 8, "altitude_gps_m": 227.3300018310547, "groundspeed_mps": 0.3646950125694275}, "flight": {"mode": "STABILIZE", "armed": false}, "ekf": {"attitude": {"roll": 0.05483391880989075, "pitch": -0.009707404300570488, "yaw": -2.018845558166504}, "local_position": {"x": 4.681621551513672, "y": -2.6903157234191895, "z": -14.965898513793945}, "status": {"flags": 831, "velocity_variance": 0.16461344063282013, "pos_horiz_variance": 0.018276525661349297, "pos_vert_variance": 0.03342759609222412}}, "errors": ["PreArm: Hardware safety switch", "PreArm: Compasses inconsistent"]}
{"timestamp": "2026-01-15T12:45:01.974976Z", "telemetry": {"lat": 28.7531359, "lon": 77.1178543, "satellites": 8, "altitude_gps_m": 227.39999389648438, "groundspeed_mps": 0.38313156366348267}, "flight": {"mode": "STABILIZE", "armed": false}, "ekf": {"attitude": {"roll": 0.054419633001089096, "pitch": -0.009901074692606926, "yaw": -2.0189483165740967}, "local_position": {"x": 4.843994140625, "y": -3.03444242477417, "z": -15.077486991882324}, "status": {"flags": 831, "velocity_variance": 0.10932331532239914, "pos_horiz_variance": 0.01142353005707264, "pos_vert_variance": 0.040006496012210846}}, "errors": ["PreArm: Hardware safety switch", "PreArm: Compasses inconsistent"]}
{"timestamp": "2026-01-15T12:45:02.979209Z", "telemetry": {"lat": 28.7531406, "lon": 77.1178464, "satellites": 8, "altitude_gps_m": 227.75, "groundspeed_mps": 0.5475606322288513}, "flight": {"mode": "STABILIZE", "armed": false}, "ekf": {"attitude": {"roll": 0.05622853338718414, "pitch": -0.010644402354955673, "yaw": -2.019014835357666}, "local_position": {"x": 5.209218502044678, "y": -3.596787452697754, "z": -15.354561805725098}, "status": {"flags": 831, "velocity_variance": 0.08190245181322098, "pos_horiz_variance": 0.017212744802236557, "pos_vert_variance": 0.04420369863510132}}, "errors": ["PreArm: Hardware safety switch", "PreArm: Compasses inconsistent"]}
{"timestamp": "2026-01-15T12:45:04.004342Z", "telemetry": {"lat": 28.7531451, "lon": 77.1178421, "satellites": 8, "altitude_gps_m": 228.05999755859375, "groundspeed_mps": 0.6473067402839661}, "flight": {"mode": "STABILIZE", "armed": false}, "ekf": {"attitude": {"roll": 0.05702861398458481, "pitch": -0.010604823008179665, "yaw": -2.0189762115478516}, "local_position": {"x": 5.711565971374512, "y": -4.215132236480713, "z": -15.659041404724121}, "status": {"flags": 831, "velocity_variance": 0.10897299647331238, "pos_horiz_variance": 0.016130544245243073, "pos_vert_variance": 0.05122743546962738}}, "errors": ["PreArm: Hardware safety switch", "PreArm: Compasses inconsistent"]}
{"timestamp": "2026-01-15T12:45:05.004643Z", "telemetry": {"lat": 28.7531463, "lon": 77.1178426, "satellites": 8, "altitude_gps_m": 228.25, "groundspeed_mps": 0.6341641545295715}, "flight": {"mode": "STABILIZE", "armed": false}, "ekf": {"attitude": {"roll": 0.05631309747695923, "pitch": -0.009892269968986511, "yaw": -2.019054651260376}, "local_position": {"x": 6.0373334884643555, "y": -4.549071788787842, "z": -15.926268577575684}, "status": {"flags": 831, "velocity_variance": 0.20216266810894012, "pos_horiz_variance": 0.012238726951181889, "pos_vert_variance": 0.05114010348916054}}, "errors": ["PreArm: Hardware safety switch", "PreArm: Compasses inconsistent"]}
{"timestamp": "2026-01-15T12:45:06.004299Z", "telemetry": {"lat": 28.7531476, "lon": 77.117842, "satellites": 8, "altitude_gps_m": 228.52999877929688, "groundspeed_mps": 0.5837607979774475}, "flight": {"mode": "STABILIZE", "armed": false}, "ekf": {"attitude": {"roll": 0.05508941784501076, "pitch": -0.008890127763152122, "yaw": -2.0189688205718994}, "local_position": {"x": 6.265322208404541, "y": -4.7264204025268555, "z": -16.2120361328125}, "status": {"flags": 831, "velocity_variance": 0.1827157735824585, "pos_horiz_variance": 0.013419071212410927, "pos_vert_variance": 0.05200710520148277}}, "errors": ["PreArm: Hardware safety switch", "PreArm: Compasses inconsistent"]}
{"timestamp": "2026-01-15T12:45:07.004113Z", "telemetry": {"lat": 28.7531469, "lon": 77.1178428, "satellites": 8, "altitude_gps_m": 228.9199981689453, "groundspeed_mps": 0.49246740341186523}, "flight": {"mode": "STABILIZE", "armed": false}, "ekf": {"attitude": {"roll": 0.05358770489692688, "pitch": -0.008115025237202644, "yaw": -2.0191168785095215}, "local_position": {"x": 6.391117572784424, "y": -4.861438274383545, "z": -16.519615173339844}, "status": {"flags": 831, "velocity_variance": 0.24969838559627533, "pos_horiz_variance": 0.017560597509145737, "pos_vert_variance": 0.04956985265016556}}, "errors": ["PreArm: Hardware safety switch", "PreArm: Compasses inconsistent"]}
{"timestamp": "2026-01-15T12:45:08.009274Z", "telemetry": {"lat": 28.7531488, "lon": 77.1178402, "satellites": 8, "altitude_gps_m": 229.239990234375, "groundspeed_mps": 0.4406684637069702}, "flight": {"mode": "STABILIZE", "armed": false}, "ekf": {"attitude": {"roll": 0.05295165628194809, "pitch": -0.007246216293424368, "yaw": -2.019162654876709}, "local_position": {"x": 6.542327880859375, "y": -4.949772834777832, "z": -16.84435272216797}, "status": {"flags": 831, "velocity_variance": 0.1132124587893486, "pos_horiz_variance": 0.01390657015144825, "pos_vert_variance": 0.03707441687583923}}, "errors": ["PreArm: Hardware safety switch", "PreArm: Compasses inconsistent"]}
{"timestamp": "2026-01-15T12:45:09.008562Z", "telemetry": {"lat": 28.7531498, "lon": 77.1178387, "satellites": 7, "altitude_gps_m": 229.47000122070312, "groundspeed_mps": 0.3499942123889923}, "flight": {"mode": "STABILIZE", "armed": false}, "ekf": {"attitude": {"roll": 0.051307812333106995, "pitch": -0.006537477020174265, "yaw": -2.0189733505249023}, "local_position": {"x": 6.641869068145752, "y": -5.003443241119385, "z": -17.08983612060547}, "status": {"flags": 831, "velocity_variance": 0.16809189319610596, "pos_horiz_variance": 0.012787552550435066, "pos_vert_variance": 0.03097119741141796}}, "errors": ["PreArm: Hardware safety switch", "PreArm: Compasses inconsistent"]}
{"timestamp": "2026-01-15T12:45:09.983250Z", "telemetry": {"lat": 28.7531529, "lon": 77.1178371, "satellites": 7, "altitude_gps_m": 230.22000122070312, "groundspeed_mps": 0.3075135052204132}, "flight": {"mode": "STABILIZE", "armed": false}, "ekf": {"attitude": {"roll": 0.05102455988526344, "pitch": -0.005837245378643274, "yaw": -2.0189666748046875}, "local_position": {"x": 6.764998912811279, "y": -5.039152145385742, "z": -17.889530181884766}, "status": {"flags": 33599, "velocity_variance": 0.05411110445857048, "pos_horiz_variance": 0.011606411077082157, "pos_vert_variance": 0.03571254387497902}}, "errors": ["PreArm: Hardware safety switch", "PreArm: Compasses inconsistent", "GPS Glitch or Compass error"]}
{"timestamp": "2026-01-15T12:45:10.983032Z", "telemetry": {"lat": 28.753155, "lon": 77.1178342, "satellites": 8, "altitude_gps_m": 229.69000244140625, "groundspeed_mps": 0.31140872836112976}, "flight": {"mode": "STABILIZE", "armed": false}, "ekf": {"attitude": {"roll": 0.051055848598480225, "pitch": -0.005849654320627451, "yaw": -2.0188674926757812}, "local_position": {"x": 6.974628925323486, "y": -5.209252834320068, "z": -17.433622360229492}, "status": {"flags": 33599, "velocity_variance": 0.22031302750110626, "pos_horiz_variance": 0.010424541309475899, "pos_vert_variance": 0.07316596060991287}}, "errors": ["PreArm: Hardware safety switch", "PreArm: Compasses inconsistent", "GPS Glitch or Compass error"]}
{"timestamp": "2026-01-15T12:45:11.985024Z", "telemetry": {"lat": 28.7531536, "lon": 77.1178355, "satellites": 8, "altitude_gps_m": 229.5, "groundspeed_mps": 0.24114982783794403}, "flight": {"mode": "STABILIZE", "armed": false}, "ekf": {"attitude": {"roll": 0.04981125518679619, "pitch": -0.005153200123459101, "yaw": -2.018723487854004}, "local_position": {"x": 7.111665725708008, "y": -5.36306095123291, "z": -17.18317985534668}, "status": {"flags": 33599, "velocity_variance": 0.146800696849823, "pos_horiz_variance": 0.012143021449446678, "pos_vert_variance": 0.06266401708126068}}, "errors": ["PreArm: Hardware safety switch", "PreArm: Compasses inconsistent", "GPS Glitch or Compass error"]}
{"timestamp": "2026-01-15T12:45:12.985587Z", "telemetry": {"lat": 28.7531564, "lon": 77.1178315, "satellites": 8, "altitude_gps_m": 229.4099884033203, "groundspeed_mps": 0.23144114017486572}, "flight": {"mode": "STABILIZE", "armed": false}, "ekf": {"attitude": {"roll": 0.049770791083574295, "pitch": -0.005074520129710436, "yaw": -2.018669605255127}, "local_position": {"x": 7.285213947296143, "y": -5.5105881690979, "z": -17.08477210998535}, "status": {"flags": 33599, "velocity_variance": 0.17042827606201172, "pos_horiz_variance": 0.008144328370690346, "pos_vert_variance": 0.014259112067520618}}, "errors": ["PreArm: Hardware safety switch", "PreArm: Compasses inconsistent", "GPS Glitch or Compass error"]}
{"timestamp": "2026-01-15T12:45:13.988140Z", "telemetry": {"lat": 28.7531533, "lon": 77.1178386, "satellites": 8, "altitude_gps_m": 229.4199981689453, "groundspeed_mps": 0.1416706144809723}, "flight": {"mode": "STABILIZE", "armed": false}, "ekf": {"attitude": {"roll": 0.04867856204509735, "pitch": -0.0044833519496023655, "yaw": -2.0185160636901855}, "local_position": {"x": 7.235734462738037, "y": -5.400918483734131, "z": -17.093570709228516}, "status": {"flags": 33599, "velocity_variance": 0.06047661975026131, "pos_horiz_variance": 0.021825695410370827, "pos_vert_variance": 0.07125932723283768}}, "errors": ["PreArm: Hardware safety switch", "PreArm: Compasses inconsistent", "GPS Glitch or Compass error"]}
{"timestamp": "2026-01-15T12:45:15.012426Z", "telemetry": {"lat": 28.7531539, "lon": 77.1178382, "satellites": 8, "altitude_gps_m": 229.3699951171875, "groundspeed_mps": 0.056476566940546036}, "flight": {"mode": "STABILIZE", "armed": false}, "ekf": {"attitude": {"roll": 0.047942791134119034, "pitch": -0.0038338475860655308, "yaw": -2.0182976722717285}, "local_position": {"x": 7.213734149932861, "y": -5.229142665863037, "z": -17.040319442749023}, "status": {"flags": 33599, "velocity_variance": 0.04492517560720444, "pos_horiz_variance": 0.016934668645262718, "pos_vert_variance": 0.02938407100737095}}, "errors": ["PreArm: Hardware safety switch", "PreArm: Compasses inconsistent", "GPS Glitch or Compass error"]}
{"timestamp": "2026-01-15T12:45:16.016913Z", "telemetry": {"lat": 28.7531543, "lon": 77.1178386, "satellites": 8, "altitude_gps_m": 229.3199920654297, "groundspeed_mps": 0.028895119205117226}, "flight": {"mode": "STABILIZE", "armed": false}, "ekf": {"attitude": {"roll": 0.047876179218292236, "pitch": -0.0035246885381639004, "yaw": -2.0181217193603516}, "local_position": {"x": 7.190474987030029, "y": -5.052174091339111, "z": -16.991296768188477}, "status": {"flags": 33599, "velocity_variance": 0.1396874189376831, "pos_horiz_variance": 0.013487642630934715, "pos_vert_variance": 0.01912580616772175}}, "errors": ["PreArm: Hardware safety switch", "PreArm: Compasses inconsistent", "GPS Glitch or Compass error"]}
{"timestamp": "2026-01-15T12:45:17.001496Z", "telemetry": {"lat": 28.7531543, "lon": 77.1178372, "satellites": 8, "altitude_gps_m": 229.2899932861328, "groundspeed_mps": 0.019613968208432198}, "flight": {"mode": "STABILIZE", "armed": false}, "ekf": {"attitude": {"roll": 0.04812203347682953, "pitch": -0.0038665342144668102, "yaw": -2.018040895462036}, "local_position": {"x": 7.264822483062744, "y": -5.087486267089844, "z": -16.964492797851562}, "status": {"flags": 33599, "velocity_variance": 0.05133839696645737, "pos_horiz_variance": 0.011272778734564781, "pos_vert_variance": 0.04244235157966614}}, "errors": ["PreArm: Hardware safety switch", "PreArm: Compasses inconsistent", "GPS Glitch or Compass error"]}
{"timestamp": "2026-01-15T12:45:18.000620Z", "telemetry": {"lat": 28.7531579, "lon": 77.1178361, "satellites": 8, "altitude_gps_m": 229.27999877929688, "groundspeed_mps": 0.033894360065460205}, "flight": {"mode": "STABILIZE", "armed": false}, "ekf": {"attitude": {"roll": 0.049143705517053604, "pitch": -0.004275314975529909, "yaw": -2.018002510070801}, "local_position": {"x": 7.4489240646362305, "y": -5.129601955413818, "z": -16.958003997802734}, "status": {"flags": 33599, "velocity_variance": 0.1413833647966385, "pos_horiz_variance": 0.010027121752500534, "pos_vert_variance": 0.04664146900177002}}, "errors": ["PreArm: Hardware safety switch", "PreArm: Compasses inconsistent", "GPS Glitch or Compass error", "PreArm: Hardware safety switch", "PreArm: Compasses inconsistent"]}
{"timestamp": "2026-01-15T12:45:19.000967Z", "telemetry": {"lat": 28.753157, "lon": 77.1178401, "satellites": 8, "altitude_gps_m": 229.1999969482422, "groundspeed_mps": 0.040796615183353424}, "flight": {"mode": "STABILIZE", "armed": false}, "ekf": {"attitude": {"roll": 0.04844588041305542, "pitch": -0.004089545924216509, "yaw": -2.018016815185547}, "local_position": {"x": 7.511382102966309, "y": -5.112199783325195, "z": -16.865049362182617}, "status": {"flags": 33599, "velocity_variance": 0.07335547357797623, "pos_horiz_variance": 0.018184131011366844, "pos_vert_variance": 0.10080143809318542}}, "errors": ["PreArm: Hardware safety switch", "PreArm: Compasses inconsistent", "GPS Glitch or Compass error", "PreArm: Hardware safety switch", "PreArm: Compasses inconsistent"]}
{"timestamp": "2026-01-15T12:45:20.000742Z", "telemetry": {"lat": 28.7531563, "lon": 77.1178435, "satellites": 8, "altitude_gps_m": 229.1699981689453, "groundspeed_mps": 0.09019627422094345}, "flight": {"mode": "STABILIZE", "armed": false}, "ekf": {"attitude": {"roll": 0.048262983560562134, "pitch": -0.0036297901533544064, "yaw": -2.0180838108062744}, "local_position": {"x": 7.454679012298584, "y": -4.837314128875732, "z": -16.838483810424805}, "status": {"flags": 33599, "velocity_variance": 0.1371062844991684, "pos_horiz_variance": 0.020368890836834908, "pos_vert_variance": 0.06839236617088318}}, "errors": ["PreArm: Hardware safety switch", "PreArm: Compasses inconsistent", "GPS Glitch or Compass error", "PreArm: Hardware safety switch", "PreArm: Compasses inconsistent"]}
{"timestamp": "2026-01-15T12:45:20.992159Z", "telemetry": {"lat": 28.7531536, "lon": 77.1178504, "satellites": 8, "altitude_gps_m": 229.09999084472656, "groundspeed_mps": 0.19961345195770264}, "flight": {"mode": "STABILIZE", "armed": false}, "ekf": {"attitude": {"roll": 0.04668287932872772, "pitch": -0.0030116583220660686, "yaw": -2.018217086791992}, "local_position": {"x": 7.341108322143555, "y": -4.396409511566162, "z": -16.78108024597168}, "status": {"flags": 33599, "velocity_variance": 0.23522688448429108, "pos_horiz_variance": 0.027010038495063782, "pos_vert_variance": 0.032259974628686905}}, "errors": ["PreArm: Hardware safety switch", "PreArm: Compasses inconsistent", "GPS Glitch or Compass error", "PreArm: Hardware safety switch", "PreArm: Compasses inconsistent"]}
{"timestamp": "2026-01-15T12:45:21.984753Z", "telemetry": {"lat": 28.7531513, "lon": 77.1178553, "satellites": 8, "altitude_gps_m": 229.1699981689453, "groundspeed_mps": 0.3432282507419586}, "flight": {"mode": "STABILIZE", "armed": false}, "ekf": {"attitude": {"roll": 0.04617456719279289, "pitch": -0.0028074164874851704, "yaw": -2.0178370475769043}, "local_position": {"x": 7.042716026306152, "y": -3.8441295623779297, "z": -16.817604064941406}, "status": {"flags": 33599, "velocity_variance": 0.0969964936375618, "pos_horiz_variance": 0.026383183896541595, "pos_vert_variance": 0.062204547226428986}}, "errors": ["PreArm: Hardware safety switch", "PreArm: Compasses inconsistent", "GPS Glitch or Compass error", "PreArm: Hardware safety switch", "PreArm: Compasses inconsistent"]}
{"timestamp": "2026-01-15T12:45:22.980203Z", "telemetry": {"lat": 28.7531499, "lon": 77.1178592, "satellites": 8, "altitude_gps_m": 229.1999969482422, "groundspeed_mps": 0.42667490243911743}, "flight": {"mode": "STABILIZE", "armed": false}, "ekf": {"attitude": {"roll": 0.04571298882365227, "pitch": -0.0024760011583566666, "yaw": -2.017653465270996}, "local_position": {"x": 6.833232879638672, "y": -3.357086658477783, "z": -16.88037872314453}, "status": {"flags": 33599, "velocity_variance": 0.10241955518722534, "pos_horiz_variance": 0.02428155019879341, "pos_vert_variance": 0.020217426121234894}}, "errors": ["PreArm: Hardware safety switch", "PreArm: Compasses inconsistent", "GPS Glitch or Compass error", "PreArm: Hardware safety switch", "PreArm: Compasses inconsistent"]}
