{"timestamp": "2026-01-15T13:39:27.878376Z", "telemetry": {"lat": 28.7530059, "lon": 77.1179622, "satellites": 0, "altitude_gps_m": 0.28999999165534973, "groundspeed_mps": 0.10692646354436874}, "flight": {"mode": "STABILIZE", "armed": false}, "ekf": {"attitude": {"roll": 0.010666724294424057, "pitch": -0.0001371311955153942, "yaw": -0.2366999387741089}, "local_position": {"x": null, "y": null, "z": null}, "status": {"flags": 135, "velocity_variance": 0.0, "pos_horiz_variance": 0.026080623269081116, "pos_vert_variance": 0.5978806614875793}}, "errors": []}
{"timestamp": "2026-01-15T13:39:28.963462Z", "telemetry": {"lat": 28.7530059, "lon": 77.1179622, "satellites": 0, "altitude_gps_m": 0.28999999165534973, "groundspeed_mps": 0.10808732360601425}, "flight": {"mode": "STABILIZE", "armed": false}, "ekf": {"attitude": {"roll": 0.010743588209152222, "pitch": -9.17930155992508e-05, "yaw": -0.23676460981369019}, "local_position": {"x": null, "y": null, "z": null}, "status": {"flags": 135, "velocity_variance": 0.0, "pos_horiz_variance": 0.026153823360800743, "pos_vert_variance": 0.03633660078048706}}, "errors": []}
{"timestamp": "2026-01-15T13:39:29.998012Z", "telemetry": {"lat": 28.7530059, "lon": 77.1179622, "satellites": 0, "altitude_gps_m": 0.28999999165534973, "groundspeed_mps": 0.10775861144065857}, "flight": {"mode": "STABILIZE", "armed": false}, "ekf": {"attitude": {"roll": 0.010671962052583694, "pitch": -3.506755456328392e-05, "yaw": -0.23692165315151215}, "local_position": {"x": null, "y": null, "z": null}, "status": {"flags": 135, "velocity_variance": 0.0, "pos_horiz_variance": 0.025979245081543922, "pos_vert_variance": 0.23893029987812042}}, "errors": []}
{"timestamp": "2026-01-15T13:39:30.999434Z", "telemetry": {"lat": 28.7530059, "lon": 77.1179622, "satellites": 0, "altitude_gps_m": 0.28999999165534973, "groundspeed_mps": 0.09946703910827637}, "flight": {"mode": "STABILIZE", "armed": false}, "ekf": {"attitude": {"roll": 0.011194009333848953, "pitch": 0.0007667387835681438, "yaw": -0.23720796406269073}, "local_position": {"x": null, "y": null, "z": null}, "status": {"flags": 135, "velocity_variance": 0.0, "pos_horiz_variance": 0.02623450569808483, "pos_vert_variance": 0.341761976480484}}, "errors": []}
{"timestamp": "2026-01-15T13:39:31.978088Z", "telemetry": {"lat": 28.7530059, "lon": 77.1179622, "satellites": 0, "altitude_gps_m": 0.28999999165534973, "groundspeed_mps": 0.10828685760498047}, "flight": {"mode": "STABILIZE", "armed": false}, "ekf": {"attitude": {"roll": 0.011486813426017761, "pitch": 0.0010265796445310116, "yaw": -0.23706695437431335}, "local_position": {"x": null, "y": null, "z": null}, "status": {"flags": 135, "velocity_variance": 0.0, "pos_horiz_variance": 0.02663959562778473, "pos_vert_variance": 0.01989153027534485}}, "errors": []}
{"timestamp": "2026-01-15T13:39:33.003198Z", "telemetry": {"lat": 28.7530059, "lon": 77.1179622, "satellites": 0, "altitude_gps_m": 0.28999999165534973, "groundspeed_mps": 0.10940022021532059}, "flight": {"mode": "STABILIZE", "armed": false}, "ekf": {"attitude": {"roll": 0.01149217039346695, "pitch": 0.0011588307097554207, "yaw": -0.23678813874721527}, "local_position": {"x": null, "y": null, "z": null}, "status": {"flags": 135, "velocity_variance": 0.0, "pos_horiz_variance": 0.02668505162000656, "pos_vert_variance": 0.1079402044415474}}, "errors": []}
{"timestamp": "2026-01-15T13:39:33.972750Z", "telemetry": {"lat": 28.7530059, "lon": 77.1179622, "satellites": 0, "altitude_gps_m": 0.28999999165534973, "groundspeed_mps": 0.10645072907209396}, "flight": {"mode": "STABILIZE", "armed": false}, "ekf": {"attitude": {"roll": 0.011583678424358368, "pitch": 0.0013894839212298393, "yaw": -0.23659177124500275}, "local_position": {"x": null, "y": null, "z": null}, "status": {"flags": 135, "velocity_variance": 0.0, "pos_horiz_variance": 0.026531962677836418, "pos_vert_variance": 0.21704839169979095}}, "errors": []}
{"timestamp": "2026-01-15T13:39:34.968735Z", "telemetry": {"lat": 28.7530059, "lon": 77.1179622, "satellites": 0, "altitude_gps_m": 0.28999999165534973, "groundspeed_mps": 0.10437990725040436}, "flight": {"mode": "STABILIZE", "armed": false}, "ekf": {"attitude": {"roll": 0.011754628270864487, "pitch": 0.0015243031084537506, "yaw": -0.2368716299533844}, "local_position": {"x": null, "y": null, "z": null}, "status": {"flags": 135, "velocity_variance": 0.0, "pos_horiz_variance": 0.02614201232790947, "pos_vert_variance": 0.13807907700538635}}, "errors": []}
{"timestamp": "2026-01-15T13:39:35.982067Z", "telemetry": {"lat": 28.7530059, "lon": 77.1179622, "satellites": 0, "altitude_gps_m": 0.28999999165534973, "groundspeed_mps": 0.10094667226076126}, "flight": {"mode": "STABILIZE", "armed": false}, "ekf": {"attitude": {"roll": 0.011874370276927948, "pitch": 0.001635205466300249, "yaw": -0.23676565289497375}, "local_position": {"x": null, "y": null, "z": null}, "status": {"flags": 135, "velocity_variance": 0.0, "pos_horiz_variance": 0.025480424985289574, "pos_vert_variance": 0.31510260701179504}}, "errors": []}
{"timestamp": "2026-01-15T13:39:37.007157Z", "telemetry": {"lat": 28.7530059, "lon": 77.1179622, "satellites": 0, "altitude_gps_m": 0.28999999165534973, "groundspeed_mps": 0.09822363406419754}, "flight": {"mode": "STABILIZE", "armed": false}, "ekf": {"attitude": {"roll": 0.012040507048368454, "pitch": 0.0014623298775404692, "yaw": -0.23690979182720184}, "local_position": {"x": null, "y": null, "z": null}, "status": {"flags": 135, "velocity_variance": 0.0, "pos_horiz_variance": 0.0248055849224329, "pos_vert_variance": 0.07545445114374161}}, "errors": []}
{"timestamp": "2026-01-15T13:39:38.007060Z", "telemetry": {"lat": 28.7530059, "lon": 77.1179622, "satellites": 0, "altitude_gps_m": 0.28999999165534973, "groundspeed_mps": 0.10057467967271805}, "flight": {"mode": "STABILIZE", "armed": false}, "ekf": {"attitude": {"roll": 0.012137729674577713, "pitch": 0.0013972753658890724, "yaw": -0.23679080605506897}, "local_position": {"x": null, "y": null, "z": null}, "status": {"flags": 135, "velocity_variance": 0.0, "pos_horiz_variance": 0.024342559278011322, "pos_vert_variance": 0.04008737578988075}}, "errors": []}
{"timestamp": "2026-01-15T13:39:39.007058Z", "telemetry": {"lat": 28.7530059, "lon": 77.1179622, "satellites": 0, "altitude_gps_m": 0.28999999165534973, "groundspeed_mps": 0.09988469630479813}, "flight": {"mode": "STABILIZE", "armed": false}, "ekf": {"attitude": {"roll": 0.01210789754986763, "pitch": 0.0014814487658441067, "yaw": -0.23661601543426514}, "local_position": {"x": null, "y": null, "z": null}, "status": {"flags": 135, "velocity_variance": 0.0, "pos_horiz_variance": 0.024466991424560547, "pos_vert_variance": 0.08798473328351974}}, "errors": []}
{"timestamp": "2026-01-15T13:39:39.977162Z", "telemetry": {"lat": 28.7530059, "lon": 77.1179622, "satellites": 0, "altitude_gps_m": 0.28999999165534973, "groundspeed_mps": 0.10282082855701447}, "flight": {"mode": "STABILIZE", "armed": false}, "ekf": {"attitude": {"roll": 0.011939220130443573, "pitch": 0.0014808087144047022, "yaw": -0.23648160696029663}, "local_position": {"x": null, "y": null, "z": null}, "status": {"flags": 135, "velocity_variance": 0.0, "pos_horiz_variance": 0.024572504684329033, "pos_vert_variance": 0.2200237363576889}}, "errors": []}
{"timestamp": "2026-01-15T13:39:40.983994Z", "telemetry": {"lat": 28.7530059, "lon": 77.1179622, "satellites": 0, "altitude_gps_m": 0.28999999165534973, "groundspeed_mps": 0.10401546955108643}, "flight": {"mode": "STABILIZE", "armed": false}, "ekf": {"attitude": {"roll": 0.011776283383369446, "pitch": 0.0015343104023486376, "yaw": -0.23651695251464844}, "local_position": {"x": null, "y": null, "z": null}, "status": {"flags": 135, "velocity_variance": 0.0, "pos_horiz_variance": 0.02503346838057041, "pos_vert_variance": 0.16245947778224945}}, "errors": []}
{"timestamp": "2026-01-15T13:39:41.983774Z", "telemetry": {"lat": 28.7530059, "lon": 77.1179622, "satellites": 0, "altitude_gps_m": 0.28999999165534973, "groundspeed_mps": 0.1023949533700943}, "flight": {"mode": "STABILIZE", "armed": false}, "ekf": {"attitude": {"roll": 0.011554919183254242, "pitch": 0.001695161685347557, "yaw": -0.23629701137542725}, "local_position": {"x": null, "y": null, "z": null}, "status": {"flags": 135, "velocity_variance": 0.0, "pos_horiz_variance": 0.025212731212377548, "pos_vert_variance": 0.24874921143054962}}, "errors": []}
{"timestamp": "2026-01-15T13:39:42.986590Z", "telemetry": {"lat": 28.7530059, "lon": 77.1179622, "satellites": 0, "altitude_gps_m": 0.28999999165534973, "groundspeed_mps": 0.10186746716499329}, "flight": {"mode": "STABILIZE", "armed": false}, "ekf": {"attitude": {"roll": 0.01139058917760849, "pitch": 0.0017479255329817533, "yaw": -0.2362673282623291}, "local_position": {"x": null, "y": null, "z": null}, "status": {"flags": 135, "velocity_variance": 0.0, "pos_horiz_variance": 0.024986278265714645, "pos_vert_variance": 0.1806401163339615}}, "errors": []}
{"timestamp": "2026-01-15T13:39:43.970657Z", "telemetry": {"lat": 28.7530059, "lon": 77.1179622, "satellites": 0, "altitude_gps_m": 0.28999999165534973, "groundspeed_mps": 0.10211223363876343}, "flight": {"mode": "STABILIZE", "armed": false}, "ekf": {"attitude": {"roll": 0.011456765234470367, "pitch": 0.0017868282739073038, "yaw": -0.23616527020931244}, "local_position": {"x": null, "y": null, "z": null}, "status": {"flags": 135, "velocity_variance": 0.0, "pos_horiz_variance": 0.024815313518047333, "pos_vert_variance": 0.015993108972907066}}, "errors": []}
{"timestamp": "2026-01-15T13:39:44.971222Z", "telemetry": {"lat": 28.7530059, "lon": 77.1179622, "satellites": 0, "altitude_gps_m": 0.28999999165534973, "groundspeed_mps": 0.09974545985460281}, "flight": {"mode": "STABILIZE", "armed": false}, "ekf": {"attitude": {"roll": 0.0113992840051651, "pitch": 0.001986355520784855, "yaw": -0.2363131046295166}, "local_position": {"x": null, "y": null, "z": null}, "status": {"flags": 135, "velocity_variance": 0.0, "pos_horiz_variance": 0.024758754298090935, "pos_vert_variance": 0.028623899444937706}}, "errors": []}
{"timestamp": "2026-01-15T13:39:45.999215Z", "telemetry": {"lat": 28.7530059, "lon": 77.1179622, "satellites": 0, "altitude_gps_m": 0.28999999165534973, "groundspeed_mps": 0.09653374552726746}, "flight": {"mode": "STABILIZE", "armed": false}, "ekf": {"attitude": {"roll": 0.011549118906259537, "pitch": 0.0020616468973457813, "yaw": -0.23636217415332794}, "local_position": {"x": null, "y": null, "z": null}, "status": {"flags": 135, "velocity_variance": 0.0, "pos_horiz_variance": 0.024469789117574692, "pos_vert_variance": 0.02156047523021698}}, "errors": []}
{"timestamp": "2026-01-15T13:39:46.998309Z", "telemetry": {"lat": 28.7530059, "lon": 77.1179622, "satellites": 0, "altitude_gps_m": 0.28999999165534973, "groundspeed_mps": 0.09582139551639557}, "flight": {"mode": "STABILIZE", "armed": false}, "ekf": {"attitude": {"roll": 0.01155048981308937, "pitch": 0.002185750985518098, "yaw": -0.23640033602714539}, "local_position": {"x": null, "y": null, "z": null}, "status": {"flags": 135, "velocity_variance": 0.0, "pos_horiz_variance": 0.02377333864569664, "pos_vert_variance": 0.032108042389154434}}, "errors": []}
{"timestamp": "2026-01-15T13:39:47.998594Z", "telemetry": {"lat": 28.7530059, "lon": 77.1179622, "satellites": 0, "altitude_gps_m": 0.28999999165534973, "groundspeed_mps": 0.09475483745336533}, "flight": {"mode": "STABILIZE", "armed": false}, "ekf": {"attitude": {"roll": 0.011570841073989868, "pitch": 0.002132719848304987, "yaw": -0.23634517192840576}, "local_position": {"x": null, "y": null, "z": null}, "status": {"flags": 135, "velocity_variance": 0.0, "pos_horiz_variance": 0.02346351370215416, "pos_vert_variance": 0.006089407950639725}}, "errors": []}
{"timestamp": "2026-01-15T13:39:48.998500Z", "telemetry": {"lat": 28.7530059, "lon": 77.1179622, "satellites": 0, "altitude_gps_m": 0.28999999165534973, "groundspeed_mps": 0.09545695036649704}, "flight": {"mode": "STABILIZE", "armed": false}, "ekf": {"attitude": {"roll": 0.011792685836553574, "pitch": 0.002111921552568674, "yaw": -0.23649297654628754}, "local_position": {"x": null, "y": null, "z": null}, "status": {"flags": 135, "velocity_variance": 0.0, "pos_horiz_variance": 0.023170916363596916, "pos_vert_variance": 0.006756903138011694}}, "errors": []}
{"timestamp": "2026-01-15T13:39:50.032742Z", "telemetry": {"lat": 28.7530059, "lon": 77.1179622, "satellites": 0, "altitude_gps_m": 0.28999999165534973, "groundspeed_mps": 0.09355781972408295}, "flight": {"mode": "STABILIZE", "armed": false}, "ekf": {"attitude": {"roll": 0.012040797621011734, "pitch": 0.0020525623112916946, "yaw": -0.23651234805583954}, "local_position": {"x": null, "y": null, "z": null}, "status": {"flags": 135, "velocity_variance": 0.0, "pos_horiz_variance": 0.02311141975224018, "pos_vert_variance": 0.06055273860692978}}, "errors": ["PreArm: Hardware safety switch"]}
{"timestamp": "2026-01-15T13:39:50.981874Z", "telemetry": {"lat": 28.7530059, "lon": 77.1179622, "satellites": 0, "altitude_gps_m": 0.28999999165534973, "groundspeed_mps": 0.0938873365521431}, "flight": {"mode": "STABILIZE", "armed": false}, "ekf": {"attitude": {"roll": 0.012126956135034561, "pitch": 0.002102669095620513, "yaw": -0.23635965585708618}, "local_position": {"x": null, "y": null, "z": null}, "status": {"flags": 135, "velocity_variance": 0.0, "pos_horiz_variance": 0.02298491634428501, "pos_vert_variance": 0.009360088035464287}}, "errors": ["PreArm: Hardware safety switch"]}
{"timestamp": "2026-01-15T13:39:52.002839Z", "telemetry": {"lat": 28.7530059, "lon": 77.1179622, "satellites": 0, "altitude_gps_m": 0.28999999165534973, "groundspeed_mps": 0.09331975132226944}, "flight": {"mode": "STABILIZE", "armed": false}, "ekf": {"attitude": {"roll": 0.011962015181779861, "pitch": 0.00213209493085742, "yaw": -0.23635491728782654}, "local_position": {"x": null, "y": null, "z": null}, "status": {"flags": 135, "velocity_variance": 0.0, "pos_horiz_variance": 0.02279088832437992, "pos_vert_variance": 0.11250844597816467}}, "errors": ["PreArm: Hardware safety switch"]}
{"timestamp": "2026-01-15T13:39:53.003362Z", "telemetry": {"lat": 28.7530059, "lon": 77.1179622, "satellites": 0, "altitude_gps_m": 0.28999999165534973, "groundspeed_mps": 0.09226793050765991}, "flight": {"mode": "STABILIZE", "armed": false}, "ekf": {"attitude": {"roll": 0.01179487258195877, "pitch": 0.0021945268381386995, "yaw": -0.23625433444976807}, "local_position": {"x": null, "y": null, "z": null}, "status": {"flags": 135, "velocity_variance": 0.0, "pos_horiz_variance": 0.022763844579458237, "pos_vert_variance": 0.14208760857582092}}, "errors": ["PreArm: Hardware safety switch"]}
{"timestamp": "2026-01-15T13:39:54.007077Z", "telemetry": {"lat": 28.7530059, "lon": 77.1179622, "satellites": 0, "altitude_gps_m": 0.28999999165534973, "groundspeed_mps": 0.09190620481967926}, "flight": {"mode": "STABILIZE", "armed": false}, "ekf": {"attitude": {"roll": 0.0117664635181427, "pitch": 0.002097637392580509, "yaw": -0.23607026040554047}, "local_position": {"x": null, "y": null, "z": null}, "status": {"flags": 135, "velocity_variance": 0.0, "pos_horiz_variance": 0.022533616051077843, "pos_vert_variance": 0.05577359348535538}}, "errors": ["PreArm: Hardware safety switch"]}
