{"timestamp": "2025-12-28T10:29:06.868884Z", "telemetry": {"lat": 28.7531193, "lon": 77.1177101, "satellites": 9, "altitude_gps_m": 213.0699920654297, "groundspeed_mps": 0.16596649587154388}, "flight": {"mode": null, "armed": null}, "ekf": {"attitude": {"roll": -0.03286927565932274, "pitch": 0.0033536269329488277, "yaw": 3.0467934608459473}, "local_position": {"x": 6.225552082061768, "y": -16.22547721862793, "z": -4.14478063583374}, "status": {"flags": 33599, "velocity_variance": 0.14115676283836365, "pos_horiz_variance": 0.03107707016170025, "pos_vert_variance": 0.006664242595434189}}, "errors": []}
{"timestamp": "2025-12-28T10:29:07.868220Z", "telemetry": {"lat": 28.753116, "lon": 77.1177095, "satellites": 9, "altitude_gps_m": 213.04998779296875, "groundspeed_mps": 0.10551100224256516}, "flight": {"mode": "STABILIZE", "armed": false}, "ekf": {"attitude": {"roll": -0.03312958404421806, "pitch": 0.003682326292619109, "yaw": 3.0466372966766357}, "local_position": {"x": 5.966688632965088, "y": -16.216764450073242, "z": -4.1239213943481445}, "status": {"flags": 33599, "velocity_variance": 0.05070621147751808, "pos_horiz_variance": 0.029896937310695648, "pos_vert_variance": 0.04365101829171181}}, "errors": []}
{"timestamp": "2025-12-28T10:29:08.868606Z", "telemetry": {"lat": 28.753112, "lon": 77.1177104, "satellites": 9, "altitude_gps_m": 213.02999877929688, "groundspeed_mps": 0.11413836479187012}, "flight": {"mode": "STABILIZE", "armed": false}, "ekf": {"attitude": {"roll": -0.03365730121731758, "pitch": 0.0033162995241582394, "yaw": 3.046672821044922}, "local_position": {"x": 5.306950092315674, "y": -16.205476760864258, "z": -4.103237152099609}, "status": {"flags": 33599, "velocity_variance": 0.18685616552829742, "pos_horiz_variance": 0.028305185958743095, "pos_vert_variance": 0.029365066438913345}}, "errors": []}
{"timestamp": "2025-12-28T10:29:09.868088Z", "telemetry": {"lat": 28.7531146, "lon": 77.117714, "satellites": 9, "altitude_gps_m": 213.01998901367188, "groundspeed_mps": 0.07638434320688248}, "flight": {"mode": "STABILIZE", "armed": false}, "ekf": {"attitude": {"roll": -0.03439152613282204, "pitch": 0.00441661337390542, "yaw": 3.0467028617858887}, "local_position": {"x": 5.271199703216553, "y": -15.955780029296875, "z": -4.097471714019775}, "status": {"flags": 33599, "velocity_variance": 0.16437755525112152, "pos_horiz_variance": 0.022563554346561432, "pos_vert_variance": 0.019264299422502518}}, "errors": []}
{"timestamp": "2025-12-28T10:29:10.868301Z", "telemetry": {"lat": 28.7531116, "lon": 77.11772, "satellites": 9, "altitude_gps_m": 213.08999633789062, "groundspeed_mps": 0.1770000159740448}, "flight": {"mode": "STABILIZE", "armed": false}, "ekf": {"attitude": {"roll": -0.03555712476372719, "pitch": 0.003272293135523796, "yaw": 3.046807050704956}, "local_position": {"x": 4.904684066772461, "y": -15.536149024963379, "z": -4.168997764587402}, "status": {"flags": 33599, "velocity_variance": 0.06289877742528915, "pos_horiz_variance": 0.02267228439450264, "pos_vert_variance": 0.04264815151691437}}, "errors": []}
{"timestamp": "2025-12-28T10:29:11.868141Z", "telemetry": {"lat": 28.7531144, "lon": 77.1177221, "satellites": 9, "altitude_gps_m": 213.13999938964844, "groundspeed_mps": 0.2278738021850586}, "flight": {"mode": "STABILIZE", "armed": false}, "ekf": {"attitude": {"roll": -0.03560670092701912, "pitch": 0.004777258727699518, "yaw": 3.04673433303833}, "local_position": {"x": 4.941437721252441, "y": -15.340593338012695, "z": -4.2180070877075195}, "status": {"flags": 33599, "velocity_variance": 0.09705033898353577, "pos_horiz_variance": 0.018091775476932526, "pos_vert_variance": 0.01314200647175312}}, "errors": []}
{"timestamp": "2025-12-28T10:29:12.868765Z", "telemetry": {"lat": 28.7531152, "lon": 77.1177236, "satellites": 9, "altitude_gps_m": 213.11000061035156, "groundspeed_mps": 0.355410099029541}, "flight": {"mode": "STABILIZE", "armed": false}, "ekf": {"attitude": {"roll": -0.03588384762406349, "pitch": 0.005616122391074896, "yaw": 3.0468015670776367}, "local_position": {"x": 5.20953893661499, "y": -15.046521186828613, "z": -4.181834697723389}, "status": {"flags": 33599, "velocity_variance": 0.1963634192943573, "pos_horiz_variance": 0.019517209380865097, "pos_vert_variance": 0.024803420528769493}}, "errors": []}
{"timestamp": "2025-12-28T10:29:13.868196Z", "telemetry": {"lat": 28.7531106, "lon": 77.1177224, "satellites": 9, "altitude_gps_m": 213.14999389648438, "groundspeed_mps": 0.37653467059135437}, "flight": {"mode": "STABILIZE", "armed": false}, "ekf": {"attitude": {"roll": -0.035699520260095596, "pitch": 0.00465778075158596, "yaw": 3.0469868183135986}, "local_position": {"x": 5.201422691345215, "y": -14.896880149841309, "z": -4.20587682723999}, "status": {"flags": 33599, "velocity_variance": 0.1990146040916443, "pos_horiz_variance": 0.02612554095685482, "pos_vert_variance": 0.002539148787036538}}, "errors": []}
{"timestamp": "2025-12-28T10:29:14.873666Z", "telemetry": {"lat": 28.7531061, "lon": 77.117724, "satellites": 9, "altitude_gps_m": 213.04998779296875, "groundspeed_mps": 0.3134450316429138}, "flight": {"mode": "STABILIZE", "armed": false}, "ekf": {"attitude": {"roll": -0.03566565737128258, "pitch": 0.0020810002461075783, "yaw": 3.0472252368927}, "local_position": {"x": 4.819751262664795, "y": -14.698280334472656, "z": -4.179100513458252}, "status": {"flags": 33599, "velocity_variance": 0.32634633779525757, "pos_horiz_variance": 0.03125881403684616, "pos_vert_variance": 0.08374897390604019}}, "errors": []}
{"timestamp": "2025-12-28T10:29:15.873431Z", "telemetry": {"lat": 28.7531032, "lon": 77.1177263, "satellites": 10, "altitude_gps_m": 212.95999145507812, "groundspeed_mps": 0.26281845569610596}, "flight": {"mode": "STABILIZE", "armed": false}, "ekf": {"attitude": {"roll": -0.035583917051553726, "pitch": 0.0005120458081364632, "yaw": 3.047307014465332}, "local_position": {"x": 4.142102241516113, "y": -14.553621292114258, "z": -4.03237771987915}, "status": {"flags": 33599, "velocity_variance": 0.14134207367897034, "pos_horiz_variance": 0.025842344388365746, "pos_vert_variance": 0.03986186534166336}}, "errors": []}
{"timestamp": "2025-12-28T10:29:16.869526Z", "telemetry": {"lat": 28.7531083, "lon": 77.1177309, "satellites": 10, "altitude_gps_m": 212.989990234375, "groundspeed_mps": 0.2990052402019501}, "flight": {"mode": "STABILIZE", "armed": false}, "ekf": {"attitude": {"roll": -0.03552692010998726, "pitch": 0.0005425401031970978, "yaw": 3.047476053237915}, "local_position": {"x": 4.064432144165039, "y": -14.266375541687012, "z": -4.061801433563232}, "status": {"flags": 33599, "velocity_variance": 0.20436178147792816, "pos_horiz_variance": 0.013391703367233276, "pos_vert_variance": 0.052573371678590775}}, "errors": []}
{"timestamp": "2025-12-28T10:29:17.868215Z", "telemetry": {"lat": 28.75311, "lon": 77.1177328, "satellites": 10, "altitude_gps_m": 213.08999633789062, "groundspeed_mps": 0.3043844699859619}, "flight": {"mode": "STABILIZE", "armed": false}, "ekf": {"attitude": {"roll": -0.03510375693440437, "pitch": -4.184478893876076e-05, "yaw": 3.0476131439208984}, "local_position": {"x": 3.9704833030700684, "y": -14.012102127075195, "z": -4.165225028991699}, "status": {"flags": 33599, "velocity_variance": 0.13841107487678528, "pos_horiz_variance": 0.006378902588039637, "pos_vert_variance": 0.04518355056643486}}, "errors": []}
{"timestamp": "2025-12-28T10:29:18.868501Z", "telemetry": {"lat": 28.7531133, "lon": 77.1177355, "satellites": 10, "altitude_gps_m": 213.11000061035156, "groundspeed_mps": 0.3235832154750824}, "flight": {"mode": "STABILIZE", "armed": false}, "ekf": {"attitude": {"roll": -0.03472251817584038, "pitch": 2.610776573419571e-05, "yaw": 3.047701597213745}, "local_position": {"x": 4.099589824676514, "y": -13.776780128479004, "z": -4.184688091278076}, "status": {"flags": 33599, "velocity_variance": 0.14844639599323273, "pos_horiz_variance": 0.004207886755466461, "pos_vert_variance": 0.038728706538677216}}, "errors": []}
{"timestamp": "2025-12-28T10:29:19.868497Z", "telemetry": {"lat": 28.7531151, "lon": 77.1177361, "satellites": 10, "altitude_gps_m": 213.0399932861328, "groundspeed_mps": 0.3330640494823456}, "flight": {"mode": "STABILIZE", "armed": false}, "ekf": {"attitude": {"roll": -0.03416748717427254, "pitch": 0.0001919320784509182, "yaw": 3.0478224754333496}, "local_position": {"x": 4.3066229820251465, "y": -13.60614013671875, "z": -4.115992069244385}, "status": {"flags": 33599, "velocity_variance": 0.30051276087760925, "pos_horiz_variance": 0.0017210779478773475, "pos_vert_variance": 0.019697681069374084}}, "errors": []}
{"timestamp": "2025-12-28T10:29:20.867940Z", "telemetry": {"lat": 28.7531137, "lon": 77.1177369, "satellites": 10, "altitude_gps_m": 213.04998779296875, "groundspeed_mps": 0.2845951318740845}, "flight": {"mode": "STABILIZE", "armed": false}, "ekf": {"attitude": {"roll": -0.03327346220612526, "pitch": -0.0009818230755627155, "yaw": 3.047858715057373}, "local_position": {"x": 4.289367198944092, "y": -13.501897811889648, "z": -4.121659278869629}, "status": {"flags": 33599, "velocity_variance": 0.1579255759716034, "pos_horiz_variance": 0.0012993275886401534, "pos_vert_variance": 0.05748168006539345}}, "errors": []}
{"timestamp": "2025-12-28T10:29:21.868277Z", "telemetry": {"lat": 28.7531118, "lon": 77.1177365, "satellites": 10, "altitude_gps_m": 213.05999755859375, "groundspeed_mps": 0.19298569858074188}, "flight": {"mode": "STABILIZE", "armed": false}, "ekf": {"attitude": {"roll": -0.03208262100815773, "pitch": -0.0023627369664609432, "yaw": 3.0479183197021484}, "local_position": {"x": 4.149725914001465, "y": -13.531959533691406, "z": -4.139230728149414}, "status": {"flags": 33599, "velocity_variance": 0.14254073798656464, "pos_horiz_variance": 0.003508289810270071, "pos_vert_variance": 0.028258567675948143}}, "errors": []}
{"timestamp": "2025-12-28T10:29:22.868377Z", "telemetry": {"lat": 28.7531135, "lon": 77.1177381, "satellites": 10, "altitude_gps_m": 213.0800018310547, "groundspeed_mps": 0.15382720530033112}, "flight": {"mode": "STABILIZE", "armed": false}, "ekf": {"attitude": {"roll": -0.03134628012776375, "pitch": -0.00261877803131938, "yaw": 3.0479986667633057}, "local_position": {"x": 4.191590785980225, "y": -13.509452819824219, "z": -4.154923915863037}, "status": {"flags": 33599, "velocity_variance": 0.12023292481899261, "pos_horiz_variance": 0.0024002015125006437, "pos_vert_variance": 0.04173053056001663}}, "errors": []}
{"timestamp": "2025-12-28T10:29:23.867967Z", "telemetry": {"lat": 28.7531132, "lon": 77.1177375, "satellites": 10, "altitude_gps_m": 213.08999633789062, "groundspeed_mps": 0.08495636284351349}, "flight": {"mode": "STABILIZE", "armed": false}, "ekf": {"attitude": {"roll": -0.029823672026395798, "pitch": -0.0035710162483155727, "yaw": 3.0479278564453125}, "local_position": {"x": 4.229243278503418, "y": -13.507447242736816, "z": -4.144371032714844}, "status": {"flags": 33599, "velocity_variance": 0.21231605112552643, "pos_horiz_variance": 0.0017291822005063295, "pos_vert_variance": 0.05072927847504616}}, "errors": []}
{"timestamp": "2025-12-28T10:29:24.868107Z", "telemetry": {"lat": 28.7531109, "lon": 77.1177375, "satellites": 10, "altitude_gps_m": 213.1599884033203, "groundspeed_mps": 0.004166873637586832}, "flight": {"mode": "STABILIZE", "armed": false}, "ekf": {"attitude": {"roll": -0.029546204954385757, "pitch": -0.005056824069470167, "yaw": 3.04783296585083}, "local_position": {"x": 4.005762577056885, "y": -13.595436096191406, "z": -4.23591947555542}, "status": {"flags": 33599, "velocity_variance": 0.13489265739917755, "pos_horiz_variance": 0.002908743917942047, "pos_vert_variance": 0.057811327278614044}}, "errors": []}
{"timestamp": "2025-12-28T10:29:25.873479Z", "telemetry": {"lat": 28.7531118, "lon": 77.1177393, "satellites": 10, "altitude_gps_m": 213.1599884033203, "groundspeed_mps": 0.037894707173109055}, "flight": {"mode": "STABILIZE", "armed": false}, "ekf": {"attitude": {"roll": -0.029660824686288834, "pitch": -0.005423519294708967, "yaw": 3.047666311264038}, "local_position": {"x": 3.9050514698028564, "y": -13.50412654876709, "z": -4.233640193939209}, "status": {"flags": 33599, "velocity_variance": 0.06436586380004883, "pos_horiz_variance": 0.005225093569606543, "pos_vert_variance": 0.06520120054483414}}, "errors": []}
{"timestamp": "2025-12-28T10:29:26.869518Z", "telemetry": {"lat": 28.7531127, "lon": 77.1177389, "satellites": 10, "altitude_gps_m": 213.14999389648438, "groundspeed_mps": 0.028124941512942314}, "flight": {"mode": "STABILIZE", "armed": false}, "ekf": {"attitude": {"roll": -0.029466014355421066, "pitch": -0.005004837643355131, "yaw": 3.0475778579711914}, "local_position": {"x": 4.028547286987305, "y": -13.483346939086914, "z": -4.210286617279053}, "status": {"flags": 33599, "velocity_variance": 0.26304852962493896, "pos_horiz_variance": 0.004373563453555107, "pos_vert_variance": 0.021900663152337074}}, "errors": []}
{"timestamp": "2025-12-28T10:29:27.869417Z", "telemetry": {"lat": 28.7531135, "lon": 77.1177372, "satellites": 10, "altitude_gps_m": 213.13999938964844, "groundspeed_mps": 0.0580136701464653}, "flight": {"mode": "STABILIZE", "armed": false}, "ekf": {"attitude": {"roll": -0.028954800218343735, "pitch": -0.00481283338740468, "yaw": 3.047542095184326}, "local_position": {"x": 4.139496803283691, "y": -13.530533790588379, "z": -4.216457843780518}, "status": {"flags": 33599, "velocity_variance": 0.1870613992214203, "pos_horiz_variance": 0.0020535935182124376, "pos_vert_variance": 0.02052668295800686}}, "errors": []}
{"timestamp": "2025-12-28T10:29:28.868311Z", "telemetry": {"lat": 28.7531131, "lon": 77.1177344, "satellites": 10, "altitude_gps_m": 213.08999633789062, "groundspeed_mps": 0.13832207024097443}, "flight": {"mode": "STABILIZE", "armed": false}, "ekf": {"attitude": {"roll": -0.028228256851434708, "pitch": -0.005163916852325201, "yaw": 3.047516107559204}, "local_position": {"x": 4.163870811462402, "y": -13.782590866088867, "z": -4.167098045349121}, "status": {"flags": 33599, "velocity_variance": 0.08656107634305954, "pos_horiz_variance": 0.0007419536123052239, "pos_vert_variance": 0.013795891776680946}}, "errors": []}
{"timestamp": "2025-12-28T10:29:29.868531Z", "telemetry": {"lat": 28.7531155, "lon": 77.1177325, "satellites": 10, "altitude_gps_m": 213.08999633789062, "groundspeed_mps": 0.18629170954227448}, "flight": {"mode": "STABILIZE", "armed": false}, "ekf": {"attitude": {"roll": -0.027816999703645706, "pitch": -0.0050035384483635426, "yaw": 3.0474960803985596}, "local_position": {"x": 4.279911041259766, "y": -13.964046478271484, "z": -4.163738250732422}, "status": {"flags": 33599, "velocity_variance": 0.07414587587118149, "pos_horiz_variance": 0.004663422238081694, "pos_vert_variance": 0.039947692304849625}}, "errors": []}
{"timestamp": "2025-12-28T10:29:30.868362Z", "telemetry": {"lat": 28.7531152, "lon": 77.1177309, "satellites": 10, "altitude_gps_m": 213.09999084472656, "groundspeed_mps": 0.21861207485198975}, "flight": {"mode": "STABILIZE", "armed": false}, "ekf": {"attitude": {"roll": -0.028026733547449112, "pitch": -0.0048605105839669704, "yaw": 3.0475146770477295}, "local_position": {"x": 4.404422760009766, "y": -14.10952377319336, "z": -4.197117328643799}, "status": {"flags": 33599, "velocity_variance": 0.08689475804567337, "pos_horiz_variance": 0.0018366832518950105, "pos_vert_variance": 0.004754551220685244}}, "errors": ["PreArm: Hardware safety switch", "PreArm: Internal errors 0x100000 l:66 flow_of_ctrl"]}
{"timestamp": "2025-12-28T10:29:31.868505Z", "telemetry": {"lat": 28.7531121, "lon": 77.1177293, "satellites": 10, "altitude_gps_m": 213.09999084472656, "groundspeed_mps": 0.2166236937046051}, "flight": {"mode": "STABILIZE", "armed": false}, "ekf": {"attitude": {"roll": -0.02827361598610878, "pitch": -0.0053981938399374485, "yaw": 3.0473873615264893}, "local_position": {"x": 4.345474720001221, "y": -14.252623558044434, "z": -4.176022052764893}, "status": {"flags": 33599, "velocity_variance": 0.12920907139778137, "pos_horiz_variance": 0.007952166721224785, "pos_vert_variance": 0.03419911861419678}}, "errors": ["PreArm: Hardware safety switch", "PreArm: Internal errors 0x100000 l:66 flow_of_ctrl"]}
{"timestamp": "2025-12-28T10:29:32.868558Z", "telemetry": {"lat": 28.7531032, "lon": 77.1177233, "satellites": 10, "altitude_gps_m": 213.05999755859375, "groundspeed_mps": 0.29102858901023865}, "flight": {"mode": "STABILIZE", "armed": false}, "ekf": {"attitude": {"roll": -0.02755608782172203, "pitch": -0.007529302034527063, "yaw": 3.047267436981201}, "local_position": {"x": 3.8644933700561523, "y": -14.525542259216309, "z": -4.138186454772949}, "status": {"flags": 33599, "velocity_variance": 0.3127250373363495, "pos_horiz_variance": 0.023454109206795692, "pos_vert_variance": 0.020254286006093025}}, "errors": ["PreArm: Hardware safety switch", "PreArm: Internal errors 0x100000 l:66 flow_of_ctrl"]}
{"timestamp": "2025-12-28T10:29:33.867998Z", "telemetry": {"lat": 28.7530957, "lon": 77.1177137, "satellites": 10, "altitude_gps_m": 213.19000244140625, "groundspeed_mps": 0.5761277675628662}, "flight": {"mode": "STABILIZE", "armed": false}, "ekf": {"attitude": {"roll": -0.024871308356523514, "pitch": -0.009731946513056755, "yaw": 3.047121286392212}, "local_position": {"x": 3.180638551712036, "y": -15.26269817352295, "z": -4.241262912750244}, "status": {"flags": 33599, "velocity_variance": 0.2635418772697449, "pos_horiz_variance": 0.03143182769417763, "pos_vert_variance": 0.04115249589085579}}, "errors": ["PreArm: Hardware safety switch", "PreArm: Internal errors 0x100000 l:66 flow_of_ctrl"]}
{"timestamp": "2025-12-28T10:29:34.867907Z", "telemetry": {"lat": 28.7530906, "lon": 77.1177082, "satellites": 9, "altitude_gps_m": 213.25999450683594, "groundspeed_mps": 0.7258596420288086}, "flight": {"mode": "STABILIZE", "armed": false}, "ekf": {"attitude": {"roll": -0.024155106395483017, "pitch": -0.011586206033825874, "yaw": 3.0469789505004883}, "local_position": {"x": 2.3158514499664307, "y": -15.951606750488281, "z": -4.342050552368164}, "status": {"flags": 33599, "velocity_variance": 0.7104998230934143, "pos_horiz_variance": 0.024502592161297798, "pos_vert_variance": 0.005107650067657232}}, "errors": ["PreArm: Hardware safety switch", "PreArm: Internal errors 0x100000 l:66 flow_of_ctrl"]}
{"timestamp": "2025-12-28T10:29:35.867866Z", "telemetry": {"lat": 28.7530895, "lon": 77.1176971, "satellites": 9, "altitude_gps_m": 213.34999084472656, "groundspeed_mps": 1.0858172178268433}, "flight": {"mode": "STABILIZE", "armed": false}, "ekf": {"attitude": {"roll": -0.020136330276727676, "pitch": -0.012238720431923866, "yaw": 3.0468697547912598}, "local_position": {"x": 1.4863784313201904, "y": -17.451143264770508, "z": -4.426114082336426}, "status": {"flags": 33599, "velocity_variance": 0.3787434697151184, "pos_horiz_variance": 0.004974516574293375, "pos_vert_variance": 0.02937322109937668}}, "errors": ["PreArm: Hardware safety switch", "PreArm: Internal errors 0x100000 l:66 flow_of_ctrl"]}
{"timestamp": "2025-12-28T10:29:36.873359Z", "telemetry": {"lat": 28.7530901, "lon": 77.1176963, "satellites": 9, "altitude_gps_m": 213.239990234375, "groundspeed_mps": 1.0830581188201904}, "flight": {"mode": "STABILIZE", "armed": false}, "ekf": {"attitude": {"roll": -0.021929647773504257, "pitch": -0.01142466627061367, "yaw": 3.0464813709259033}, "local_position": {"x": 1.0477429628372192, "y": -18.03082847595215, "z": -4.327992916107178}, "status": {"flags": 33599, "velocity_variance": 0.44441500306129456, "pos_horiz_variance": 0.013227379880845547, "pos_vert_variance": 0.05707801133394241}}, "errors": ["PreArm: Hardware safety switch", "PreArm: Internal errors 0x100000 l:66 flow_of_ctrl"]}
{"timestamp": "2025-12-28T10:29:37.869310Z", "telemetry": {"lat": 28.7530927, "lon": 77.1176995, "satellites": 10, "altitude_gps_m": 213.1599884033203, "groundspeed_mps": 0.9779419898986816}, "flight": {"mode": "STABILIZE", "armed": false}, "ekf": {"attitude": {"roll": -0.024278733879327774, "pitch": -0.010701095685362816, "yaw": 3.0462539196014404}, "local_position": {"x": 0.9177312850952148, "y": -18.228601455688477, "z": -4.234567165374756}, "status": {"flags": 33599, "velocity_variance": 0.6310064196586609, "pos_horiz_variance": 0.031113401055336, "pos_vert_variance": 0.014319490641355515}}, "errors": ["PreArm: Hardware safety switch", "PreArm: Internal errors 0x100000 l:66 flow_of_ctrl"]}
{"timestamp": "2025-12-28T10:29:38.867931Z", "telemetry": {"lat": 28.7530919, "lon": 77.1177019, "satellites": 10, "altitude_gps_m": 213.09999084472656, "groundspeed_mps": 0.8097065687179565}, "flight": {"mode": "STABILIZE", "armed": false}, "ekf": {"attitude": {"roll": -0.027019072324037552, "pitch": -0.009942809119820595, "yaw": 3.0460205078125}, "local_position": {"x": 0.8604280352592468, "y": -18.12185287475586, "z": -4.17476224899292}, "status": {"flags": 33599, "velocity_variance": 0.2787827253341675, "pos_horiz_variance": 0.03546921908855438, "pos_vert_variance": 0.006811212282627821}}, "errors": ["PreArm: Hardware safety switch", "PreArm: Internal errors 0x100000 l:66 flow_of_ctrl"]}
{"timestamp": "2025-12-28T10:29:39.867792Z", "telemetry": {"lat": 28.7530904, "lon": 77.1177047, "satellites": 9, "altitude_gps_m": 213.0399932861328, "groundspeed_mps": 0.6906126737594604}, "flight": {"mode": "STABILIZE", "armed": false}, "ekf": {"attitude": {"roll": -0.03010089322924614, "pitch": -0.00951516255736351, "yaw": 3.04571795463562}, "local_position": {"x": 0.5678861141204834, "y": -17.866436004638672, "z": -4.115232944488525}, "status": {"flags": 33599, "velocity_variance": 0.16242311894893646, "pos_horiz_variance": 0.03895952180027962, "pos_vert_variance": 0.055615585297346115}}, "errors": ["PreArm: Hardware safety switch", "PreArm: Internal errors 0x100000 l:66 flow_of_ctrl"]}
{"timestamp": "2025-12-28T10:29:40.867876Z", "telemetry": {"lat": 28.7530917, "lon": 77.1177069, "satellites": 9, "altitude_gps_m": 213.08999633789062, "groundspeed_mps": 0.5471874475479126}, "flight": {"mode": "STABILIZE", "armed": false}, "ekf": {"attitude": {"roll": -0.031499940901994705, "pitch": -0.008592221885919571, "yaw": 3.0457046031951904}, "local_position": {"x": 0.5794591903686523, "y": -17.673503875732422, "z": -4.1656599044799805}, "status": {"flags": 33599, "velocity_variance": 0.3028163015842438, "pos_horiz_variance": 0.04155689850449562, "pos_vert_variance": 0.005056500900536776}}, "errors": ["PreArm: Hardware safety switch", "PreArm: Internal errors 0x100000 l:66 flow_of_ctrl"]}
{"timestamp": "2025-12-28T10:29:41.867949Z", "telemetry": {"lat": 28.7530962, "lon": 77.1177052, "satellites": 9, "altitude_gps_m": 213.1699981689453, "groundspeed_mps": 0.4388546347618103}, "flight": {"mode": "STABILIZE", "armed": false}, "ekf": {"attitude": {"roll": -0.032215964049100876, "pitch": -0.006867452058941126, "yaw": 3.0457098484039307}, "local_position": {"x": 0.7711300849914551, "y": -17.739015579223633, "z": -4.242468357086182}, "status": {"flags": 33599, "velocity_variance": 0.0774567499756813, "pos_horiz_variance": 0.04565555229783058, "pos_vert_variance": 0.041522007435560226}}, "errors": ["PreArm: Hardware safety switch", "PreArm: Internal errors 0x100000 l:66 flow_of_ctrl"]}
{"timestamp": "2025-12-28T10:29:42.868356Z", "telemetry": {"lat": 28.7530909, "lon": 77.1177061, "satellites": 9, "altitude_gps_m": 213.1599884033203, "groundspeed_mps": 0.3366689682006836}, "flight": {"mode": "STABILIZE", "armed": false}, "ekf": {"attitude": {"roll": -0.03443850949406624, "pitch": -0.007154968101531267, "yaw": 3.045785665512085}, "local_position": {"x": 0.7211179137229919, "y": -17.460189819335938, "z": -4.230066776275635}, "status": {"flags": 33599, "velocity_variance": 0.23908206820487976, "pos_horiz_variance": 0.03336194530129433, "pos_vert_variance": 0.02863219380378723}}, "errors": ["PreArm: Hardware safety switch", "PreArm: Internal errors 0x100000 l:66 flow_of_ctrl"]}
{"timestamp": "2025-12-28T10:29:43.867910Z", "telemetry": {"lat": 28.753092, "lon": 77.1177055, "satellites": 9, "altitude_gps_m": 213.1999969482422, "groundspeed_mps": 0.2969406545162201}, "flight": {"mode": "STABILIZE", "armed": false}, "ekf": {"attitude": {"roll": -0.03458859398961067, "pitch": -0.00658517936244607, "yaw": 3.0458462238311768}, "local_position": {"x": 0.6786523461341858, "y": -17.29534912109375, "z": -4.269845485687256}, "status": {"flags": 33599, "velocity_variance": 0.23094500601291656, "pos_horiz_variance": 0.032357633113861084, "pos_vert_variance": 0.0600806288421154}}, "errors": ["PreArm: Hardware safety switch", "PreArm: Internal errors 0x100000 l:66 flow_of_ctrl"]}
{"timestamp": "2025-12-28T10:29:44.867861Z", "telemetry": {"lat": 28.7530926, "lon": 77.1177021, "satellites": 9, "altitude_gps_m": 213.17999267578125, "groundspeed_mps": 0.22111879289150238}, "flight": {"mode": "STABILIZE", "armed": false}, "ekf": {"attitude": {"roll": -0.03448327258229256, "pitch": -0.005558008793741465, "yaw": 3.0459117889404297}, "local_position": {"x": 0.7959075570106506, "y": -17.345523834228516, "z": -4.249954700469971}, "status": {"flags": 33599, "velocity_variance": 0.18294821679592133, "pos_horiz_variance": 0.028085682541131973, "pos_vert_variance": 0.053100209683179855}}, "errors": ["PreArm: Hardware safety switch", "PreArm: Internal errors 0x100000 l:66 flow_of_ctrl"]}
{"timestamp": "2025-12-28T10:29:45.867812Z", "telemetry": {"lat": 28.7530918, "lon": 77.1177058, "satellites": 9, "altitude_gps_m": 213.14999389648438, "groundspeed_mps": 0.21152901649475098}, "flight": {"mode": "STABILIZE", "armed": false}, "ekf": {"attitude": {"roll": -0.03614671900868416, "pitch": -0.005744715686887503, "yaw": 3.04618501663208}, "local_position": {"x": 0.763335108757019, "y": -17.099193572998047, "z": -4.219167709350586}, "status": {"flags": 33599, "velocity_variance": 0.1937950998544693, "pos_horiz_variance": 0.027401186525821686, "pos_vert_variance": 0.07233244925737381}}, "errors": ["PreArm: Hardware safety switch", "PreArm: Internal errors 0x100000 l:66 flow_of_ctrl"]}
{"timestamp": "2025-12-28T10:29:46.872995Z", "telemetry": {"lat": 28.7530871, "lon": 77.1177032, "satellites": 9, "altitude_gps_m": 213.1199951171875, "groundspeed_mps": 0.2846693992614746}, "flight": {"mode": "STABILIZE", "armed": false}, "ekf": {"attitude": {"roll": -0.03613624349236488, "pitch": -0.006341312546283007, "yaw": 3.046375274658203}, "local_position": {"x": 0.4643794000148773, "y": -16.94186019897461, "z": -4.192672252655029}, "status": {"flags": 33599, "velocity_variance": 0.23195220530033112, "pos_horiz_variance": 0.01849512755870819, "pos_vert_variance": 0.0035365410149097443}}, "errors": ["PreArm: Hardware safety switch", "PreArm: Internal errors 0x100000 l:66 flow_of_ctrl"]}
{"timestamp": "2025-12-28T10:29:47.868920Z", "telemetry": {"lat": 28.7530897, "lon": 77.1176993, "satellites": 9, "altitude_gps_m": 213.12998962402344, "groundspeed_mps": 0.16897258162498474}, "flight": {"mode": "STABILIZE", "armed": false}, "ekf": {"attitude": {"roll": -0.03489157184958458, "pitch": -0.004921652842313051, "yaw": 3.0462992191314697}, "local_position": {"x": 0.6422085762023926, "y": -17.241168975830078, "z": -4.207129001617432}, "status": {"flags": 33599, "velocity_variance": 0.15195395052433014, "pos_horiz_variance": 0.02021517977118492, "pos_vert_variance": 0.08200261741876602}}, "errors": ["PreArm: Hardware safety switch", "PreArm: Internal errors 0x100000 l:66 flow_of_ctrl"]}
{"timestamp": "2025-12-28T10:29:48.868875Z", "telemetry": {"lat": 28.753089, "lon": 77.1176977, "satellites": 9, "altitude_gps_m": 213.0399932861328, "groundspeed_mps": 0.1382894366979599}, "flight": {"mode": "STABILIZE", "armed": false}, "ekf": {"attitude": {"roll": -0.03468858078122139, "pitch": -0.004527550656348467, "yaw": 3.0464096069335938}, "local_position": {"x": 0.6534979939460754, "y": -17.35284996032715, "z": -4.1188154220581055}, "status": {"flags": 33599, "velocity_variance": 0.33653438091278076, "pos_horiz_variance": 0.01846242882311344, "pos_vert_variance": 0.045279912650585175}}, "errors": ["PreArm: Hardware safety switch", "PreArm: Internal errors 0x100000 l:66 flow_of_ctrl"]}
{"timestamp": "2025-12-28T10:29:49.867914Z", "telemetry": {"lat": 28.7530842, "lon": 77.1177007, "satellites": 9, "altitude_gps_m": 213.11000061035156, "groundspeed_mps": 0.198637917637825}, "flight": {"mode": "STABILIZE", "armed": false}, "ekf": {"attitude": {"roll": -0.03579625114798546, "pitch": -0.00549889774993062, "yaw": 3.0466318130493164}, "local_position": {"x": 0.5261879563331604, "y": -17.079933166503906, "z": -4.1839752197265625}, "status": {"flags": 33599, "velocity_variance": 0.15042515099048615, "pos_horiz_variance": 0.009700760245323181, "pos_vert_variance": 0.005861104000359774}}, "errors": ["PreArm: Hardware safety switch", "PreArm: Internal errors 0x100000 l:66 flow_of_ctrl"]}
{"timestamp": "2025-12-28T10:29:50.868427Z", "telemetry": {"lat": 28.7530876, "lon": 77.1177037, "satellites": 9, "altitude_gps_m": 213.02999877929688, "groundspeed_mps": 0.20513872802257538}, "flight": {"mode": "STABILIZE", "armed": false}, "ekf": {"attitude": {"roll": -0.03589661046862602, "pitch": -0.0047461665235459805, "yaw": 3.0466434955596924}, "local_position": {"x": 0.49812209606170654, "y": -16.94567108154297, "z": -4.100129127502441}, "status": {"flags": 33599, "velocity_variance": 0.23017627000808716, "pos_horiz_variance": 0.01759938709437847, "pos_vert_variance": 0.07378241419792175}}, "errors": ["PreArm: Hardware safety switch", "PreArm: Internal errors 0x100000 l:66 flow_of_ctrl"]}
{"timestamp": "2025-12-28T10:29:51.867908Z", "telemetry": {"lat": 28.7530968, "lon": 77.1177153, "satellites": 10, "altitude_gps_m": 213.0399932861328, "groundspeed_mps": 0.3368188440799713}, "flight": {"mode": "STABILIZE", "armed": false}, "ekf": {"attitude": {"roll": -0.03812314197421074, "pitch": -0.002907244022935629, "yaw": 3.046689748764038}, "local_position": {"x": 1.100413203239441, "y": -16.2100887298584, "z": -4.1145453453063965}, "status": {"flags": 33599, "velocity_variance": 0.08988500386476517, "pos_horiz_variance": 0.030364518985152245, "pos_vert_variance": 0.060165006667375565}}, "errors": ["PreArm: Hardware safety switch", "PreArm: Internal errors 0x100000 l:66 flow_of_ctrl"]}
{"timestamp": "2025-12-28T10:29:52.867795Z", "telemetry": {"lat": 28.7530994, "lon": 77.1177146, "satellites": 10, "altitude_gps_m": 213.04998779296875, "groundspeed_mps": 0.3410244584083557}, "flight": {"mode": "STABILIZE", "armed": false}, "ekf": {"attitude": {"roll": -0.03708912059664726, "pitch": -0.002367387991398573, "yaw": 3.046653985977173}, "local_position": {"x": 1.4544248580932617, "y": -16.026023864746094, "z": -4.123528480529785}, "status": {"flags": 33599, "velocity_variance": 0.3072502017021179, "pos_horiz_variance": 0.027945643290877342, "pos_vert_variance": 0.038933321833610535}}, "errors": ["PreArm: Hardware safety switch", "PreArm: Internal errors 0x100000 l:66 flow_of_ctrl"]}
{"timestamp": "2025-12-28T10:29:53.867965Z", "telemetry": {"lat": 28.7530934, "lon": 77.1177096, "satellites": 10, "altitude_gps_m": 213.17999267578125, "groundspeed_mps": 0.2186354249715805}, "flight": {"mode": "STABILIZE", "armed": false}, "ekf": {"attitude": {"roll": -0.035081896930933, "pitch": -0.00347393611446023, "yaw": 3.0466692447662354}, "local_position": {"x": 1.4239799976348877, "y": -16.206073760986328, "z": -4.253688812255859}, "status": {"flags": 33599, "velocity_variance": 0.2915359437465668, "pos_horiz_variance": 0.013114603236317635, "pos_vert_variance": 0.01475641131401062}}, "errors": ["PreArm: Hardware safety switch", "PreArm: Internal errors 0x100000 l:66 flow_of_ctrl"]}
{"timestamp": "2025-12-28T10:29:54.868016Z", "telemetry": {"lat": 28.7530878, "lon": 77.1177052, "satellites": 10, "altitude_gps_m": 213.239990234375, "groundspeed_mps": 0.12929560244083405}, "flight": {"mode": "STABILIZE", "armed": false}, "ekf": {"attitude": {"roll": -0.03345553204417229, "pitch": -0.005016785580664873, "yaw": 3.046572685241699}, "local_position": {"x": 1.1280403137207031, "y": -16.406646728515625, "z": -4.320113182067871}, "status": {"flags": 33599, "velocity_variance": 0.22826288640499115, "pos_horiz_variance": 0.007415789179503918, "pos_vert_variance": 0.08625870198011398}}, "errors": ["PreArm: Hardware safety switch", "PreArm: Internal errors 0x100000 l:66 flow_of_ctrl"]}
{"timestamp": "2025-12-28T10:29:55.867946Z", "telemetry": {"lat": 28.7530847, "lon": 77.1177022, "satellites": 10, "altitude_gps_m": 213.3699951171875, "groundspeed_mps": 0.11933241784572601}, "flight": {"mode": "STABILIZE", "armed": false}, "ekf": {"attitude": {"roll": -0.031966742128133774, "pitch": -0.005869912449270487, "yaw": 3.0465035438537598}, "local_position": {"x": 0.8801483511924744, "y": -16.613222122192383, "z": -4.444125652313232}, "status": {"flags": 33599, "velocity_variance": 0.21229295432567596, "pos_horiz_variance": 0.007696205750107765, "pos_vert_variance": 0.04420939087867737}}, "errors": ["PreArm: Hardware safety switch", "PreArm: Internal errors 0x100000 l:66 flow_of_ctrl"]}
{"timestamp": "2025-12-28T10:29:56.867797Z", "telemetry": {"lat": 28.753078, "lon": 77.1176945, "satellites": 10, "altitude_gps_m": 213.4499969482422, "groundspeed_mps": 0.17028330266475677}, "flight": {"mode": "STABILIZE", "armed": false}, "ekf": {"attitude": {"roll": -0.03100750967860222, "pitch": -0.0066903275437653065, "yaw": 3.0465362071990967}, "local_position": {"x": 0.593112587928772, "y": -16.757810592651367, "z": -4.5204572677612305}, "status": {"flags": 33599, "velocity_variance": 0.3239452540874481, "pos_horiz_variance": 0.022054152563214302, "pos_vert_variance": 0.02968580089509487}}, "errors": ["PreArm: Hardware safety switch", "PreArm: Internal errors 0x100000 l:66 flow_of_ctrl"]}
{"timestamp": "2025-12-28T10:29:57.872574Z", "telemetry": {"lat": 28.7530697, "lon": 77.1176837, "satellites": 9, "altitude_gps_m": 213.3300018310547, "groundspeed_mps": 0.33742547035217285}, "flight": {"mode": "STABILIZE", "armed": false}, "ekf": {"attitude": {"roll": -0.028929654508829117, "pitch": -0.008090648800134659, "yaw": 3.046367883682251}, "local_position": {"x": -0.053178220987319946, "y": -17.407175064086914, "z": -4.401745796203613}, "status": {"flags": 33599, "velocity_variance": 0.27817121148109436, "pos_horiz_variance": 0.032521866261959076, "pos_vert_variance": 0.08044979721307755}}, "errors": ["PreArm: Hardware safety switch", "PreArm: Internal errors 0x100000 l:66 flow_of_ctrl"]}
{"timestamp": "2025-12-28T10:29:58.868530Z", "telemetry": {"lat": 28.7530705, "lon": 77.1176784, "satellites": 9, "altitude_gps_m": 213.26998901367188, "groundspeed_mps": 0.4189801812171936}, "flight": {"mode": "STABILIZE", "armed": false}, "ekf": {"attitude": {"roll": -0.027975741773843765, "pitch": -0.007716871332377195, "yaw": 3.0462865829467773}, "local_position": {"x": -0.39908766746520996, "y": -18.02829360961914, "z": -4.350908279418945}, "status": {"flags": 33599, "velocity_variance": 0.1911633312702179, "pos_horiz_variance": 0.028617501258850098, "pos_vert_variance": 0.034934401512145996}}, "errors": ["PreArm: Hardware safety switch", "PreArm: Internal errors 0x100000 l:66 flow_of_ctrl"]}
{"timestamp": "2025-12-28T10:29:59.868732Z", "telemetry": {"lat": 28.7530633, "lon": 77.1176728, "satellites": 9, "altitude_gps_m": 213.2899932861328, "groundspeed_mps": 0.47149458527565}, "flight": {"mode": "STABILIZE", "armed": false}, "ekf": {"attitude": {"roll": -0.027851980179548264, "pitch": -0.008159521967172623, "yaw": 3.046018123626709}, "local_position": {"x": -0.8031485080718994, "y": -18.42991065979004, "z": -4.36597204208374}, "status": {"flags": 33599, "velocity_variance": 0.39410537481307983, "pos_horiz_variance": 0.03378136083483696, "pos_vert_variance": 0.06890279799699783}}, "errors": ["PreArm: Hardware safety switch", "PreArm: Internal errors 0x100000 l:66 flow_of_ctrl"]}
{"timestamp": "2025-12-28T10:30:00.867844Z", "telemetry": {"lat": 28.7530624, "lon": 77.117666, "satellites": 9, "altitude_gps_m": 213.25, "groundspeed_mps": 0.5274099707603455}, "flight": {"mode": "STABILIZE", "armed": false}, "ekf": {"attitude": {"roll": -0.02727915719151497, "pitch": -0.0077635361813008785, "yaw": 3.0459601879119873}, "local_position": {"x": -1.1551992893218994, "y": -19.02275848388672, "z": -4.325759410858154}, "status": {"flags": 33599, "velocity_variance": 0.11074244976043701, "pos_horiz_variance": 0.03368706256151199, "pos_vert_variance": 0.055812470614910126}}, "errors": ["PreArm: Hardware safety switch", "PreArm: Internal errors 0x100000 l:66 flow_of_ctrl", "PreArm: Hardware safety switch", "PreArm: Internal errors 0x100000 l:66 flow_of_ctrl"]}
{"timestamp": "2025-12-28T10:30:01.868738Z", "telemetry": {"lat": 28.7530605, "lon": 77.117664, "satellites": 8, "altitude_gps_m": 213.20999145507812, "groundspeed_mps": 0.5188010931015015}, "flight": {"mode": "STABILIZE", "armed": false}, "ekf": {"attitude": {"roll": -0.028318602591753006, "pitch": -0.00718665448948741, "yaw": 3.04581880569458}, "local_position": {"x": -1.3746669292449951, "y": -19.424800872802734, "z": -4.305681228637695}, "status": {"flags": 33599, "velocity_variance": 0.07207122445106506, "pos_horiz_variance": 0.02937888726592064, "pos_vert_variance": 0.01881713606417179}}, "errors": ["PreArm: Hardware safety switch", "PreArm: Internal errors 0x100000 l:66 flow_of_ctrl", "PreArm: Hardware safety switch", "PreArm: Internal errors 0x100000 l:66 flow_of_ctrl"]}
{"timestamp": "2025-12-28T10:30:02.868436Z", "telemetry": {"lat": 28.7530619, "lon": 77.1176584, "satellites": 8, "altitude_gps_m": 213.13999938964844, "groundspeed_mps": 0.585701584815979}, "flight": {"mode": "STABILIZE", "armed": false}, "ekf": {"attitude": {"roll": -0.027407262474298477, "pitch": -0.007286792155355215, "yaw": 3.045563220977783}, "local_position": {"x": -1.7522436380386353, "y": -20.11724853515625, "z": -4.217475891113281}, "status": {"flags": 33599, "velocity_variance": 0.1540343314409256, "pos_horiz_variance": 0.02404692769050598, "pos_vert_variance": 0.016967253759503365}}, "errors": ["PreArm: Hardware safety switch", "PreArm: Internal errors 0x100000 l:66 flow_of_ctrl", "PreArm: Hardware safety switch", "PreArm: Internal errors 0x100000 l:66 flow_of_ctrl"]}
{"timestamp": "2025-12-28T10:30:03.868672Z", "telemetry": {"lat": 28.7530656, "lon": 77.117654, "satellites": 8, "altitude_gps_m": 213.19000244140625, "groundspeed_mps": 0.5844253897666931}, "flight": {"mode": "STABILIZE", "armed": false}, "ekf": {"attitude": {"roll": -0.02733289822936058, "pitch": -0.0059965685941278934, "yaw": 3.045564889907837}, "local_position": {"x": -1.7959190607070923, "y": -20.69936180114746, "z": -4.269709587097168}, "status": {"flags": 33599, "velocity_variance": 0.26800450682640076, "pos_horiz_variance": 0.02421475388109684, "pos_vert_variance": 0.026667524129152298}}, "errors": ["PreArm: Hardware safety switch", "PreArm: Internal errors 0x100000 l:66 flow_of_ctrl", "PreArm: Hardware safety switch", "PreArm: Internal errors 0x100000 l:66 flow_of_ctrl"]}
{"timestamp": "2025-12-28T10:30:04.868519Z", "telemetry": {"lat": 28.7530647, "lon": 77.1176523, "satellites": 8, "altitude_gps_m": 213.0699920654297, "groundspeed_mps": 0.615300714969635}, "flight": {"mode": "STABILIZE", "armed": false}, "ekf": {"attitude": {"roll": -0.028150063008069992, "pitch": -0.005718642380088568, "yaw": 3.045403242111206}, "local_position": {"x": -2.0334925651550293, "y": -21.3292236328125, "z": -4.1855854988098145}, "status": {"flags": 33599, "velocity_variance": 0.2668745517730713, "pos_horiz_variance": 0.019827397540211678, "pos_vert_variance": 0.008978472091257572}}, "errors": ["PreArm: Hardware safety switch", "PreArm: Internal errors 0x100000 l:66 flow_of_ctrl", "PreArm: Hardware safety switch", "PreArm: Internal errors 0x100000 l:66 flow_of_ctrl"]}
{"timestamp": "2025-12-28T10:30:05.868357Z", "telemetry": {"lat": 28.7530682, "lon": 77.1176496, "satellites": 9, "altitude_gps_m": 213.05999755859375, "groundspeed_mps": 0.5796878933906555}, "flight": {"mode": "STABILIZE", "armed": false}, "ekf": {"attitude": {"roll": -0.028698284178972244, "pitch": -0.004779097158461809, "yaw": 3.0454788208007812}, "local_position": {"x": -1.914177656173706, "y": -21.761014938354492, "z": -4.137165546417236}, "status": {"flags": 33599, "velocity_variance": 0.3432951867580414, "pos_horiz_variance": 0.022546295076608658, "pos_vert_variance": 0.06294846534729004}}, "errors": ["PreArm: Hardware safety switch", "PreArm: Internal errors 0x100000 l:66 flow_of_ctrl", "PreArm: Hardware safety switch", "PreArm: Internal errors 0x100000 l:66 flow_of_ctrl"]}
{"timestamp": "2025-12-28T10:30:06.868208Z", "telemetry": {"lat": 28.7530699, "lon": 77.1176435, "satellites": 9, "altitude_gps_m": 212.95999145507812, "groundspeed_mps": 0.49294164776802063}, "flight": {"mode": "STABILIZE", "armed": false}, "ekf": {"attitude": {"roll": -0.02974008396267891, "pitch": -0.0033352510072290897, "yaw": 3.0455822944641113}, "local_position": {"x": -1.5397127866744995, "y": -22.073137283325195, "z": -4.033442497253418}, "status": {"flags": 33599, "velocity_variance": 0.10933760553598404, "pos_horiz_variance": 0.02224712260067463, "pos_vert_variance": 0.06015313044190407}}, "errors": ["PreArm: Hardware safety switch", "PreArm: Internal errors 0x100000 l:66 flow_of_ctrl", "PreArm: Hardware safety switch", "PreArm: Internal errors 0x100000 l:66 flow_of_ctrl"]}
{"timestamp": "2025-12-28T10:30:07.872579Z", "telemetry": {"lat": 28.7530754, "lon": 77.1176448, "satellites": 8, "altitude_gps_m": 212.84999084472656, "groundspeed_mps": 0.40003517270088196}, "flight": {"mode": "STABILIZE", "armed": false}, "ekf": {"attitude": {"roll": -0.03182627633213997, "pitch": -0.0024522976018488407, "yaw": 3.045494556427002}, "local_position": {"x": -1.3630073070526123, "y": -22.41998291015625, "z": -3.920731782913208}, "status": {"flags": 33599, "velocity_variance": 0.3744811713695526, "pos_horiz_variance": 0.02780224196612835, "pos_vert_variance": 0.02498692460358143}}, "errors": ["PreArm: Hardware safety switch", "PreArm: Internal errors 0x100000 l:66 flow_of_ctrl", "PreArm: Hardware safety switch", "PreArm: Internal errors 0x100000 l:66 flow_of_ctrl"]}
{"timestamp": "2025-12-28T10:30:08.873720Z", "telemetry": {"lat": 28.7530775, "lon": 77.1176475, "satellites": 8, "altitude_gps_m": 212.79998779296875, "groundspeed_mps": 0.3043426275253296}, "flight": {"mode": "STABILIZE", "armed": false}, "ekf": {"attitude": {"roll": -0.03346722945570946, "pitch": -0.001982267014682293, "yaw": 3.045536994934082}, "local_position": {"x": -0.9999851584434509, "y": -22.338388442993164, "z": -3.870924472808838}, "status": {"flags": 33599, "velocity_variance": 0.2729819118976593, "pos_horiz_variance": 0.024161921814084053, "pos_vert_variance": 0.056064631789922714}}, "errors": ["PreArm: Hardware safety switch", "PreArm: Internal errors 0x100000 l:66 flow_of_ctrl", "PreArm: Hardware safety switch", "PreArm: Internal errors 0x100000 l:66 flow_of_ctrl"]}
{"timestamp": "2025-12-28T10:30:09.868273Z", "telemetry": {"lat": 28.7530794, "lon": 77.117646, "satellites": 8, "altitude_gps_m": 212.79998779296875, "groundspeed_mps": 0.25192078948020935}, "flight": {"mode": "STABILIZE", "armed": false}, "ekf": {"attitude": {"roll": -0.03416915610432625, "pitch": -0.0019877725280821323, "yaw": 3.0456807613372803}, "local_position": {"x": -0.711475670337677, "y": -22.415597915649414, "z": -3.876260757446289}, "status": {"flags": 33599, "velocity_variance": 0.2659725248813629, "pos_horiz_variance": 0.023252567276358604, "pos_vert_variance": 0.03057979792356491}}, "errors": ["PreArm: Hardware safety switch", "PreArm: Internal errors 0x100000 l:66 flow_of_ctrl", "PreArm: Hardware safety switch", "PreArm: Internal errors 0x100000 l:66 flow_of_ctrl"]}
{"timestamp": "2025-12-28T10:30:10.868298Z", "telemetry": {"lat": 28.7530839, "lon": 77.1176447, "satellites": 8, "altitude_gps_m": 212.76998901367188, "groundspeed_mps": 0.2455628514289856}, "flight": {"mode": "STABILIZE", "armed": false}, "ekf": {"attitude": {"roll": -0.034998197108507156, "pitch": -0.0015575638972222805, "yaw": 3.0459349155426025}, "local_position": {"x": -0.31396597623825073, "y": -22.46317481994629, "z": -3.8312017917633057}, "status": {"flags": 33599, "velocity_variance": 0.1148025393486023, "pos_horiz_variance": 0.025059444829821587, "pos_vert_variance": 0.03148851916193962}}, "errors": ["PreArm: Hardware safety switch", "PreArm: Internal errors 0x100000 l:66 flow_of_ctrl", "PreArm: Hardware safety switch", "PreArm: Internal errors 0x100000 l:66 flow_of_ctrl"]}
{"timestamp": "2025-12-28T10:30:11.868386Z", "telemetry": {"lat": 28.753088, "lon": 77.1176402, "satellites": 8, "altitude_gps_m": 212.7899932861328, "groundspeed_mps": 0.28681930899620056}, "flight": {"mode": "STABILIZE", "armed": false}, "ekf": {"attitude": {"roll": -0.03445811942219734, "pitch": -0.0015176348388195038, "yaw": 3.046018362045288}, "local_position": {"x": 0.003994643688201904, "y": -22.874555587768555, "z": -3.8662898540496826}, "status": {"flags": 33599, "velocity_variance": 0.4272659420967102, "pos_horiz_variance": 0.02730531059205532, "pos_vert_variance": 0.0014680882450193167}}, "errors": ["PreArm: Hardware safety switch", "PreArm: Internal errors 0x100000 l:66 flow_of_ctrl", "PreArm: Hardware safety switch", "PreArm: Internal errors 0x100000 l:66 flow_of_ctrl"]}
{"timestamp": "2025-12-28T10:30:12.868763Z", "telemetry": {"lat": 28.7530976, "lon": 77.1176442, "satellites": 8, "altitude_gps_m": 212.87998962402344, "groundspeed_mps": 0.3674272894859314}, "flight": {"mode": "STABILIZE", "armed": false}, "ekf": {"attitude": {"roll": -0.03557925298810005, "pitch": -0.00022254092618823051, "yaw": 3.0461113452911377}, "local_position": {"x": 0.8028034567832947, "y": -22.831090927124023, "z": -3.957014799118042}, "status": {"flags": 33599, "velocity_variance": 0.31512266397476196, "pos_horiz_variance": 0.031911514699459076, "pos_vert_variance": 0.03293820098042488}}, "errors": ["PreArm: Hardware safety switch", "PreArm: Internal errors 0x100000 l:66 flow_of_ctrl", "PreArm: Hardware safety switch", "PreArm: Internal errors 0x100000 l:66 flow_of_ctrl"]}
{"timestamp": "2025-12-28T10:30:13.868459Z", "telemetry": {"lat": 28.7530994, "lon": 77.1176474, "satellites": 8, "altitude_gps_m": 212.989990234375, "groundspeed_mps": 0.4533020257949829}, "flight": {"mode": "STABILIZE", "armed": false}, "ekf": {"attitude": {"roll": -0.037695784121751785, "pitch": 0.0002193809486925602, "yaw": 3.046586036682129}, "local_position": {"x": 1.55685555934906, "y": -22.4478816986084, "z": -4.068161964416504}, "status": {"flags": 33599, "velocity_variance": 0.14616578817367554, "pos_horiz_variance": 0.022661982104182243, "pos_vert_variance": 0.05303557962179184}}, "errors": ["PreArm: Hardware safety switch", "PreArm: Internal errors 0x100000 l:66 flow_of_ctrl", "PreArm: Hardware safety switch", "PreArm: Internal errors 0x100000 l:66 flow_of_ctrl"]}
{"timestamp": "2025-12-28T10:30:14.868600Z", "telemetry": {"lat": 28.7530928, "lon": 77.1176424, "satellites": 9, "altitude_gps_m": 213.02999877929688, "groundspeed_mps": 0.48883262276649475}, "flight": {"mode": "STABILIZE", "armed": false}, "ekf": {"attitude": {"roll": -0.03774431720376015, "pitch": -0.0005510207265615463, "yaw": 3.046736240386963}, "local_position": {"x": 2.0254359245300293, "y": -22.249881744384766, "z": -4.107831954956055}, "status": {"flags": 33599, "velocity_variance": 0.31461092829704285, "pos_horiz_variance": 0.0074638137593865395, "pos_vert_variance": 0.005332015920430422}}, "errors": ["PreArm: Hardware safety switch", "PreArm: Internal errors 0x100000 l:66 flow_of_ctrl", "PreArm: Hardware safety switch", "PreArm: Internal errors 0x100000 l:66 flow_of_ctrl"]}
{"timestamp": "2025-12-28T10:30:15.868091Z", "telemetry": {"lat": 28.753092, "lon": 77.1176423, "satellites": 9, "altitude_gps_m": 213.04998779296875, "groundspeed_mps": 0.5053133368492126}, "flight": {"mode": "STABILIZE", "armed": false}, "ekf": {"attitude": {"roll": -0.03858451917767525, "pitch": -0.0007880157791078091, "yaw": 3.0469086170196533}, "local_position": {"x": 2.300043821334839, "y": -22.087135314941406, "z": -4.122554302215576}, "status": {"flags": 33599, "velocity_variance": 0.2053469717502594, "pos_horiz_variance": 0.013551780954003334, "pos_vert_variance": 0.025108538568019867}}, "errors": ["PreArm: Hardware safety switch", "PreArm: Internal errors 0x100000 l:66 flow_of_ctrl", "PreArm: Hardware safety switch", "PreArm: Internal errors 0x100000 l:66 flow_of_ctrl"]}
{"timestamp": "2025-12-28T10:30:16.868279Z", "telemetry": {"lat": 28.7530913, "lon": 77.1176369, "satellites": 9, "altitude_gps_m": 213.1199951171875, "groundspeed_mps": 0.4080883264541626}, "flight": {"mode": "STABILIZE", "armed": false}, "ekf": {"attitude": {"roll": -0.03648355230689049, "pitch": -0.003076207358390093, "yaw": 3.0472378730773926}, "local_position": {"x": 2.2644920349121094, "y": -22.311365127563477, "z": -4.194438934326172}, "status": {"flags": 33599, "velocity_variance": 0.33776625990867615, "pos_horiz_variance": 0.018670929595828056, "pos_vert_variance": 0.022090356796979904}}, "errors": ["PreArm: Hardware safety switch", "PreArm: Internal errors 0x100000 l:66 flow_of_ctrl", "PreArm: Hardware safety switch", "PreArm: Internal errors 0x100000 l:66 flow_of_ctrl"]}
{"timestamp": "2025-12-28T10:30:17.868112Z", "telemetry": {"lat": 28.7530854, "lon": 77.1176314, "satellites": 9, "altitude_gps_m": 213.19000244140625, "groundspeed_mps": 0.23662377893924713}, "flight": {"mode": "STABILIZE", "armed": false}, "ekf": {"attitude": {"roll": -0.035871636122465134, "pitch": -0.0045186481438577175, "yaw": 3.0473744869232178}, "local_position": {"x": 1.9273241758346558, "y": -22.73860740661621, "z": -4.266816139221191}, "status": {"flags": 33599, "velocity_variance": 0.13494868576526642, "pos_horiz_variance": 0.02564670518040657, "pos_vert_variance": 0.03140060603618622}}, "errors": ["PreArm: Hardware safety switch", "PreArm: Internal errors 0x100000 l:66 flow_of_ctrl", "PreArm: Hardware safety switch", "PreArm: Internal errors 0x100000 l:66 flow_of_ctrl"]}
{"timestamp": "2025-12-28T10:30:18.872268Z", "telemetry": {"lat": 28.7530845, "lon": 77.1176228, "satellites": 9, "altitude_gps_m": 213.1699981689453, "groundspeed_mps": 0.12738704681396484}, "flight": {"mode": "STABILIZE", "armed": false}, "ekf": {"attitude": {"roll": -0.03369559720158577, "pitch": -0.005696734879165888, "yaw": 3.0473713874816895}, "local_position": {"x": 1.631180763244629, "y": -23.427003860473633, "z": -4.247526168823242}, "status": {"flags": 33599, "velocity_variance": 0.2222096174955368, "pos_horiz_variance": 0.026903683319687843, "pos_vert_variance": 0.008122125640511513}}, "errors": ["PreArm: Hardware safety switch", "PreArm: Internal errors 0x100000 l:66 flow_of_ctrl", "PreArm: Hardware safety switch", "PreArm: Internal errors 0x100000 l:66 flow_of_ctrl"]}
{"timestamp": "2025-12-28T10:30:19.868298Z", "telemetry": {"lat": 28.7530795, "lon": 77.1176129, "satellites": 9, "altitude_gps_m": 213.1699981689453, "groundspeed_mps": 0.22997920215129852}, "flight": {"mode": "STABILIZE", "armed": false}, "ekf": {"attitude": {"roll": -0.03110102191567421, "pitch": -0.007197886239737272, "yaw": 3.0474071502685547}, "local_position": {"x": 1.2992675304412842, "y": -24.32219123840332, "z": -4.247159481048584}, "status": {"flags": 33599, "velocity_variance": 0.27031245827674866, "pos_horiz_variance": 0.03201352432370186, "pos_vert_variance": 0.018732134252786636}}, "errors": ["PreArm: Hardware safety switch", "PreArm: Internal errors 0x100000 l:66 flow_of_ctrl", "PreArm: Hardware safety switch", "PreArm: Internal errors 0x100000 l:66 flow_of_ctrl"]}
{"timestamp": "2025-12-28T10:30:20.868285Z", "telemetry": {"lat": 28.753072, "lon": 77.1176036, "satellites": 9, "altitude_gps_m": 213.22999572753906, "groundspeed_mps": 0.404086172580719}, "flight": {"mode": "STABILIZE", "armed": false}, "ekf": {"attitude": {"roll": -0.02974465861916542, "pitch": -0.00876188836991787, "yaw": 3.04732608795166}, "local_position": {"x": 0.7404558658599854, "y": -25.240325927734375, "z": -4.300623416900635}, "status": {"flags": 33599, "velocity_variance": 0.23335793614387512, "pos_horiz_variance": 0.0359259732067585, "pos_vert_variance": 0.08379420638084412}}, "errors": ["PreArm: Hardware safety switch", "PreArm: Internal errors 0x100000 l:66 flow_of_ctrl", "PreArm: Hardware safety switch", "PreArm: Internal errors 0x100000 l:66 flow_of_ctrl"]}
{"timestamp": "2025-12-28T10:30:21.868665Z", "telemetry": {"lat": 28.7530696, "lon": 77.1175984, "satellites": 9, "altitude_gps_m": 213.17999267578125, "groundspeed_mps": 0.5689820051193237}, "flight": {"mode": "STABILIZE", "armed": false}, "ekf": {"attitude": {"roll": -0.028949689120054245, "pitch": -0.010152781382203102, "yaw": 3.047337055206299}, "local_position": {"x": -0.027344852685928345, "y": -26.065479278564453, "z": -4.2571024894714355}, "status": {"flags": 33599, "velocity_variance": 0.19142775237560272, "pos_horiz_variance": 0.025829903781414032, "pos_vert_variance": 0.011964868754148483}}, "errors": ["PreArm: Hardware safety switch", "PreArm: Internal errors 0x100000 l:66 flow_of_ctrl", "PreArm: Hardware safety switch", "PreArm: Internal errors 0x100000 l:66 flow_of_ctrl"]}
{"timestamp": "2025-12-28T10:30:22.868328Z", "telemetry": {"lat": 28.7530677, "lon": 77.1175981, "satellites": 9, "altitude_gps_m": 213.1699981689453, "groundspeed_mps": 0.5819509029388428}, "flight": {"mode": "STABILIZE", "armed": false}, "ekf": {"attitude": {"roll": -0.02966165915131569, "pitch": -0.010379597544670105, "yaw": 3.0471508502960205}, "local_position": {"x": -0.4030621349811554, "y": -26.488988876342773, "z": -4.242915153503418}, "status": {"flags": 33599, "velocity_variance": 0.13778552412986755, "pos_horiz_variance": 0.01830558478832245, "pos_vert_variance": 0.08041037619113922}}, "errors": ["PreArm: Hardware safety switch", "PreArm: Internal errors 0x100000 l:66 flow_of_ctrl", "PreArm: Hardware safety switch", "PreArm: Internal errors 0x100000 l:66 flow_of_ctrl"]}
{"timestamp": "2025-12-28T10:30:23.868534Z", "telemetry": {"lat": 28.7530705, "lon": 77.1175978, "satellites": 9, "altitude_gps_m": 213.1599884033203, "groundspeed_mps": 0.5976417660713196}, "flight": {"mode": "STABILIZE", "armed": false}, "ekf": {"attitude": {"roll": -0.029958117753267288, "pitch": -0.010087186470627785, "yaw": 3.0471904277801514}, "local_position": {"x": -0.725147008895874, "y": -26.919893264770508, "z": -4.2323994636535645}, "status": {"flags": 33599, "velocity_variance": 0.4000137150287628, "pos_horiz_variance": 0.0056332992389798164, "pos_vert_variance": 0.05730384588241577}}, "errors": ["PreArm: Hardware safety switch", "PreArm: Internal errors 0x100000 l:66 flow_of_ctrl", "PreArm: Hardware safety switch", "PreArm: Internal errors 0x100000 l:66 flow_of_ctrl"]}
{"timestamp": "2025-12-28T10:30:24.868154Z", "telemetry": {"lat": 28.7530775, "lon": 77.1175995, "satellites": 9, "altitude_gps_m": 213.1599884033203, "groundspeed_mps": 0.5165616273880005}, "flight": {"mode": "STABILIZE", "armed": false}, "ekf": {"attitude": {"roll": -0.030992809683084488, "pitch": -0.00888039730489254, "yaw": 3.047136068344116}, "local_position": {"x": -0.6683608293533325, "y": -27.15230941772461, "z": -4.2338995933532715}, "status": {"flags": 33599, "velocity_variance": 0.22655688226222992, "pos_horiz_variance": 0.015316663309931755, "pos_vert_variance": 0.13739922642707825}}, "errors": ["PreArm: Hardware safety switch", "PreArm: Internal errors 0x100000 l:66 flow_of_ctrl", "PreArm: Hardware safety switch", "PreArm: Internal errors 0x100000 l:66 flow_of_ctrl"]}
{"timestamp": "2025-12-28T10:30:25.868329Z", "telemetry": {"lat": 28.7530817, "lon": 77.1176011, "satellites": 10, "altitude_gps_m": 213.1699981689453, "groundspeed_mps": 0.4125096797943115}, "flight": {"mode": "STABILIZE", "armed": false}, "ekf": {"attitude": {"roll": -0.03192384913563728, "pitch": -0.007701685186475515, "yaw": 3.0471746921539307}, "local_position": {"x": -0.45247703790664673, "y": -27.25681495666504, "z": -4.239445209503174}, "status": {"flags": 33599, "velocity_variance": 0.3057209253311157, "pos_horiz_variance": 0.02268153615295887, "pos_vert_variance": 0.05283002927899361}}, "errors": ["PreArm: Hardware safety switch", "PreArm: Internal errors 0x100000 l:66 flow_of_ctrl", "PreArm: Hardware safety switch", "PreArm: Internal errors 0x100000 l:66 flow_of_ctrl"]}
{"timestamp": "2025-12-28T10:30:26.867927Z", "telemetry": {"lat": 28.7530879, "lon": 77.1176, "satellites": 9, "altitude_gps_m": 213.05999755859375, "groundspeed_mps": 0.28596627712249756}, "flight": {"mode": "STABILIZE", "armed": false}, "ekf": {"attitude": {"roll": -0.033037859946489334, "pitch": -0.005843763705343008, "yaw": 3.0471367835998535}, "local_position": {"x": -0.01524999737739563, "y": -27.30130386352539, "z": -4.13848352432251}, "status": {"flags": 33599, "velocity_variance": 0.23846940696239471, "pos_horiz_variance": 0.027709059417247772, "pos_vert_variance": 0.0958549976348877}}, "errors": ["PreArm: Hardware safety switch", "PreArm: Internal errors 0x100000 l:66 flow_of_ctrl", "PreArm: Hardware safety switch", "PreArm: Internal errors 0x100000 l:66 flow_of_ctrl"]}
{"timestamp": "2025-12-28T10:30:27.868878Z", "telemetry": {"lat": 28.7530946, "lon": 77.1176026, "satellites": 8, "altitude_gps_m": 213.05999755859375, "groundspeed_mps": 0.2259431928396225}, "flight": {"mode": "STABILIZE", "armed": false}, "ekf": {"attitude": {"roll": -0.03391537442803383, "pitch": -0.00392931466922164, "yaw": 3.0471267700195312}, "local_position": {"x": 0.6089702844619751, "y": -27.40868377685547, "z": -4.13154411315918}, "status": {"flags": 33599, "velocity_variance": 0.321443110704422, "pos_horiz_variance": 0.03300567716360092, "pos_vert_variance": 0.03003763221204281}}, "errors": ["PreArm: Hardware safety switch", "PreArm: Internal errors 0x100000 l:66 flow_of_ctrl", "PreArm: Hardware safety switch", "PreArm: Internal errors 0x100000 l:66 flow_of_ctrl"]}
{"timestamp": "2025-12-28T10:30:28.868018Z", "telemetry": {"lat": 28.7530994, "lon": 77.1176099, "satellites": 8, "altitude_gps_m": 213.08999633789062, "groundspeed_mps": 0.17656952142715454}, "flight": {"mode": "STABILIZE", "armed": false}, "ekf": {"attitude": {"roll": -0.036022115498781204, "pitch": -0.0028363377787172794, "yaw": 3.0470590591430664}, "local_position": {"x": 1.2522528171539307, "y": -26.97927474975586, "z": -4.16443395614624}, "status": {"flags": 33599, "velocity_variance": 0.36294054985046387, "pos_horiz_variance": 0.03520675003528595, "pos_vert_variance": 0.027030060067772865}}, "errors": ["PreArm: Hardware safety switch", "PreArm: Internal errors 0x100000 l:66 flow_of_ctrl", "PreArm: Hardware safety switch", "PreArm: Internal errors 0x100000 l:66 flow_of_ctrl"]}
{"timestamp": "2025-12-28T10:30:29.872098Z", "telemetry": {"lat": 28.7531039, "lon": 77.1176154, "satellites": 8, "altitude_gps_m": 213.12998962402344, "groundspeed_mps": 0.35661205649375916}, "flight": {"mode": "STABILIZE", "armed": false}, "ekf": {"attitude": {"roll": -0.03785708174109459, "pitch": -0.0018059615977108479, "yaw": 3.0473363399505615}, "local_position": {"x": 1.9963711500167847, "y": -26.35873794555664, "z": -4.187236309051514}, "status": {"flags": 33599, "velocity_variance": 0.11882738023996353, "pos_horiz_variance": 0.031405262649059296, "pos_vert_variance": 0.03991810604929924}}, "errors": ["PreArm: Hardware safety switch", "PreArm: Internal errors 0x100000 l:66 flow_of_ctrl", "PreArm: Hardware safety switch", "PreArm: Internal errors 0x100000 l:66 flow_of_ctrl"]}
