{"timestamp": "2026-01-07T15:45:55.397055Z", "telemetry": {"lat": 0.0, "lon": 0.0, "satellites": 0, "altitude_gps_m": 0.7400000095367432, "groundspeed_mps": 0.05709203705191612}, "flight": {"mode": null, "armed": null}, "ekf": {"attitude": {"roll": 0.06276550143957138, "pitch": -0.01968582533299923, "yaw": -3.1252574920654297}, "local_position": {"x": null, "y": null, "z": null}, "status": {"flags": 135, "velocity_variance": 0.0, "pos_horiz_variance": 0.014267629012465477, "pos_vert_variance": 0.22392506897449493}}, "errors": []}
{"timestamp": "2026-01-07T15:45:56.399424Z", "telemetry": {"lat": 6.9228653, "lon": 26.1263911, "satellites": 0, "altitude_gps_m": 0.7400000095367432, "groundspeed_mps": 0.05272304639220238}, "flight": {"mode": "STABILIZE", "armed": false}, "ekf": {"attitude": {"roll": 0.06174224242568016, "pitch": -0.018706966191530228, "yaw": -3.1246604919433594}, "local_position": {"x": null, "y": null, "z": null}, "status": {"flags": 135, "velocity_variance": 0.0, "pos_horiz_variance": 0.013758658431470394, "pos_vert_variance": 0.23827283084392548}}, "errors": []}
{"timestamp": "2026-01-07T15:45:57.397112Z", "telemetry": {"lat": 6.9295967, "lon": 26.1283179, "satellites": 0, "altitude_gps_m": 0.7400000095367432, "groundspeed_mps": 0.05361337959766388}, "flight": {"mode": "STABILIZE", "armed": false}, "ekf": {"attitude": {"roll": 0.06270793825387955, "pitch": -0.019939549267292023, "yaw": -3.1249215602874756}, "local_position": {"x": null, "y": null, "z": null}, "status": {"flags": 135, "velocity_variance": 0.0, "pos_horiz_variance": 0.013428955338895321, "pos_vert_variance": 0.013828329741954803}}, "errors": []}
{"timestamp": "2026-01-07T15:45:58.397155Z", "telemetry": {"lat": 6.9363279, "lon": 26.1302449, "satellites": 0, "altitude_gps_m": 0.7400000095367432, "groundspeed_mps": 0.05118580907583237}, "flight": {"mode": "STABILIZE", "armed": false}, "ekf": {"attitude": {"roll": 0.0627882182598114, "pitch": -0.020016852766275406, "yaw": -3.124885320663452}, "local_position": {"x": null, "y": null, "z": null}, "status": {"flags": 135, "velocity_variance": 0.0, "pos_horiz_variance": 0.013071169145405293, "pos_vert_variance": 0.16929058730602264}}, "errors": []}
{"timestamp": "2026-01-07T15:45:59.397415Z", "telemetry": {"lat": 6.9417127, "lon": 26.1317866, "satellites": 0, "altitude_gps_m": 0.7400000095367432, "groundspeed_mps": 0.05221526697278023}, "flight": {"mode": "STABILIZE", "armed": false}, "ekf": {"attitude": {"roll": 0.0626857653260231, "pitch": -0.020100187510252, "yaw": -3.124817132949829}, "local_position": {"x": null, "y": null, "z": null}, "status": {"flags": 135, "velocity_variance": 0.0, "pos_horiz_variance": 0.012758292257785797, "pos_vert_variance": 0.10358381271362305}}, "errors": []}
{"timestamp": "2026-01-07T15:46:00.397453Z", "telemetry": {"lat": 6.9497899, "lon": 26.1340992, "satellites": 0, "altitude_gps_m": 0.7400000095367432, "groundspeed_mps": 0.056590039283037186}, "flight": {"mode": "STABILIZE", "armed": false}, "ekf": {"attitude": {"roll": 0.06257366389036179, "pitch": -0.020032715052366257, "yaw": -3.124699354171753}, "local_position": {"x": null, "y": null, "z": null}, "status": {"flags": 135, "velocity_variance": 0.0, "pos_horiz_variance": 0.013051241636276245, "pos_vert_variance": 0.003481954103335738}}, "errors": []}
{"timestamp": "2026-01-07T15:46:01.397541Z", "telemetry": {"lat": 6.9565207, "lon": 26.1360265, "satellites": 0, "altitude_gps_m": 0.7400000095367432, "groundspeed_mps": 0.056521713733673096}, "flight": {"mode": "STABILIZE", "armed": false}, "ekf": {"attitude": {"roll": 0.06254912912845612, "pitch": -0.020026924088597298, "yaw": -3.124640464782715}, "local_position": {"x": null, "y": null, "z": null}, "status": {"flags": 135, "velocity_variance": 0.0, "pos_horiz_variance": 0.013464580290019512, "pos_vert_variance": 0.09239207953214645}}, "errors": []}
{"timestamp": "2026-01-07T15:46:02.397708Z", "telemetry": {"lat": 7.587881, "lon": 25.820263, "satellites": 0, "altitude_gps_m": 0.7400000095367432, "groundspeed_mps": 0.05448925122618675}, "flight": {"mode": "STABILIZE", "armed": false}, "ekf": {"attitude": {"roll": 0.06264911592006683, "pitch": -0.02011444792151451, "yaw": -3.124608039855957}, "local_position": {"x": null, "y": null, "z": null}, "status": {"flags": 135, "velocity_variance": 0.0, "pos_horiz_variance": 0.013496975414454937, "pos_vert_variance": 0.2553391754627228}}, "errors": []}
{"timestamp": "2026-01-07T15:46:03.397642Z", "telemetry": {"lat": 7.7585687, "lon": 25.7413363, "satellites": 0, "altitude_gps_m": 0.7400000095367432, "groundspeed_mps": 0.057475946843624115}, "flight": {"mode": "STABILIZE", "armed": false}, "ekf": {"attitude": {"roll": 0.06256074458360672, "pitch": -0.020117195323109627, "yaw": -3.124687671661377}, "local_position": {"x": null, "y": null, "z": null}, "status": {"flags": 135, "velocity_variance": 0.0, "pos_horiz_variance": 0.013524959795176983, "pos_vert_variance": 0.1451641470193863}}, "errors": []}
{"timestamp": "2026-01-07T15:46:04.396794Z", "telemetry": {"lat": 7.7652896, "lon": 25.7432759, "satellites": 0, "altitude_gps_m": 0.7400000095367432, "groundspeed_mps": 0.05631871148943901}, "flight": {"mode": "STABILIZE", "armed": false}, "ekf": {"attitude": {"roll": 0.062365271151065826, "pitch": -0.01951908878982067, "yaw": -3.1244754791259766}, "local_position": {"x": null, "y": null, "z": null}, "status": {"flags": 135, "velocity_variance": 0.0, "pos_horiz_variance": 0.013748652301728725, "pos_vert_variance": 0.027216851711273193}}, "errors": []}
{"timestamp": "2026-01-07T15:46:05.398503Z", "telemetry": {"lat": 6.9834427, "lon": 26.1437372, "satellites": 0, "altitude_gps_m": 0.7400000095367432, "groundspeed_mps": 0.05840902030467987}, "flight": {"mode": "STABILIZE", "armed": false}, "ekf": {"attitude": {"roll": 0.06300070881843567, "pitch": -0.020969485864043236, "yaw": -3.124546527862549}, "local_position": {"x": null, "y": null, "z": null}, "status": {"flags": 135, "velocity_variance": 0.0, "pos_horiz_variance": 0.01379189919680357, "pos_vert_variance": 0.09628722816705704}}, "errors": []}
{"timestamp": "2026-01-07T15:46:06.397145Z", "telemetry": {"lat": 7.6174612, "lon": 25.8287871, "satellites": 0, "altitude_gps_m": 0.7400000095367432, "groundspeed_mps": 0.05307978391647339}, "flight": {"mode": "STABILIZE", "armed": false}, "ekf": {"attitude": {"roll": 0.0633978396654129, "pitch": -0.01928030326962471, "yaw": -3.1249659061431885}, "local_position": {"x": null, "y": null, "z": null}, "status": {"flags": 135, "velocity_variance": 0.0, "pos_horiz_variance": 0.013772585429251194, "pos_vert_variance": 0.20089982450008392}}, "errors": []}
{"timestamp": "2026-01-07T15:46:07.397567Z", "telemetry": {"lat": 6.996903, "lon": 26.1475933, "satellites": 0, "altitude_gps_m": 0.7400000095367432, "groundspeed_mps": 0.04749993234872818}, "flight": {"mode": "STABILIZE", "armed": false}, "ekf": {"attitude": {"roll": 0.0627952367067337, "pitch": -0.019266167655587196, "yaw": -3.124755620956421}, "local_position": {"x": null, "y": null, "z": null}, "status": {"flags": 135, "velocity_variance": 0.0, "pos_horiz_variance": 0.01299436204135418, "pos_vert_variance": 0.02621789090335369}}, "errors": []}
{"timestamp": "2026-01-07T15:46:08.402327Z", "telemetry": {"lat": 6.2576401, "lon": 26.5251107, "satellites": 0, "altitude_gps_m": 0.7400000095367432, "groundspeed_mps": 0.060003940016031265}, "flight": {"mode": "STABILIZE", "armed": false}, "ekf": {"attitude": {"roll": 0.060948051512241364, "pitch": -0.016264434903860092, "yaw": -3.1227056980133057}, "local_position": {"x": null, "y": null, "z": null}, "status": {"flags": 135, "velocity_variance": 0.0, "pos_horiz_variance": 0.012236152775585651, "pos_vert_variance": 0.10076424479484558}}, "errors": []}
{"timestamp": "2026-01-07T15:46:09.398434Z", "telemetry": {"lat": 6.2643787, "lon": 26.5270266, "satellites": 0, "altitude_gps_m": 0.7400000095367432, "groundspeed_mps": 0.04892891272902489}, "flight": {"mode": "STABILIZE", "armed": false}, "ekf": {"attitude": {"roll": 0.061256058514118195, "pitch": -0.016746386885643005, "yaw": -3.122882127761841}, "local_position": {"x": null, "y": null, "z": null}, "status": {"flags": 135, "velocity_variance": 0.0, "pos_horiz_variance": 0.01249460969120264, "pos_vert_variance": 0.31216391921043396}}, "errors": []}
{"timestamp": "2026-01-07T15:46:10.397138Z", "telemetry": {"lat": 7.0170923, "lon": 26.1533784, "satellites": 0, "altitude_gps_m": 0.7400000095367432, "groundspeed_mps": 0.05514415726065636}, "flight": {"mode": "STABILIZE", "armed": false}, "ekf": {"attitude": {"roll": 0.061346545815467834, "pitch": -0.01690240390598774, "yaw": -3.123072385787964}, "local_position": {"x": null, "y": null, "z": null}, "status": {"flags": 135, "velocity_variance": 0.0, "pos_horiz_variance": 0.012666081078350544, "pos_vert_variance": 0.017790548503398895}}, "errors": []}
{"timestamp": "2026-01-07T15:46:11.397359Z", "telemetry": {"lat": 8.4336049, "lon": 25.4417282, "satellites": 0, "altitude_gps_m": 0.7400000095367432, "groundspeed_mps": 0.058730971068143845}, "flight": {"mode": "STABILIZE", "armed": false}, "ekf": {"attitude": {"roll": 0.06150465086102486, "pitch": -0.01684236340224743, "yaw": -3.122823715209961}, "local_position": {"x": null, "y": null, "z": null}, "status": {"flags": 135, "velocity_variance": 0.0, "pos_horiz_variance": 0.013524278067052364, "pos_vert_variance": 0.02827385440468788}}, "errors": []}
{"timestamp": "2026-01-07T15:46:12.397423Z", "telemetry": {"lat": 8.0003771, "lon": 25.6669382, "satellites": 0, "altitude_gps_m": 0.7400000095367432, "groundspeed_mps": 0.8502249121665955}, "flight": {"mode": "STABILIZE", "armed": false}, "ekf": {"attitude": {"roll": -0.0537671260535717, "pitch": -0.07279428839683533, "yaw": -3.017544984817505}, "local_position": {"x": null, "y": null, "z": null}, "status": {"flags": 135, "velocity_variance": 0.0, "pos_horiz_variance": 0.04269891604781151, "pos_vert_variance": 0.16532272100448608}}, "errors": []}
{"timestamp": "2026-01-07T15:46:13.397577Z", "telemetry": {"lat": 8.445693, "lon": 25.4452391, "satellites": 0, "altitude_gps_m": 0.7400000095367432, "groundspeed_mps": 0.7807161211967468}, "flight": {"mode": "STABILIZE", "armed": false}, "ekf": {"attitude": {"roll": 0.06963228434324265, "pitch": 0.057438112795352936, "yaw": -2.2344260215759277}, "local_position": {"x": null, "y": null, "z": null}, "status": {"flags": 135, "velocity_variance": 0.0, "pos_horiz_variance": 0.16569620370864868, "pos_vert_variance": 0.20550376176834106}}, "errors": ["PreArm: Hardware safety switch"]}
{"timestamp": "2026-01-07T15:46:14.397581Z", "telemetry": {"lat": 9.0379458, "lon": 25.1491491, "satellites": 0, "altitude_gps_m": 0.7400000095367432, "groundspeed_mps": 0.8833215236663818}, "flight": {"mode": "STABILIZE", "armed": false}, "ekf": {"attitude": {"roll": 0.15820035338401794, "pitch": 0.032301533967256546, "yaw": -2.4178214073181152}, "local_position": {"x": null, "y": null, "z": null}, "status": {"flags": 135, "velocity_variance": 0.0, "pos_horiz_variance": 0.1208101287484169, "pos_vert_variance": 0.24069960415363312}}, "errors": ["PreArm: Hardware safety switch"]}
{"timestamp": "2026-01-07T15:46:15.397523Z", "telemetry": {"lat": 10.793944, "lon": 24.2549871, "satellites": 0, "altitude_gps_m": 0.7400000095367432, "groundspeed_mps": 0.1966286301612854}, "flight": {"mode": "STABILIZE", "armed": false}, "ekf": {"attitude": {"roll": 0.0076438188552856445, "pitch": -0.05157208815217018, "yaw": -2.0556302070617676}, "local_position": {"x": null, "y": null, "z": null}, "status": {"flags": 135, "velocity_variance": 0.0, "pos_horiz_variance": 0.10995149612426758, "pos_vert_variance": 0.05817529186606407}}, "errors": ["PreArm: Hardware safety switch"]}
{"timestamp": "2026-01-07T15:46:16.396929Z", "telemetry": {"lat": 8.4671698, "lon": 25.4514785, "satellites": 0, "altitude_gps_m": 0.7400000095367432, "groundspeed_mps": 0.6095719337463379}, "flight": {"mode": "STABILIZE", "armed": false}, "ekf": {"attitude": {"roll": 0.1225651204586029, "pitch": -0.048231277614831924, "yaw": -1.3349862098693848}, "local_position": {"x": null, "y": null, "z": null}, "status": {"flags": 135, "velocity_variance": 0.0, "pos_horiz_variance": 0.08516690880060196, "pos_vert_variance": 0.45361512899398804}}, "errors": ["PreArm: Hardware safety switch"]}
{"timestamp": "2026-01-07T15:46:17.397702Z", "telemetry": {"lat": 6.1191351, "lon": 26.6402743, "satellites": 0, "altitude_gps_m": 0.7400000095367432, "groundspeed_mps": 0.5539202690124512}, "flight": {"mode": "STABILIZE", "armed": false}, "ekf": {"attitude": {"roll": 0.05236995220184326, "pitch": 0.06811133772134781, "yaw": -1.2593462467193604}, "local_position": {"x": null, "y": null, "z": null}, "status": {"flags": 135, "velocity_variance": 0.0, "pos_horiz_variance": 0.08839787542819977, "pos_vert_variance": 0.32995614409446716}}, "errors": ["PreArm: Hardware safety switch"]}
{"timestamp": "2026-01-07T15:46:18.396804Z", "telemetry": {"lat": 0.4501417, "lon": 29.4696315, "satellites": 0, "altitude_gps_m": 0.7400000095367432, "groundspeed_mps": 0.7370485067367554}, "flight": {"mode": "STABILIZE", "armed": false}, "ekf": {"attitude": {"roll": 0.14207273721694946, "pitch": -0.017983339726924896, "yaw": -1.4818522930145264}, "local_position": {"x": null, "y": null, "z": null}, "status": {"flags": 135, "velocity_variance": 0.0, "pos_horiz_variance": 0.10116616636514664, "pos_vert_variance": 0.08265011012554169}}, "errors": ["PreArm: Hardware safety switch"]}
{"timestamp": "2026-01-07T15:46:19.401980Z", "telemetry": {"lat": -1.771321, "lon": 30.5761689, "satellites": 0, "altitude_gps_m": 0.7400000095367432, "groundspeed_mps": 1.0250436067581177}, "flight": {"mode": "STABILIZE", "armed": false}, "ekf": {"attitude": {"roll": 0.10274285078048706, "pitch": -0.1468358039855957, "yaw": -1.5896332263946533}, "local_position": {"x": null, "y": null, "z": null}, "status": {"flags": 135, "velocity_variance": 0.0, "pos_horiz_variance": 0.1492803394794464, "pos_vert_variance": 0.6195506453514099}}, "errors": ["PreArm: Hardware safety switch"]}
{"timestamp": "2026-01-07T15:46:20.399757Z", "telemetry": {"lat": -1.2108713, "lon": 30.3022531, "satellites": 0, "altitude_gps_m": 0.7400000095367432, "groundspeed_mps": 1.1026211977005005}, "flight": {"mode": "STABILIZE", "armed": false}, "ekf": {"attitude": {"roll": 0.13998232781887054, "pitch": -0.007178149651736021, "yaw": -1.4113073348999023}, "local_position": {"x": null, "y": null, "z": null}, "status": {"flags": 135, "velocity_variance": 0.0, "pos_horiz_variance": 0.21189822256565094, "pos_vert_variance": 0.08426535874605179}}, "errors": ["PreArm: Hardware safety switch"]}
{"timestamp": "2026-01-07T15:46:21.397594Z", "telemetry": {"lat": 0.4705398, "lon": 29.4749715, "satellites": 0, "altitude_gps_m": 0.7400000095367432, "groundspeed_mps": 0.5530280470848083}, "flight": {"mode": "STABILIZE", "armed": false}, "ekf": {"attitude": {"roll": 0.019241424277424812, "pitch": 0.0607944019138813, "yaw": -1.2366013526916504}, "local_position": {"x": null, "y": null, "z": null}, "status": {"flags": 135, "velocity_variance": 0.0, "pos_horiz_variance": 0.1935681253671646, "pos_vert_variance": 0.11180871725082397}}, "errors": ["PreArm: Hardware safety switch"]}
{"timestamp": "2026-01-07T15:46:22.396920Z", "telemetry": {"lat": 2.4986458, "lon": 28.4752098, "satellites": 0, "altitude_gps_m": 0.7400000095367432, "groundspeed_mps": 0.5126702785491943}, "flight": {"mode": "STABILIZE", "armed": false}, "ekf": {"attitude": {"roll": 0.043813589960336685, "pitch": 0.1218283474445343, "yaw": -1.6128097772598267}, "local_position": {"x": null, "y": null, "z": null}, "status": {"flags": 135, "velocity_variance": 0.0, "pos_horiz_variance": 0.11716368794441223, "pos_vert_variance": 0.16025763750076294}}, "errors": ["PreArm: Hardware safety switch"]}
{"timestamp": "2026-01-07T15:46:23.397603Z", "telemetry": {"lat": 4.9800174, "lon": 27.2425573, "satellites": 0, "altitude_gps_m": 0.7400000095367432, "groundspeed_mps": 0.5246561169624329}, "flight": {"mode": "STABILIZE", "armed": false}, "ekf": {"attitude": {"roll": 0.07715345919132233, "pitch": 0.17631477117538452, "yaw": -1.7956092357635498}, "local_position": {"x": null, "y": null, "z": null}, "status": {"flags": 135, "velocity_variance": 0.0, "pos_horiz_variance": 0.08881281316280365, "pos_vert_variance": 0.32536202669143677}}, "errors": ["PreArm: Hardware safety switch"]}
{"timestamp": "2026-01-07T15:46:24.396830Z", "telemetry": {"lat": 2.2359868, "lon": 28.6149729, "satellites": 0, "altitude_gps_m": 0.7400000095367432, "groundspeed_mps": 0.5772578716278076}, "flight": {"mode": "STABILIZE", "armed": false}, "ekf": {"attitude": {"roll": 0.1593162715435028, "pitch": 0.08085653185844421, "yaw": -2.041414260864258}, "local_position": {"x": null, "y": null, "z": null}, "status": {"flags": 135, "velocity_variance": 0.0, "pos_horiz_variance": 0.08457247167825699, "pos_vert_variance": 0.24182943999767303}}, "errors": ["PreArm: Hardware safety switch"]}
{"timestamp": "2026-01-07T15:46:25.397399Z", "telemetry": {"lat": 2.2359868, "lon": 28.6149729, "satellites": 0, "altitude_gps_m": 0.7400000095367432, "groundspeed_mps": 0.5980191230773926}, "flight": {"mode": "STABILIZE", "armed": false}, "ekf": {"attitude": {"roll": 0.12845690548419952, "pitch": -0.11869245022535324, "yaw": -2.2210824489593506}, "local_position": {"x": null, "y": null, "z": null}, "status": {"flags": 135, "velocity_variance": 0.0, "pos_horiz_variance": 0.08264981210231781, "pos_vert_variance": 0.2531000077724457}}, "errors": ["PreArm: Hardware safety switch"]}
{"timestamp": "2026-01-07T15:46:26.397598Z", "telemetry": {"lat": 2.2359868, "lon": 28.6149729, "satellites": 0, "altitude_gps_m": 0.7400000095367432, "groundspeed_mps": 1.1598477363586426}, "flight": {"mode": "STABILIZE", "armed": false}, "ekf": {"attitude": {"roll": 0.07356814295053482, "pitch": 0.1528516262769699, "yaw": -1.270405888557434}, "local_position": {"x": null, "y": null, "z": null}, "status": {"flags": 135, "velocity_variance": 0.0, "pos_horiz_variance": 0.15218649804592133, "pos_vert_variance": 0.027179773896932602}}, "errors": ["PreArm: Hardware safety switch"]}
{"timestamp": "2026-01-07T15:46:27.397452Z", "telemetry": {"lat": 2.2359868, "lon": 28.6149729, "satellites": 0, "altitude_gps_m": 0.7400000095367432, "groundspeed_mps": 0.7932839393615723}, "flight": {"mode": "STABILIZE", "armed": false}, "ekf": {"attitude": {"roll": 0.06313015520572662, "pitch": 0.19738009572029114, "yaw": -0.13132479786872864}, "local_position": {"x": null, "y": null, "z": null}, "status": {"flags": 135, "velocity_variance": 0.0, "pos_horiz_variance": 0.1611669510602951, "pos_vert_variance": 0.1960192620754242}}, "errors": ["PreArm: Hardware safety switch"]}
{"timestamp": "2026-01-07T15:46:28.397697Z", "telemetry": {"lat": 2.2359868, "lon": 28.6149729, "satellites": 0, "altitude_gps_m": 0.7400000095367432, "groundspeed_mps": 0.7554939985275269}, "flight": {"mode": "STABILIZE", "armed": false}, "ekf": {"attitude": {"roll": 0.04614010825753212, "pitch": 0.2024100124835968, "yaw": 0.9481992721557617}, "local_position": {"x": null, "y": null, "z": null}, "status": {"flags": 135, "velocity_variance": 0.0, "pos_horiz_variance": 0.1607506275177002, "pos_vert_variance": 0.02672780677676201}}, "errors": ["PreArm: Hardware safety switch"]}
{"timestamp": "2026-01-07T15:46:29.397074Z", "telemetry": {"lat": 2.2359868, "lon": 28.6149729, "satellites": 0, "altitude_gps_m": 0.7400000095367432, "groundspeed_mps": 0.3393820524215698}, "flight": {"mode": "STABILIZE", "armed": false}, "ekf": {"attitude": {"roll": 0.04914593696594238, "pitch": 0.13073182106018066, "yaw": 1.2729864120483398}, "local_position": {"x": null, "y": null, "z": null}, "status": {"flags": 135, "velocity_variance": 0.0, "pos_horiz_variance": 0.07115227729082108, "pos_vert_variance": 0.09651105105876923}}, "errors": ["PreArm: Hardware safety switch"]}
{"timestamp": "2026-01-07T15:46:30.398017Z", "telemetry": {"lat": -21.4346945, "lon": 58.5310559, "satellites": 0, "altitude_gps_m": 0.7400000095367432, "groundspeed_mps": 0.658255398273468}, "flight": {"mode": "STABILIZE", "armed": false}, "ekf": {"attitude": {"roll": 0.04845966398715973, "pitch": 0.17433050274848938, "yaw": 1.157612919807434}, "local_position": {"x": null, "y": null, "z": null}, "status": {"flags": 135, "velocity_variance": 0.0, "pos_horiz_variance": 0.06175759807229042, "pos_vert_variance": 0.041759904474020004}}, "errors": ["PreArm: Hardware safety switch"]}
{"timestamp": "2026-01-07T15:46:31.397673Z", "telemetry": {"lat": -21.511124, "lon": 59.1874816, "satellites": 0, "altitude_gps_m": 0.7400000095367432, "groundspeed_mps": 0.7290717959403992}, "flight": {"mode": "STABILIZE", "armed": false}, "ekf": {"attitude": {"roll": 0.07997791469097137, "pitch": 0.12310586124658585, "yaw": 1.1668195724487305}, "local_position": {"x": null, "y": null, "z": null}, "status": {"flags": 135, "velocity_variance": 0.0, "pos_horiz_variance": 0.13200917840003967, "pos_vert_variance": 0.2070125788450241}}, "errors": ["PreArm: Hardware safety switch"]}
{"timestamp": "2026-01-07T15:46:32.397193Z", "telemetry": {"lat": -21.512067, "lon": 59.1878406, "satellites": 0, "altitude_gps_m": 0.7400000095367432, "groundspeed_mps": 0.6625571846961975}, "flight": {"mode": "STABILIZE", "armed": false}, "ekf": {"attitude": {"roll": 0.0701264962553978, "pitch": 0.12649056315422058, "yaw": 1.147886037826538}, "local_position": {"x": null, "y": null, "z": null}, "status": {"flags": 135, "velocity_variance": 0.0, "pos_horiz_variance": 0.15753044188022614, "pos_vert_variance": 0.266058087348938}}, "errors": ["PreArm: Hardware safety switch"]}
{"timestamp": "2026-01-07T15:46:33.397720Z", "telemetry": {"lat": -21.4034878, "lon": 58.2475781, "satellites": 0, "altitude_gps_m": 0.7400000095367432, "groundspeed_mps": 0.5173459649085999}, "flight": {"mode": "STABILIZE", "armed": false}, "ekf": {"attitude": {"roll": 0.058207567781209946, "pitch": 0.14938277006149292, "yaw": 1.223441481590271}, "local_position": {"x": null, "y": null, "z": null}, "status": {"flags": 135, "velocity_variance": 0.0, "pos_horiz_variance": 0.14600010216236115, "pos_vert_variance": 0.38233232498168945}}, "errors": ["PreArm: Hardware safety switch"]}
{"timestamp": "2026-01-07T15:46:34.396805Z", "telemetry": {"lat": -21.4833174, "lon": 58.9165041, "satellites": 0, "altitude_gps_m": 0.7400000095367432, "groundspeed_mps": 0.37590569257736206}, "flight": {"mode": "STABILIZE", "armed": false}, "ekf": {"attitude": {"roll": 0.0856465995311737, "pitch": 0.10828080773353577, "yaw": 1.1984094381332397}, "local_position": {"x": null, "y": null, "z": null}, "status": {"flags": 135, "velocity_variance": 0.0, "pos_horiz_variance": 0.12265605479478836, "pos_vert_variance": 0.14564912021160126}}, "errors": ["PreArm: Hardware safety switch"]}
{"timestamp": "2026-01-07T15:46:35.399616Z", "telemetry": {"lat": 0.27024, "lon": 68.4119132, "satellites": 0, "altitude_gps_m": 0.7400000095367432, "groundspeed_mps": 0.18252667784690857}, "flight": {"mode": "STABILIZE", "armed": false}, "ekf": {"attitude": {"roll": 0.09940017759799957, "pitch": 0.13937512040138245, "yaw": 1.2130701541900635}, "local_position": {"x": null, "y": null, "z": null}, "status": {"flags": 135, "velocity_variance": 0.0, "pos_horiz_variance": 0.08370610326528549, "pos_vert_variance": 0.12214560806751251}}, "errors": ["PreArm: Hardware safety switch"]}
{"timestamp": "2026-01-07T15:46:36.397448Z", "telemetry": {"lat": 0.6054129, "lon": 68.3450799, "satellites": 0, "altitude_gps_m": 0.7400000095367432, "groundspeed_mps": 0.06081221625208855}, "flight": {"mode": "STABILIZE", "armed": false}, "ekf": {"attitude": {"roll": 0.09830436110496521, "pitch": 0.1526624858379364, "yaw": 1.221482276916504}, "local_position": {"x": null, "y": null, "z": null}, "status": {"flags": 135, "velocity_variance": 0.0, "pos_horiz_variance": 0.04853273183107376, "pos_vert_variance": 0.12544697523117065}}, "errors": ["PreArm: Hardware safety switch"]}
{"timestamp": "2026-01-07T15:46:37.397490Z", "telemetry": {"lat": 0.3360529, "lon": 67.949349, "satellites": 0, "altitude_gps_m": 0.7400000095367432, "groundspeed_mps": 0.05006389692425728}, "flight": {"mode": "STABILIZE", "armed": false}, "ekf": {"attitude": {"roll": 0.10064446181058884, "pitch": 0.12442221492528915, "yaw": 1.2185319662094116}, "local_position": {"x": null, "y": null, "z": null}, "status": {"flags": 135, "velocity_variance": 0.0, "pos_horiz_variance": 0.0217578187584877, "pos_vert_variance": 0.3099673390388489}}, "errors": ["PreArm: Hardware safety switch"]}
{"timestamp": "2026-01-07T15:46:38.396717Z", "telemetry": {"lat": 28.7574395, "lon": 77.1175127, "satellites": 0, "altitude_gps_m": 0.7400000095367432, "groundspeed_mps": 0.08619333803653717}, "flight": {"mode": "STABILIZE", "armed": false}, "ekf": {"attitude": {"roll": 0.09576193988323212, "pitch": 0.14130784571170807, "yaw": 1.2509384155273438}, "local_position": {"x": null, "y": null, "z": null}, "status": {"flags": 135, "velocity_variance": 0.0, "pos_horiz_variance": 0.003911352716386318, "pos_vert_variance": 0.3057717978954315}}, "errors": ["PreArm: Hardware safety switch"]}
{"timestamp": "2026-01-07T15:46:39.397608Z", "telemetry": {"lat": 28.7574455, "lon": 77.1175145, "satellites": 0, "altitude_gps_m": 0.7400000095367432, "groundspeed_mps": 0.10522729903459549}, "flight": {"mode": "STABILIZE", "armed": false}, "ekf": {"attitude": {"roll": 0.036714427173137665, "pitch": 0.17333610355854034, "yaw": 1.291846513748169}, "local_position": {"x": null, "y": null, "z": null}, "status": {"flags": 135, "velocity_variance": 0.0, "pos_horiz_variance": 0.012826381251215935, "pos_vert_variance": 0.16849178075790405}}, "errors": ["PreArm: Hardware safety switch"]}
{"timestamp": "2026-01-07T15:46:40.401126Z", "telemetry": {"lat": 28.7574479, "lon": 77.117507, "satellites": 0, "altitude_gps_m": 0.7400000095367432, "groundspeed_mps": 0.1671360284090042}, "flight": {"mode": "STABILIZE", "armed": false}, "ekf": {"attitude": {"roll": 0.06289923191070557, "pitch": 0.17127735912799835, "yaw": 1.30190110206604}, "local_position": {"x": null, "y": null, "z": null}, "status": {"flags": 135, "velocity_variance": 0.0, "pos_horiz_variance": 0.019694268703460693, "pos_vert_variance": 0.23899368941783905}}, "errors": ["PreArm: Hardware safety switch"]}
{"timestamp": "2026-01-07T15:46:41.397401Z", "telemetry": {"lat": 28.7521046, "lon": 77.1168324, "satellites": 0, "altitude_gps_m": 0.7400000095367432, "groundspeed_mps": 0.13299867510795593}, "flight": {"mode": "STABILIZE", "armed": false}, "ekf": {"attitude": {"roll": 0.08363522589206696, "pitch": 0.11398711800575256, "yaw": 1.3243122100830078}, "local_position": {"x": null, "y": null, "z": null}, "status": {"flags": 135, "velocity_variance": 0.0, "pos_horiz_variance": 0.028269371017813683, "pos_vert_variance": 0.31376945972442627}}, "errors": ["PreArm: Hardware safety switch"]}
{"timestamp": "2026-01-07T15:46:42.396969Z", "telemetry": {"lat": 28.7521597, "lon": 77.1168878, "satellites": 0, "altitude_gps_m": 0.7400000095367432, "groundspeed_mps": 0.09035336226224899}, "flight": {"mode": "STABILIZE", "armed": false}, "ekf": {"attitude": {"roll": 0.05683540925383568, "pitch": 0.1829930990934372, "yaw": 1.2605468034744263}, "local_position": {"x": null, "y": null, "z": null}, "status": {"flags": 135, "velocity_variance": 0.0, "pos_horiz_variance": 0.01287646684795618, "pos_vert_variance": 0.4656315743923187}}, "errors": ["PreArm: Hardware safety switch"]}
{"timestamp": "2026-01-07T15:46:43.397282Z", "telemetry": {"lat": 28.7521457, "lon": 77.1168562, "satellites": 0, "altitude_gps_m": 0.7400000095367432, "groundspeed_mps": 0.13087694346904755}, "flight": {"mode": "STABILIZE", "armed": false}, "ekf": {"attitude": {"roll": 0.1585063636302948, "pitch": 0.16125468909740448, "yaw": 1.4105210304260254}, "local_position": {"x": null, "y": null, "z": null}, "status": {"flags": 135, "velocity_variance": 0.0, "pos_horiz_variance": 0.02083323523402214, "pos_vert_variance": 0.04705134406685829}}, "errors": ["PreArm: Hardware safety switch"]}
{"timestamp": "2026-01-07T15:46:44.397569Z", "telemetry": {"lat": 28.7521889, "lon": 77.1168287, "satellites": 0, "altitude_gps_m": 0.7400000095367432, "groundspeed_mps": 0.22745159268379211}, "flight": {"mode": "STABILIZE", "armed": false}, "ekf": {"attitude": {"roll": 0.14505596458911896, "pitch": 0.1649262011051178, "yaw": 1.3551044464111328}, "local_position": {"x": null, "y": null, "z": null}, "status": {"flags": 135, "velocity_variance": 0.0, "pos_horiz_variance": 0.0008170237997546792, "pos_vert_variance": 0.17351171374320984}}, "errors": ["PreArm: Hardware safety switch", "PreArm: Hardware safety switch"]}
{"timestamp": "2026-01-07T15:46:45.397608Z", "telemetry": {"lat": 28.7521637, "lon": 77.1168698, "satellites": 0, "altitude_gps_m": 0.7400000095367432, "groundspeed_mps": 0.08764618635177612}, "flight": {"mode": "STABILIZE", "armed": false}, "ekf": {"attitude": {"roll": 0.09551449120044708, "pitch": 0.14534573256969452, "yaw": 1.216771125793457}, "local_position": {"x": null, "y": null, "z": null}, "status": {"flags": 135, "velocity_variance": 0.0, "pos_horiz_variance": 0.023813482373952866, "pos_vert_variance": 0.04522381350398064}}, "errors": ["PreArm: Hardware safety switch", "PreArm: Hardware safety switch"]}
{"timestamp": "2026-01-07T15:46:46.397305Z", "telemetry": {"lat": 28.7521685, "lon": 77.1168701, "satellites": 0, "altitude_gps_m": 0.7400000095367432, "groundspeed_mps": 0.07027147710323334}, "flight": {"mode": "STABILIZE", "armed": false}, "ekf": {"attitude": {"roll": 0.1534518003463745, "pitch": 0.12329154461622238, "yaw": 1.330149531364441}, "local_position": {"x": null, "y": null, "z": null}, "status": {"flags": 135, "velocity_variance": 0.0, "pos_horiz_variance": 0.01594572141766548, "pos_vert_variance": 0.12775550782680511}}, "errors": ["PreArm: Hardware safety switch", "PreArm: Hardware safety switch"]}
{"timestamp": "2026-01-07T15:46:47.399311Z", "telemetry": {"lat": 28.7506123, "lon": 77.1190918, "satellites": 0, "altitude_gps_m": 0.7400000095367432, "groundspeed_mps": 0.024404576048254967}, "flight": {"mode": "STABILIZE", "armed": false}, "ekf": {"attitude": {"roll": 0.07650649547576904, "pitch": 0.18889977037906647, "yaw": 1.2547873258590698}, "local_position": {"x": null, "y": null, "z": null}, "status": {"flags": 135, "velocity_variance": 0.0, "pos_horiz_variance": 0.012294578365981579, "pos_vert_variance": 0.07871057838201523}}, "errors": ["PreArm: Hardware safety switch", "PreArm: Hardware safety switch"]}
{"timestamp": "2026-01-07T15:46:48.396775Z", "telemetry": {"lat": 28.750617, "lon": 77.1190868, "satellites": 0, "altitude_gps_m": 0.7400000095367432, "groundspeed_mps": 0.15728344023227692}, "flight": {"mode": "STABILIZE", "armed": false}, "ekf": {"attitude": {"roll": 0.1983911544084549, "pitch": 0.15253283083438873, "yaw": 1.222909927368164}, "local_position": {"x": null, "y": null, "z": null}, "status": {"flags": 135, "velocity_variance": 0.0, "pos_horiz_variance": 0.025346746668219566, "pos_vert_variance": 0.009310010820627213}}, "errors": ["PreArm: Hardware safety switch", "PreArm: Hardware safety switch"]}
{"timestamp": "2026-01-07T15:46:49.397083Z", "telemetry": {"lat": 28.7506192, "lon": 77.1190602, "satellites": 0, "altitude_gps_m": 0.7400000095367432, "groundspeed_mps": 0.06756877899169922}, "flight": {"mode": "STABILIZE", "armed": false}, "ekf": {"attitude": {"roll": 0.19306039810180664, "pitch": 0.15163815021514893, "yaw": 1.2238826751708984}, "local_position": {"x": null, "y": null, "z": null}, "status": {"flags": 135, "velocity_variance": 0.0, "pos_horiz_variance": 0.019890708848834038, "pos_vert_variance": 0.25439149141311646}}, "errors": ["PreArm: Hardware safety switch", "PreArm: Hardware safety switch"]}
{"timestamp": "2026-01-07T15:46:50.397682Z", "telemetry": {"lat": 28.7506333, "lon": 77.1190567, "satellites": 0, "altitude_gps_m": 0.7400000095367432, "groundspeed_mps": 0.21752534806728363}, "flight": {"mode": "STABILIZE", "armed": false}, "ekf": {"attitude": {"roll": 0.14391981065273285, "pitch": 0.15401741862297058, "yaw": 1.2069817781448364}, "local_position": {"x": null, "y": null, "z": null}, "status": {"flags": 135, "velocity_variance": 0.0, "pos_horiz_variance": 0.02921174466609955, "pos_vert_variance": 0.017990635707974434}}, "errors": ["PreArm: Hardware safety switch", "PreArm: Hardware safety switch"]}
{"timestamp": "2026-01-07T15:46:51.397587Z", "telemetry": {"lat": 28.7506429, "lon": 77.1190253, "satellites": 0, "altitude_gps_m": 0.7400000095367432, "groundspeed_mps": 0.06837765127420425}, "flight": {"mode": "STABILIZE", "armed": false}, "ekf": {"attitude": {"roll": 0.1498006284236908, "pitch": 0.15429097414016724, "yaw": 1.151587724685669}, "local_position": {"x": null, "y": null, "z": null}, "status": {"flags": 135, "velocity_variance": 0.0, "pos_horiz_variance": 0.027559570968151093, "pos_vert_variance": 0.062015559524297714}}, "errors": ["PreArm: Hardware safety switch", "PreArm: Hardware safety switch"]}
{"timestamp": "2026-01-07T15:46:52.396880Z", "telemetry": {"lat": 28.750647, "lon": 77.1190354, "satellites": 0, "altitude_gps_m": 0.7400000095367432, "groundspeed_mps": 0.07008630782365799}, "flight": {"mode": "STABILIZE", "armed": false}, "ekf": {"attitude": {"roll": 0.1903870403766632, "pitch": 0.16739487648010254, "yaw": 1.184035301208496}, "local_position": {"x": null, "y": null, "z": null}, "status": {"flags": 135, "velocity_variance": 0.0, "pos_horiz_variance": 0.0180008877068758, "pos_vert_variance": 0.07738228142261505}}, "errors": ["PreArm: Hardware safety switch", "PreArm: Hardware safety switch"]}
{"timestamp": "2026-01-07T15:46:53.397673Z", "telemetry": {"lat": 28.7506556, "lon": 77.1190573, "satellites": 0, "altitude_gps_m": 0.7400000095367432, "groundspeed_mps": 0.06566938012838364}, "flight": {"mode": "STABILIZE", "armed": false}, "ekf": {"attitude": {"roll": 0.1869485229253769, "pitch": 0.18303483724594116, "yaw": 1.12445867061615}, "local_position": {"x": null, "y": null, "z": null}, "status": {"flags": 135, "velocity_variance": 0.0, "pos_horiz_variance": 0.01825687661767006, "pos_vert_variance": 0.041317135095596313}}, "errors": ["PreArm: Hardware safety switch", "PreArm: Hardware safety switch"]}
{"timestamp": "2026-01-07T15:46:54.400211Z", "telemetry": {"lat": 28.7506376, "lon": 77.1190716, "satellites": 0, "altitude_gps_m": 0.7400000095367432, "groundspeed_mps": 0.4027993381023407}, "flight": {"mode": "STABILIZE", "armed": false}, "ekf": {"attitude": {"roll": -0.18129712343215942, "pitch": 0.09650428593158722, "yaw": 1.1177111864089966}, "local_position": {"x": null, "y": null, "z": null}, "status": {"flags": 135, "velocity_variance": 0.0, "pos_horiz_variance": 0.02954692393541336, "pos_vert_variance": 0.16922302544116974}}, "errors": ["PreArm: Hardware safety switch", "PreArm: Hardware safety switch"]}
{"timestamp": "2026-01-07T15:46:55.396721Z", "telemetry": {"lat": 28.750694, "lon": 77.1197674, "satellites": 0, "altitude_gps_m": 0.7400000095367432, "groundspeed_mps": 0.3037140667438507}, "flight": {"mode": "STABILIZE", "armed": false}, "ekf": {"attitude": {"roll": -0.14529924094676971, "pitch": -0.13269111514091492, "yaw": 1.1776540279388428}, "local_position": {"x": null, "y": null, "z": null}, "status": {"flags": 135, "velocity_variance": 0.0, "pos_horiz_variance": 0.01306883804500103, "pos_vert_variance": 0.10587666928768158}}, "errors": ["PreArm: Hardware safety switch", "PreArm: Hardware safety switch"]}
{"timestamp": "2026-01-07T15:46:56.397535Z", "telemetry": {"lat": 28.7506757, "lon": 77.1197763, "satellites": 0, "altitude_gps_m": 0.7400000095367432, "groundspeed_mps": 0.26919370889663696}, "flight": {"mode": "STABILIZE", "armed": false}, "ekf": {"attitude": {"roll": -0.08715350925922394, "pitch": -0.15987302362918854, "yaw": 1.123389482498169}, "local_position": {"x": null, "y": null, "z": null}, "status": {"flags": 135, "velocity_variance": 0.0, "pos_horiz_variance": 0.0441078320145607, "pos_vert_variance": 0.0013010528637096286}}, "errors": ["PreArm: Hardware safety switch", "PreArm: Hardware safety switch"]}
{"timestamp": "2026-01-07T15:46:57.397604Z", "telemetry": {"lat": 28.7506489, "lon": 77.1197825, "satellites": 0, "altitude_gps_m": 0.7400000095367432, "groundspeed_mps": 0.4017851948738098}, "flight": {"mode": "STABILIZE", "armed": false}, "ekf": {"attitude": {"roll": -0.027069229632616043, "pitch": -0.10284806042909622, "yaw": 0.48954886198043823}, "local_position": {"x": null, "y": null, "z": null}, "status": {"flags": 135, "velocity_variance": 0.0, "pos_horiz_variance": 0.08842325210571289, "pos_vert_variance": 0.09958446770906448}}, "errors": ["PreArm: Hardware safety switch", "PreArm: Hardware safety switch"]}
{"timestamp": "2026-01-07T15:46:58.397672Z", "telemetry": {"lat": 28.7506247, "lon": 77.119801, "satellites": 0, "altitude_gps_m": 0.7400000095367432, "groundspeed_mps": 0.2432355433702469}, "flight": {"mode": "STABILIZE", "armed": false}, "ekf": {"attitude": {"roll": -0.02323218807578087, "pitch": 0.8279312252998352, "yaw": 0.40098369121551514}, "local_position": {"x": null, "y": null, "z": null}, "status": {"flags": 135, "velocity_variance": 0.0, "pos_horiz_variance": 0.0350240133702755, "pos_vert_variance": 0.18445806205272675}}, "errors": ["PreArm: Hardware safety switch", "PreArm: Hardware safety switch"]}
{"timestamp": "2026-01-07T15:46:59.397554Z", "telemetry": {"lat": 28.7506257, "lon": 77.1198021, "satellites": 0, "altitude_gps_m": 0.7400000095367432, "groundspeed_mps": 0.2324104905128479}, "flight": {"mode": "STABILIZE", "armed": false}, "ekf": {"attitude": {"roll": 0.2656609117984772, "pitch": 1.0490162372589111, "yaw": 0.6656861901283264}, "local_position": {"x": null, "y": null, "z": null}, "status": {"flags": 135, "velocity_variance": 0.0, "pos_horiz_variance": 0.024703998118638992, "pos_vert_variance": 0.07758056372404099}}, "errors": ["PreArm: Hardware safety switch", "PreArm: Hardware safety switch"]}
{"timestamp": "2026-01-07T15:47:00.397801Z", "telemetry": {"lat": 28.7506262, "lon": 77.119849, "satellites": 0, "altitude_gps_m": 0.7400000095367432, "groundspeed_mps": 0.21015341579914093}, "flight": {"mode": "STABILIZE", "armed": false}, "ekf": {"attitude": {"roll": 0.15572667121887207, "pitch": -0.08244223892688751, "yaw": 1.2272865772247314}, "local_position": {"x": null, "y": null, "z": null}, "status": {"flags": 135, "velocity_variance": 0.0, "pos_horiz_variance": 0.04688788950443268, "pos_vert_variance": 0.12759417295455933}}, "errors": ["PreArm: Hardware safety switch", "PreArm: Hardware safety switch"]}
{"timestamp": "2026-01-07T15:47:01.397118Z", "telemetry": {"lat": 28.7530249, "lon": 77.1178727, "satellites": 6, "altitude_gps_m": 251.1899871826172, "groundspeed_mps": 0.10839707404375076}, "flight": {"mode": "STABILIZE", "armed": false}, "ekf": {"attitude": {"roll": 0.05586504191160202, "pitch": 0.02171958237886429, "yaw": 0.8063107132911682}, "local_position": {"x": null, "y": null, "z": null}, "status": {"flags": 135, "velocity_variance": 0.0, "pos_horiz_variance": 0.034901805222034454, "pos_vert_variance": 0.38021260499954224}}, "errors": ["PreArm: Hardware safety switch", "PreArm: Hardware safety switch"]}
{"timestamp": "2026-01-07T15:47:02.400576Z", "telemetry": {"lat": 28.7530111, "lon": 77.1178849, "satellites": 6, "altitude_gps_m": 251.86000061035156, "groundspeed_mps": 0.1658039093017578}, "flight": {"mode": "STABILIZE", "armed": false}, "ekf": {"attitude": {"roll": 0.04952996224164963, "pitch": 0.09384588152170181, "yaw": 0.7881182432174683}, "local_position": {"x": null, "y": null, "z": null}, "status": {"flags": 135, "velocity_variance": 0.0, "pos_horiz_variance": 0.03210616856813431, "pos_vert_variance": 0.2467052936553955}}, "errors": ["PreArm: Hardware safety switch", "PreArm: Hardware safety switch"]}
{"timestamp": "2026-01-07T15:47:03.397302Z", "telemetry": {"lat": 28.7530178, "lon": 77.1178828, "satellites": 6, "altitude_gps_m": 251.67999267578125, "groundspeed_mps": 0.5684428811073303}, "flight": {"mode": "STABILIZE", "armed": false}, "ekf": {"attitude": {"roll": 0.11935408413410187, "pitch": 0.08699608594179153, "yaw": 1.9767838716506958}, "local_position": {"x": null, "y": null, "z": null}, "status": {"flags": 135, "velocity_variance": 0.0, "pos_horiz_variance": 0.07527033239603043, "pos_vert_variance": 0.2091018259525299}}, "errors": ["PreArm: Hardware safety switch", "PreArm: Hardware safety switch"]}
{"timestamp": "2026-01-07T15:47:04.397243Z", "telemetry": {"lat": 28.753034, "lon": 77.1178801, "satellites": 6, "altitude_gps_m": 248.38999938964844, "groundspeed_mps": 0.8454673886299133}, "flight": {"mode": "STABILIZE", "armed": false}, "ekf": {"attitude": {"roll": 0.20673717558383942, "pitch": 0.11462998390197754, "yaw": 2.7840771675109863}, "local_position": {"x": null, "y": null, "z": null}, "status": {"flags": 135, "velocity_variance": 0.0, "pos_horiz_variance": 0.13060256838798523, "pos_vert_variance": 0.087987020611763}}, "errors": ["PreArm: Hardware safety switch", "PreArm: Hardware safety switch"]}
{"timestamp": "2026-01-07T15:47:05.397586Z", "telemetry": {"lat": 28.7530321, "lon": 77.1178597, "satellites": 6, "altitude_gps_m": 249.59999084472656, "groundspeed_mps": 0.7023013830184937}, "flight": {"mode": "STABILIZE", "armed": false}, "ekf": {"attitude": {"roll": 0.18284818530082703, "pitch": 0.3182676136493683, "yaw": 2.914534568786621}, "local_position": {"x": null, "y": null, "z": null}, "status": {"flags": 135, "velocity_variance": 0.0, "pos_horiz_variance": 0.19224517047405243, "pos_vert_variance": 0.2771757245063782}}, "errors": ["PreArm: Hardware safety switch", "PreArm: Hardware safety switch"]}
{"timestamp": "2026-01-07T15:47:06.397112Z", "telemetry": {"lat": 28.7530304, "lon": 77.1178649, "satellites": 6, "altitude_gps_m": 250.4099884033203, "groundspeed_mps": 0.23265276849269867}, "flight": {"mode": "STABILIZE", "armed": false}, "ekf": {"attitude": {"roll": 0.2155640870332718, "pitch": 0.32816991209983826, "yaw": 3.070366382598877}, "local_position": {"x": null, "y": null, "z": null}, "status": {"flags": 135, "velocity_variance": 0.0, "pos_horiz_variance": 0.1634044349193573, "pos_vert_variance": 0.1623069792985916}}, "errors": ["PreArm: Hardware safety switch", "PreArm: Hardware safety switch"]}
{"timestamp": "2026-01-07T15:47:07.397610Z", "telemetry": {"lat": 28.7530244, "lon": 77.1178644, "satellites": 6, "altitude_gps_m": 251.1999969482422, "groundspeed_mps": 0.35110145807266235}, "flight": {"mode": "STABILIZE", "armed": false}, "ekf": {"attitude": {"roll": 0.10891877114772797, "pitch": 0.20722216367721558, "yaw": 3.1115798950195312}, "local_position": {"x": null, "y": null, "z": null}, "status": {"flags": 135, "velocity_variance": 0.0, "pos_horiz_variance": 0.058252930641174316, "pos_vert_variance": 0.011352512054145336}}, "errors": ["PreArm: Hardware safety switch", "PreArm: Hardware safety switch"]}
{"timestamp": "2026-01-07T15:47:08.397708Z", "telemetry": {"lat": 28.7530268, "lon": 77.1178567, "satellites": 6, "altitude_gps_m": 252.14999389648438, "groundspeed_mps": 0.10723453760147095}, "flight": {"mode": "STABILIZE", "armed": false}, "ekf": {"attitude": {"roll": 0.13715611398220062, "pitch": 0.07350998371839523, "yaw": -3.0380475521087646}, "local_position": {"x": null, "y": null, "z": null}, "status": {"flags": 135, "velocity_variance": 0.0, "pos_horiz_variance": 0.01007357332855463, "pos_vert_variance": 0.11048947274684906}}, "errors": ["PreArm: Hardware safety switch", "PreArm: Hardware safety switch"]}
{"timestamp": "2026-01-07T15:47:09.396744Z", "telemetry": {"lat": 28.753024, "lon": 77.1178558, "satellites": 6, "altitude_gps_m": 254.3199920654297, "groundspeed_mps": 0.35367754101753235}, "flight": {"mode": "STABILIZE", "armed": false}, "ekf": {"attitude": {"roll": 0.03443801403045654, "pitch": 0.07064545154571533, "yaw": -2.9129745960235596}, "local_position": {"x": null, "y": null, "z": null}, "status": {"flags": 135, "velocity_variance": 0.0, "pos_horiz_variance": 0.013222938403487206, "pos_vert_variance": 0.014937282539904118}}, "errors": ["PreArm: Hardware safety switch", "PreArm: Hardware safety switch"]}
{"timestamp": "2026-01-07T15:47:10.400538Z", "telemetry": {"lat": 28.7530189, "lon": 77.1178492, "satellites": 6, "altitude_gps_m": 256.5099792480469, "groundspeed_mps": 0.3678821623325348}, "flight": {"mode": "STABILIZE", "armed": false}, "ekf": {"attitude": {"roll": 0.15099796652793884, "pitch": 0.004171707201749086, "yaw": -2.720092535018921}, "local_position": {"x": null, "y": null, "z": null}, "status": {"flags": 135, "velocity_variance": 0.0, "pos_horiz_variance": 0.09667722880840302, "pos_vert_variance": 0.07251283526420593}}, "errors": ["PreArm: Hardware safety switch", "PreArm: Hardware safety switch"]}
{"timestamp": "2026-01-07T15:47:11.396784Z", "telemetry": {"lat": 28.7530225, "lon": 77.1178476, "satellites": 6, "altitude_gps_m": 259.8800048828125, "groundspeed_mps": 1.5051556825637817}, "flight": {"mode": "STABILIZE", "armed": false}, "ekf": {"attitude": {"roll": 0.09521925449371338, "pitch": -0.09172407537698746, "yaw": 2.7870047092437744}, "local_position": {"x": null, "y": null, "z": null}, "status": {"flags": 135, "velocity_variance": 0.0, "pos_horiz_variance": 0.1815580576658249, "pos_vert_variance": 0.006258540786802769}}, "errors": ["PreArm: Hardware safety switch", "PreArm: Hardware safety switch", "EKF3 IMU1 forced reset", "EKF3 IMU1 initialised"]}
{"timestamp": "2026-01-07T15:47:12.397342Z", "telemetry": {"lat": 28.7530206, "lon": 77.1178629, "satellites": 6, "altitude_gps_m": 260.17999267578125, "groundspeed_mps": 0.781952977180481}, "flight": {"mode": "STABILIZE", "armed": false}, "ekf": {"attitude": {"roll": -0.014563415199518204, "pitch": 0.01102132722735405, "yaw": 3.0931196212768555}, "local_position": {"x": null, "y": null, "z": null}, "status": {"flags": 1024, "velocity_variance": 0.0, "pos_horiz_variance": 0.2752862572669983, "pos_vert_variance": 0.21892230212688446}}, "errors": ["PreArm: Hardware safety switch", "PreArm: Hardware safety switch", "EKF3 IMU1 forced reset", "EKF3 IMU1 initialised", "EKF3 IMU1 tilt alignment complete"]}
{"timestamp": "2026-01-07T15:47:13.397598Z", "telemetry": {"lat": 28.7530189, "lon": 77.1178684, "satellites": 6, "altitude_gps_m": 260.6600036621094, "groundspeed_mps": 0.9166073203086853}, "flight": {"mode": "STABILIZE", "armed": false}, "ekf": {"attitude": {"roll": -0.009924735873937607, "pitch": 0.041732121258974075, "yaw": -2.1471612453460693}, "local_position": {"x": null, "y": null, "z": null}, "status": {"flags": 135, "velocity_variance": 0.0, "pos_horiz_variance": 0.2173866331577301, "pos_vert_variance": 0.0036166508216410875}}, "errors": ["PreArm: Hardware safety switch", "PreArm: Hardware safety switch", "EKF3 IMU1 forced reset", "EKF3 IMU1 initialised", "EKF3 IMU1 tilt alignment complete", "EKF3 IMU1 MAG0 initial yaw alignment complete"]}
{"timestamp": "2026-01-07T15:47:14.397566Z", "telemetry": {"lat": 28.753019, "lon": 77.1178799, "satellites": 6, "altitude_gps_m": 264.0099792480469, "groundspeed_mps": 0.8159176111221313}, "flight": {"mode": "STABILIZE", "armed": false}, "ekf": {"attitude": {"roll": 0.08014276623725891, "pitch": 0.09810355305671692, "yaw": -1.1939319372177124}, "local_position": {"x": null, "y": null, "z": null}, "status": {"flags": 1024, "velocity_variance": 0.0, "pos_horiz_variance": 0.2433886080980301, "pos_vert_variance": 0.10809599608182907}}, "errors": ["PreArm: Hardware safety switch", "PreArm: Hardware safety switch", "EKF3 IMU1 forced reset", "EKF3 IMU1 initialised", "EKF3 IMU1 tilt alignment complete", "EKF3 IMU1 MAG0 initial yaw alignment complete", "PreArm: Hardware safety switch", "PreArm: Check mag field (xy diff:157>115)"]}
{"timestamp": "2026-01-07T15:47:15.397715Z", "telemetry": {"lat": 28.7530314, "lon": 77.1178895, "satellites": 6, "altitude_gps_m": 264.4700012207031, "groundspeed_mps": 0.6239271759986877}, "flight": {"mode": "STABILIZE", "armed": false}, "ekf": {"attitude": {"roll": 0.09336431324481964, "pitch": 0.053813036531209946, "yaw": -1.180740475654602}, "local_position": {"x": null, "y": null, "z": null}, "status": {"flags": 135, "velocity_variance": 0.0, "pos_horiz_variance": 0.20687972009181976, "pos_vert_variance": 0.3095580041408539}}, "errors": ["PreArm: Hardware safety switch", "PreArm: Hardware safety switch", "EKF3 IMU1 forced reset", "EKF3 IMU1 initialised", "EKF3 IMU1 tilt alignment complete", "EKF3 IMU1 MAG0 initial yaw alignment complete", "PreArm: Hardware safety switch", "PreArm: Check mag field (xy diff:157>115)"]}
{"timestamp": "2026-01-07T15:47:16.397299Z", "telemetry": {"lat": 28.7530422, "lon": 77.1178755, "satellites": 6, "altitude_gps_m": 268.5899963378906, "groundspeed_mps": 0.4834918975830078}, "flight": {"mode": "STABILIZE", "armed": false}, "ekf": {"attitude": {"roll": -0.15442422032356262, "pitch": 0.04445107653737068, "yaw": -1.2714279890060425}, "local_position": {"x": null, "y": null, "z": null}, "status": {"flags": 135, "velocity_variance": 0.0, "pos_horiz_variance": 0.14556843042373657, "pos_vert_variance": 0.12432269752025604}}, "errors": ["PreArm: Hardware safety switch", "PreArm: Hardware safety switch", "EKF3 IMU1 forced reset", "EKF3 IMU1 initialised", "EKF3 IMU1 tilt alignment complete", "EKF3 IMU1 MAG0 initial yaw alignment complete", "PreArm: Hardware safety switch", "PreArm: Check mag field (xy diff:157>115)"]}
{"timestamp": "2026-01-07T15:47:17.397063Z", "telemetry": {"lat": 28.7530456, "lon": 77.1178647, "satellites": 6, "altitude_gps_m": 268.9100036621094, "groundspeed_mps": 0.6091957688331604}, "flight": {"mode": "STABILIZE", "armed": false}, "ekf": {"attitude": {"roll": 0.034077804535627365, "pitch": -0.05691642686724663, "yaw": -1.2661006450653076}, "local_position": {"x": null, "y": null, "z": null}, "status": {"flags": 135, "velocity_variance": 0.0, "pos_horiz_variance": 0.08780738711357117, "pos_vert_variance": 0.06838115304708481}}, "errors": ["PreArm: Hardware safety switch", "PreArm: Hardware safety switch", "EKF3 IMU1 forced reset", "EKF3 IMU1 initialised", "EKF3 IMU1 tilt alignment complete", "EKF3 IMU1 MAG0 initial yaw alignment complete", "PreArm: Hardware safety switch", "PreArm: Check mag field (xy diff:157>115)"]}
{"timestamp": "2026-01-07T15:47:18.401664Z", "telemetry": {"lat": 28.7530369, "lon": 77.117857, "satellites": 6, "altitude_gps_m": 269.75, "groundspeed_mps": 0.7259160876274109}, "flight": {"mode": "STABILIZE", "armed": false}, "ekf": {"attitude": {"roll": 0.032569125294685364, "pitch": -0.056899577379226685, "yaw": -1.2745962142944336}, "local_position": {"x": null, "y": null, "z": null}, "status": {"flags": 135, "velocity_variance": 0.0, "pos_horiz_variance": 0.11714110523462296, "pos_vert_variance": 0.12489651143550873}}, "errors": ["PreArm: Hardware safety switch", "PreArm: Hardware safety switch", "EKF3 IMU1 forced reset", "EKF3 IMU1 initialised", "EKF3 IMU1 tilt alignment complete", "EKF3 IMU1 MAG0 initial yaw alignment complete", "PreArm: Hardware safety switch", "PreArm: Check mag field (xy diff:157>115)"]}
{"timestamp": "2026-01-07T15:47:19.398410Z", "telemetry": {"lat": 28.7530204, "lon": 77.1178735, "satellites": 5, "altitude_gps_m": 271.8699951171875, "groundspeed_mps": 0.7862527966499329}, "flight": {"mode": "STABILIZE", "armed": false}, "ekf": {"attitude": {"roll": 0.029555240646004677, "pitch": -0.05552978813648224, "yaw": -1.2843084335327148}, "local_position": {"x": null, "y": null, "z": null}, "status": {"flags": 135, "velocity_variance": 0.0, "pos_horiz_variance": 0.16418765485286713, "pos_vert_variance": 0.04216666519641876}}, "errors": ["PreArm: Hardware safety switch", "PreArm: Hardware safety switch", "EKF3 IMU1 forced reset", "EKF3 IMU1 initialised", "EKF3 IMU1 tilt alignment complete", "EKF3 IMU1 MAG0 initial yaw alignment complete", "PreArm: Hardware safety switch", "PreArm: Check mag field (xy diff:157>115)"]}
{"timestamp": "2026-01-07T15:47:20.397531Z", "telemetry": {"lat": 28.7530286, "lon": 77.1178743, "satellites": 5, "altitude_gps_m": 275.32000732421875, "groundspeed_mps": 0.7217511534690857}, "flight": {"mode": "STABILIZE", "armed": false}, "ekf": {"attitude": {"roll": 0.025160185992717743, "pitch": -0.051523607224226, "yaw": -1.293703317642212}, "local_position": {"x": null, "y": null, "z": null}, "status": {"flags": 135, "velocity_variance": 0.0, "pos_horiz_variance": 0.18960483372211456, "pos_vert_variance": 0.09554377943277359}}, "errors": ["PreArm: Hardware safety switch", "PreArm: Hardware safety switch", "EKF3 IMU1 forced reset", "EKF3 IMU1 initialised", "EKF3 IMU1 tilt alignment complete", "EKF3 IMU1 MAG0 initial yaw alignment complete", "PreArm: Hardware safety switch", "PreArm: Check mag field (xy diff:157>115)"]}
{"timestamp": "2026-01-07T15:47:21.397368Z", "telemetry": {"lat": 28.7530354, "lon": 77.1178878, "satellites": 5, "altitude_gps_m": 278.47998046875, "groundspeed_mps": 0.625720739364624}, "flight": {"mode": "STABILIZE", "armed": false}, "ekf": {"attitude": {"roll": 0.02237299643456936, "pitch": -0.048386652022600174, "yaw": -1.298538327217102}, "local_position": {"x": null, "y": null, "z": null}, "status": {"flags": 135, "velocity_variance": 0.0, "pos_horiz_variance": 0.18843860924243927, "pos_vert_variance": 0.07827384024858475}}, "errors": ["PreArm: Hardware safety switch", "PreArm: Hardware safety switch", "EKF3 IMU1 forced reset", "EKF3 IMU1 initialised", "EKF3 IMU1 tilt alignment complete", "EKF3 IMU1 MAG0 initial yaw alignment complete", "PreArm: Hardware safety switch", "PreArm: Check mag field (xy diff:157>115)"]}
{"timestamp": "2026-01-07T15:47:22.396926Z", "telemetry": {"lat": 28.7530256, "lon": 77.1178853, "satellites": 4, "altitude_gps_m": 279.3399963378906, "groundspeed_mps": 0.45931074023246765}, "flight": {"mode": "STABILIZE", "armed": false}, "ekf": {"attitude": {"roll": 0.018683677539229393, "pitch": -0.043981388211250305, "yaw": -1.3048882484436035}, "local_position": {"x": null, "y": null, "z": null}, "status": {"flags": 135, "velocity_variance": 0.0, "pos_horiz_variance": 0.16521652042865753, "pos_vert_variance": 0.04708683863282204}}, "errors": ["PreArm: Hardware safety switch", "PreArm: Hardware safety switch", "EKF3 IMU1 forced reset", "EKF3 IMU1 initialised", "EKF3 IMU1 tilt alignment complete", "EKF3 IMU1 MAG0 initial yaw alignment complete", "PreArm: Hardware safety switch", "PreArm: Check mag field (xy diff:157>115)"]}
{"timestamp": "2026-01-07T15:47:23.397574Z", "telemetry": {"lat": 28.7530262, "lon": 77.1178759, "satellites": 5, "altitude_gps_m": 278.9599914550781, "groundspeed_mps": 0.24131010472774506}, "flight": {"mode": "STABILIZE", "armed": false}, "ekf": {"attitude": {"roll": 0.012793485075235367, "pitch": -0.0404825434088707, "yaw": -1.313992977142334}, "local_position": {"x": null, "y": null, "z": null}, "status": {"flags": 135, "velocity_variance": 0.0, "pos_horiz_variance": 0.1285536289215088, "pos_vert_variance": 0.24380062520503998}}, "errors": ["PreArm: Hardware safety switch", "PreArm: Hardware safety switch", "EKF3 IMU1 forced reset", "EKF3 IMU1 initialised", "EKF3 IMU1 tilt alignment complete", "EKF3 IMU1 MAG0 initial yaw alignment complete", "PreArm: Hardware safety switch", "PreArm: Check mag field (xy diff:157>115)"]}
{"timestamp": "2026-01-07T15:47:24.397507Z", "telemetry": {"lat": 28.7530264, "lon": 77.1178715, "satellites": 5, "altitude_gps_m": 278.6499938964844, "groundspeed_mps": 0.12656646966934204}, "flight": {"mode": "STABILIZE", "armed": false}, "ekf": {"attitude": {"roll": 0.010729655623435974, "pitch": -0.038212187588214874, "yaw": -1.319413185119629}, "local_position": {"x": null, "y": null, "z": null}, "status": {"flags": 135, "velocity_variance": 0.0, "pos_horiz_variance": 0.08718810975551605, "pos_vert_variance": 0.11289287358522415}}, "errors": ["PreArm: Hardware safety switch", "PreArm: Hardware safety switch", "EKF3 IMU1 forced reset", "EKF3 IMU1 initialised", "EKF3 IMU1 tilt alignment complete", "EKF3 IMU1 MAG0 initial yaw alignment complete", "PreArm: Hardware safety switch", "PreArm: Check mag field (xy diff:157>115)"]}
{"timestamp": "2026-01-07T15:47:25.402290Z", "telemetry": {"lat": 28.7530254, "lon": 77.1178684, "satellites": 5, "altitude_gps_m": 279.3699951171875, "groundspeed_mps": 0.055182311683893204}, "flight": {"mode": "STABILIZE", "armed": false}, "ekf": {"attitude": {"roll": 0.009337879717350006, "pitch": -0.03538663312792778, "yaw": -1.3275377750396729}, "local_position": {"x": null, "y": null, "z": null}, "status": {"flags": 135, "velocity_variance": 0.0, "pos_horiz_variance": 0.04752631485462189, "pos_vert_variance": 0.0625540092587471}}, "errors": ["PreArm: Hardware safety switch", "PreArm: Hardware safety switch", "EKF3 IMU1 forced reset", "EKF3 IMU1 initialised", "EKF3 IMU1 tilt alignment complete", "EKF3 IMU1 MAG0 initial yaw alignment complete", "PreArm: Hardware safety switch", "PreArm: Check mag field (xy diff:157>115)"]}
{"timestamp": "2026-01-07T15:47:26.398881Z", "telemetry": {"lat": 28.7530172, "lon": 77.1178823, "satellites": 6, "altitude_gps_m": 285.6000061035156, "groundspeed_mps": 0.13322918117046356}, "flight": {"mode": "STABILIZE", "armed": false}, "ekf": {"attitude": {"roll": 0.008630786091089249, "pitch": -0.033204786479473114, "yaw": -1.3381050825119019}, "local_position": {"x": null, "y": null, "z": null}, "status": {"flags": 135, "velocity_variance": 0.0, "pos_horiz_variance": 0.015517177991569042, "pos_vert_variance": 0.0812121033668518}}, "errors": ["PreArm: Hardware safety switch", "PreArm: Hardware safety switch", "EKF3 IMU1 forced reset", "EKF3 IMU1 initialised", "EKF3 IMU1 tilt alignment complete", "EKF3 IMU1 MAG0 initial yaw alignment complete", "PreArm: Hardware safety switch", "PreArm: Check mag field (xy diff:157>115)"]}
{"timestamp": "2026-01-07T15:47:27.397173Z", "telemetry": {"lat": 28.7529997, "lon": 77.1179057, "satellites": 6, "altitude_gps_m": 287.92999267578125, "groundspeed_mps": 0.16902978718280792}, "flight": {"mode": "STABILIZE", "armed": false}, "ekf": {"attitude": {"roll": 0.008726540952920914, "pitch": -0.03230452165007591, "yaw": -1.3448636531829834}, "local_position": {"x": null, "y": null, "z": null}, "status": {"flags": 135, "velocity_variance": 0.0, "pos_horiz_variance": 0.014909760095179081, "pos_vert_variance": 0.06914504617452621}}, "errors": ["PreArm: Hardware safety switch", "PreArm: Hardware safety switch", "EKF3 IMU1 forced reset", "EKF3 IMU1 initialised", "EKF3 IMU1 tilt alignment complete", "EKF3 IMU1 MAG0 initial yaw alignment complete", "PreArm: Hardware safety switch", "PreArm: Check mag field (xy diff:157>115)"]}
{"timestamp": "2026-01-07T15:47:28.396801Z", "telemetry": {"lat": 28.7529949, "lon": 77.1179146, "satellites": 4, "altitude_gps_m": 287.16998291015625, "groundspeed_mps": 0.1947346180677414}, "flight": {"mode": "STABILIZE", "armed": false}, "ekf": {"attitude": {"roll": 0.009019926190376282, "pitch": -0.03173375874757767, "yaw": -1.3534128665924072}, "local_position": {"x": null, "y": null, "z": null}, "status": {"flags": 135, "velocity_variance": 0.0, "pos_horiz_variance": 0.0312209352850914, "pos_vert_variance": 0.06221194192767143}}, "errors": ["PreArm: Hardware safety switch", "PreArm: Hardware safety switch", "EKF3 IMU1 forced reset", "EKF3 IMU1 initialised", "EKF3 IMU1 tilt alignment complete", "EKF3 IMU1 MAG0 initial yaw alignment complete", "PreArm: Hardware safety switch", "PreArm: Check mag field (xy diff:157>115)"]}
