{"timestamp": "2025-12-28T10:30:57.868607Z", "telemetry": {"lat": 28.7531595, "lon": 77.1176705, "satellites": 7, "altitude_gps_m": 213.01998901367188, "groundspeed_mps": 0.23321053385734558}, "flight": {"mode": null, "armed": null}, "ekf": {"attitude": {"roll": -0.03169817104935646, "pitch": -0.007670869585126638, "yaw": 3.0478439331054688}, "local_position": {"x": 9.835393905639648, "y": -20.415325164794922, "z": -4.090845584869385}, "status": {"flags": 33599, "velocity_variance": 0.07528913766145706, "pos_horiz_variance": 0.013235795311629772, "pos_vert_variance": 0.011071759276092052}}, "errors": []}
{"timestamp": "2025-12-28T10:30:58.868603Z", "telemetry": {"lat": 28.753158, "lon": 77.1176726, "satellites": 6, "altitude_gps_m": 212.9099884033203, "groundspeed_mps": 0.21060331165790558}, "flight": {"mode": "STABILIZE", "armed": false}, "ekf": {"attitude": {"roll": -0.031132284551858902, "pitch": -0.008443506434559822, "yaw": 3.0477309226989746}, "local_position": {"x": 9.526568412780762, "y": -20.277944564819336, "z": -3.982346534729004}, "status": {"flags": 33599, "velocity_variance": 0.0914747342467308, "pos_horiz_variance": 0.012406613677740097, "pos_vert_variance": 0.12432952970266342}}, "errors": []}
{"timestamp": "2025-12-28T10:30:59.868617Z", "telemetry": {"lat": 28.7531579, "lon": 77.1176752, "satellites": 6, "altitude_gps_m": 212.95999145507812, "groundspeed_mps": 0.22352385520935059}, "flight": {"mode": "STABILIZE", "armed": false}, "ekf": {"attitude": {"roll": -0.0305514894425869, "pitch": -0.008793555200099945, "yaw": 3.047598361968994}, "local_position": {"x": 9.327601432800293, "y": -20.12693214416504, "z": -4.0296759605407715}, "status": {"flags": 33599, "velocity_variance": 0.05170922726392746, "pos_horiz_variance": 0.012401144951581955, "pos_vert_variance": 0.02059752866625786}}, "errors": []}
{"timestamp": "2025-12-28T10:31:00.871506Z", "telemetry": {"lat": 28.7531588, "lon": 77.1176793, "satellites": 6, "altitude_gps_m": 212.95999145507812, "groundspeed_mps": 0.25753849744796753}, "flight": {"mode": "STABILIZE", "armed": false}, "ekf": {"attitude": {"roll": -0.03049592301249504, "pitch": -0.009059663861989975, "yaw": 3.0475666522979736}, "local_position": {"x": 9.101142883300781, "y": -19.807735443115234, "z": -4.032260417938232}, "status": {"flags": 33599, "velocity_variance": 0.1022721379995346, "pos_horiz_variance": 0.012848945334553719, "pos_vert_variance": 0.05493964999914169}}, "errors": ["PreArm: Hardware safety switch", "PreArm: Internal errors 0x100000 l:66 flow_of_ctrl"]}
{"timestamp": "2025-12-28T10:31:01.868442Z", "telemetry": {"lat": 28.7531627, "lon": 77.1176818, "satellites": 7, "altitude_gps_m": 212.9499969482422, "groundspeed_mps": 0.2314818948507309}, "flight": {"mode": "STABILIZE", "armed": false}, "ekf": {"attitude": {"roll": -0.030349258333444595, "pitch": -0.008238513022661209, "yaw": 3.0474021434783936}, "local_position": {"x": 9.127724647521973, "y": -19.610788345336914, "z": -3.9847207069396973}, "status": {"flags": 33599, "velocity_variance": 0.27640649676322937, "pos_horiz_variance": 0.016953423619270325, "pos_vert_variance": 0.13821585476398468}}, "errors": ["PreArm: Hardware safety switch", "PreArm: Internal errors 0x100000 l:66 flow_of_ctrl"]}
{"timestamp": "2025-12-28T10:31:02.868207Z", "telemetry": {"lat": 28.7531691, "lon": 77.1176858, "satellites": 8, "altitude_gps_m": 213.0699920654297, "groundspeed_mps": 0.16839134693145752}, "flight": {"mode": "STABILIZE", "armed": false}, "ekf": {"attitude": {"roll": -0.030042950063943863, "pitch": -0.007069299463182688, "yaw": 3.047398567199707}, "local_position": {"x": 9.485432624816895, "y": -19.32130241394043, "z": -4.1288533210754395}, "status": {"flags": 33599, "velocity_variance": 0.10902324318885803, "pos_horiz_variance": 0.023278044536709785, "pos_vert_variance": 0.018846863880753517}}, "errors": ["PreArm: Hardware safety switch", "PreArm: Internal errors 0x100000 l:66 flow_of_ctrl"]}
{"timestamp": "2025-12-28T10:31:03.868049Z", "telemetry": {"lat": 28.7531662, "lon": 77.1176863, "satellites": 8, "altitude_gps_m": 213.08999633789062, "groundspeed_mps": 0.15095584094524384}, "flight": {"mode": "STABILIZE", "armed": false}, "ekf": {"attitude": {"roll": -0.029644791036844254, "pitch": -0.0072318376041948795, "yaw": 3.0473110675811768}, "local_position": {"x": 9.567158699035645, "y": -19.126930236816406, "z": -4.161854267120361}, "status": {"flags": 33599, "velocity_variance": 0.09547625482082367, "pos_horiz_variance": 0.016798995435237885, "pos_vert_variance": 0.040180593729019165}}, "errors": ["PreArm: Hardware safety switch", "PreArm: Internal errors 0x100000 l:66 flow_of_ctrl"]}
{"timestamp": "2025-12-28T10:31:04.868297Z", "telemetry": {"lat": 28.753168, "lon": 77.1176896, "satellites": 8, "altitude_gps_m": 213.09999084472656, "groundspeed_mps": 0.13801895081996918}, "flight": {"mode": "STABILIZE", "armed": false}, "ekf": {"attitude": {"roll": -0.029808666557073593, "pitch": -0.00672121113166213, "yaw": 3.0473577976226807}, "local_position": {"x": 9.635406494140625, "y": -18.912294387817383, "z": -4.178057670593262}, "status": {"flags": 33599, "velocity_variance": 0.06882980465888977, "pos_horiz_variance": 0.019635802134871483, "pos_vert_variance": 0.039385680109262466}}, "errors": ["PreArm: Hardware safety switch", "PreArm: Internal errors 0x100000 l:66 flow_of_ctrl"]}
{"timestamp": "2025-12-28T10:31:05.868345Z", "telemetry": {"lat": 28.7531646, "lon": 77.1176893, "satellites": 9, "altitude_gps_m": 213.04998779296875, "groundspeed_mps": 0.14380262792110443}, "flight": {"mode": "STABILIZE", "armed": false}, "ekf": {"attitude": {"roll": -0.029358405619859695, "pitch": -0.006939602550119162, "yaw": 3.0471549034118652}, "local_position": {"x": 9.562899589538574, "y": -18.78481101989746, "z": -4.123534679412842}, "status": {"flags": 33599, "velocity_variance": 0.036681801080703735, "pos_horiz_variance": 0.014278300106525421, "pos_vert_variance": 0.035484470427036285}}, "errors": ["PreArm: Hardware safety switch", "PreArm: Internal errors 0x100000 l:66 flow_of_ctrl"]}
{"timestamp": "2025-12-28T10:31:06.868156Z", "telemetry": {"lat": 28.7531597, "lon": 77.1176866, "satellites": 9, "altitude_gps_m": 212.9499969482422, "groundspeed_mps": 0.16638387739658356}, "flight": {"mode": "STABILIZE", "armed": false}, "ekf": {"attitude": {"roll": -0.028863560408353806, "pitch": -0.006955243181437254, "yaw": 3.0470218658447266}, "local_position": {"x": 9.386012077331543, "y": -18.82237434387207, "z": -4.020225524902344}, "status": {"flags": 33599, "velocity_variance": 0.08808748424053192, "pos_horiz_variance": 0.008531419560313225, "pos_vert_variance": 0.06977307796478271}}, "errors": ["PreArm: Hardware safety switch", "PreArm: Internal errors 0x100000 l:66 flow_of_ctrl"]}
{"timestamp": "2025-12-28T10:31:07.868420Z", "telemetry": {"lat": 28.7531628, "lon": 77.1176915, "satellites": 9, "altitude_gps_m": 212.92999267578125, "groundspeed_mps": 0.1343996822834015}, "flight": {"mode": "STABILIZE", "armed": false}, "ekf": {"attitude": {"roll": -0.029214438050985336, "pitch": -0.0062383986078202724, "yaw": 3.0468907356262207}, "local_position": {"x": 9.408553123474121, "y": -18.610689163208008, "z": -4.000809192657471}, "status": {"flags": 33599, "velocity_variance": 0.10649289935827255, "pos_horiz_variance": 0.014616573229432106, "pos_vert_variance": 0.05602284148335457}}, "errors": ["PreArm: Hardware safety switch", "PreArm: Internal errors 0x100000 l:66 flow_of_ctrl"]}
{"timestamp": "2025-12-28T10:31:08.868006Z", "telemetry": {"lat": 28.7531626, "lon": 77.1176948, "satellites": 9, "altitude_gps_m": 212.95999145507812, "groundspeed_mps": 0.11721385270357132}, "flight": {"mode": "STABILIZE", "armed": false}, "ekf": {"attitude": {"roll": -0.029481176286935806, "pitch": -0.00588838430121541, "yaw": 3.046846628189087}, "local_position": {"x": 9.468280792236328, "y": -18.313085556030273, "z": -4.035578727722168}, "status": {"flags": 33599, "velocity_variance": 0.14318396151065826, "pos_horiz_variance": 0.015127505175769329, "pos_vert_variance": 0.07811715453863144}}, "errors": ["PreArm: Hardware safety switch", "PreArm: Internal errors 0x100000 l:66 flow_of_ctrl"]}
{"timestamp": "2025-12-28T10:31:09.867951Z", "telemetry": {"lat": 28.7531656, "lon": 77.1176987, "satellites": 8, "altitude_gps_m": 213.0, "groundspeed_mps": 0.0797058492898941}, "flight": {"mode": "STABILIZE", "armed": false}, "ekf": {"attitude": {"roll": -0.029906127601861954, "pitch": -0.0047636800445616245, "yaw": 3.046840190887451}, "local_position": {"x": 9.66652774810791, "y": -17.996417999267578, "z": -4.078113079071045}, "status": {"flags": 33599, "velocity_variance": 0.041460152715444565, "pos_horiz_variance": 0.018174422904849052, "pos_vert_variance": 0.019341209903359413}}, "errors": ["PreArm: Hardware safety switch", "PreArm: Internal errors 0x100000 l:66 flow_of_ctrl"]}
{"timestamp": "2025-12-28T10:31:10.871049Z", "telemetry": {"lat": 28.7531627, "lon": 77.1176967, "satellites": 8, "altitude_gps_m": 212.989990234375, "groundspeed_mps": 0.05048976466059685}, "flight": {"mode": "STABILIZE", "armed": false}, "ekf": {"attitude": {"roll": -0.029761213809251785, "pitch": -0.004633425269275904, "yaw": 3.046781063079834}, "local_position": {"x": 9.767966270446777, "y": -17.862516403198242, "z": -4.059719562530518}, "status": {"flags": 33599, "velocity_variance": 0.11642935872077942, "pos_horiz_variance": 0.00971886795014143, "pos_vert_variance": 0.030349239706993103}}, "errors": ["PreArm: Hardware safety switch", "PreArm: Internal errors 0x100000 l:66 flow_of_ctrl"]}
{"timestamp": "2025-12-28T10:31:11.868473Z", "telemetry": {"lat": 28.7531561, "lon": 77.1176931, "satellites": 9, "altitude_gps_m": 213.0, "groundspeed_mps": 0.06150416284799576}, "flight": {"mode": "STABILIZE", "armed": false}, "ekf": {"attitude": {"roll": -0.02935674414038658, "pitch": -0.005001149605959654, "yaw": 3.0466790199279785}, "local_position": {"x": 9.552106857299805, "y": -17.837491989135742, "z": -4.0748772621154785}, "status": {"flags": 33599, "velocity_variance": 0.14908087253570557, "pos_horiz_variance": 0.012811005115509033, "pos_vert_variance": 0.0036887049209326506}}, "errors": ["PreArm: Hardware safety switch", "PreArm: Internal errors 0x100000 l:66 flow_of_ctrl"]}
{"timestamp": "2025-12-28T10:31:12.868195Z", "telemetry": {"lat": 28.7531471, "lon": 77.117685, "satellites": 9, "altitude_gps_m": 213.0, "groundspeed_mps": 0.1941060870885849}, "flight": {"mode": "STABILIZE", "armed": false}, "ekf": {"attitude": {"roll": -0.028263133019208908, "pitch": -0.006256359163671732, "yaw": 3.0465073585510254}, "local_position": {"x": 9.004443168640137, "y": -18.132356643676758, "z": -4.070284366607666}, "status": {"flags": 33599, "velocity_variance": 0.14278653264045715, "pos_horiz_variance": 0.02548922784626484, "pos_vert_variance": 0.01282729022204876}}, "errors": ["PreArm: Hardware safety switch", "PreArm: Internal errors 0x100000 l:66 flow_of_ctrl"]}
{"timestamp": "2025-12-28T10:31:13.868004Z", "telemetry": {"lat": 28.7531458, "lon": 77.1176825, "satellites": 9, "altitude_gps_m": 213.00999450683594, "groundspeed_mps": 0.2578577399253845}, "flight": {"mode": "STABILIZE", "armed": false}, "ekf": {"attitude": {"roll": -0.028262946754693985, "pitch": -0.0062835742719471455, "yaw": 3.0465035438537598}, "local_position": {"x": 8.679486274719238, "y": -18.365079879760742, "z": -4.1023945808410645}, "status": {"flags": 33599, "velocity_variance": 0.13453002274036407, "pos_horiz_variance": 0.021973690018057823, "pos_vert_variance": 0.0820179432630539}}, "errors": ["PreArm: Hardware safety switch", "PreArm: Internal errors 0x100000 l:66 flow_of_ctrl"]}
{"timestamp": "2025-12-28T10:31:14.868487Z", "telemetry": {"lat": 28.7531494, "lon": 77.1176834, "satellites": 9, "altitude_gps_m": 212.97000122070312, "groundspeed_mps": 0.20413200557231903}, "flight": {"mode": "STABILIZE", "armed": false}, "ekf": {"attitude": {"roll": -0.02874239906668663, "pitch": -0.005254785064607859, "yaw": 3.046427011489868}, "local_position": {"x": 8.598701477050781, "y": -18.41381072998047, "z": -4.042104244232178}, "status": {"flags": 33599, "velocity_variance": 0.10106726735830307, "pos_horiz_variance": 0.01254810020327568, "pos_vert_variance": 0.020219407975673676}}, "errors": ["PreArm: Hardware safety switch", "PreArm: Internal errors 0x100000 l:66 flow_of_ctrl"]}
{"timestamp": "2025-12-28T10:31:15.867923Z", "telemetry": {"lat": 28.7531505, "lon": 77.1176827, "satellites": 9, "altitude_gps_m": 212.86000061035156, "groundspeed_mps": 0.19400136172771454}, "flight": {"mode": "STABILIZE", "armed": false}, "ekf": {"attitude": {"roll": -0.02931014820933342, "pitch": -0.004708639811724424, "yaw": 3.0464391708374023}, "local_position": {"x": 8.511549949645996, "y": -18.549297332763672, "z": -3.9385628700256348}, "status": {"flags": 33599, "velocity_variance": 0.09601814299821854, "pos_horiz_variance": 0.007652635686099529, "pos_vert_variance": 0.005808014422655106}}, "errors": ["PreArm: Hardware safety switch", "PreArm: Internal errors 0x100000 l:66 flow_of_ctrl"]}
{"timestamp": "2025-12-28T10:31:16.867882Z", "telemetry": {"lat": 28.7531474, "lon": 77.1176792, "satellites": 8, "altitude_gps_m": 212.8699951171875, "groundspeed_mps": 0.21910709142684937}, "flight": {"mode": "STABILIZE", "armed": false}, "ekf": {"attitude": {"roll": -0.029182057827711105, "pitch": -0.004857957828789949, "yaw": 3.046481132507324}, "local_position": {"x": 8.392784118652344, "y": -18.68804931640625, "z": -3.931691884994507}, "status": {"flags": 33599, "velocity_variance": 0.04581233486533165, "pos_horiz_variance": 0.013633199036121368, "pos_vert_variance": 0.020368877798318863}}, "errors": ["PreArm: Hardware safety switch", "PreArm: Internal errors 0x100000 l:66 flow_of_ctrl"]}
{"timestamp": "2025-12-28T10:31:17.868439Z", "telemetry": {"lat": 28.7531455, "lon": 77.1176762, "satellites": 7, "altitude_gps_m": 212.9099884033203, "groundspeed_mps": 0.26154354214668274}, "flight": {"mode": "STABILIZE", "armed": false}, "ekf": {"attitude": {"roll": -0.02901967242360115, "pitch": -0.005147212650626898, "yaw": 3.0463056564331055}, "local_position": {"x": 8.15380573272705, "y": -18.949413299560547, "z": -3.9805219173431396}, "status": {"flags": 33599, "velocity_variance": 0.06919125467538834, "pos_horiz_variance": 0.014041867107152939, "pos_vert_variance": 0.058914631605148315}}, "errors": ["PreArm: Hardware safety switch", "PreArm: Internal errors 0x100000 l:66 flow_of_ctrl"]}
{"timestamp": "2025-12-28T10:31:18.868374Z", "telemetry": {"lat": 28.7531433, "lon": 77.1176743, "satellites": 7, "altitude_gps_m": 212.989990234375, "groundspeed_mps": 0.27396029233932495}, "flight": {"mode": "STABILIZE", "armed": false}, "ekf": {"attitude": {"roll": -0.02916552498936653, "pitch": -0.0049509224481880665, "yaw": 3.0462186336517334}, "local_position": {"x": 7.913390159606934, "y": -19.169490814208984, "z": -4.033038139343262}, "status": {"flags": 33599, "velocity_variance": 0.08338708430528641, "pos_horiz_variance": 0.01326068490743637, "pos_vert_variance": 0.04166853800415993}}, "errors": ["PreArm: Hardware safety switch", "PreArm: Internal errors 0x100000 l:66 flow_of_ctrl"]}
{"timestamp": "2025-12-28T10:31:19.868484Z", "telemetry": {"lat": 28.75314, "lon": 77.1176727, "satellites": 7, "altitude_gps_m": 212.9199981689453, "groundspeed_mps": 0.2542032301425934}, "flight": {"mode": "STABILIZE", "armed": false}, "ekf": {"attitude": {"roll": -0.030119087547063828, "pitch": -0.005131187383085489, "yaw": 3.046217918395996}, "local_position": {"x": 7.6836113929748535, "y": -19.255496978759766, "z": -4.013514041900635}, "status": {"flags": 33599, "velocity_variance": 0.12336108833551407, "pos_horiz_variance": 0.01746070757508278, "pos_vert_variance": 0.019378747791051865}}, "errors": ["PreArm: Hardware safety switch", "PreArm: Internal errors 0x100000 l:66 flow_of_ctrl"]}
{"timestamp": "2025-12-28T10:31:20.873614Z", "telemetry": {"lat": 28.7531375, "lon": 77.1176699, "satellites": 8, "altitude_gps_m": 212.9099884033203, "groundspeed_mps": 0.264585018157959}, "flight": {"mode": "STABILIZE", "armed": false}, "ekf": {"attitude": {"roll": -0.030178014189004898, "pitch": -0.005009171087294817, "yaw": 3.046217441558838}, "local_position": {"x": 7.437414646148682, "y": -19.442317962646484, "z": -3.95646333694458}, "status": {"flags": 33599, "velocity_variance": 0.08048021048307419, "pos_horiz_variance": 0.018225135281682014, "pos_vert_variance": 0.03999592363834381}}, "errors": ["PreArm: Hardware safety switch", "PreArm: Internal errors 0x100000 l:66 flow_of_ctrl"]}
{"timestamp": "2025-12-28T10:31:21.870590Z", "telemetry": {"lat": 28.753137, "lon": 77.1176677, "satellites": 8, "altitude_gps_m": 213.0, "groundspeed_mps": 0.22636160254478455}, "flight": {"mode": "STABILIZE", "armed": false}, "ekf": {"attitude": {"roll": -0.030810531228780746, "pitch": -0.004387828055769205, "yaw": 3.046166181564331}, "local_position": {"x": 7.312407970428467, "y": -19.673036575317383, "z": -4.078279972076416}, "status": {"flags": 33599, "velocity_variance": 0.07235369086265564, "pos_horiz_variance": 0.017468135803937912, "pos_vert_variance": 0.012536207213997841}}, "errors": ["PreArm: Hardware safety switch", "PreArm: Internal errors 0x100000 l:66 flow_of_ctrl"]}
{"timestamp": "2025-12-28T10:31:22.867866Z", "telemetry": {"lat": 28.7531386, "lon": 77.1176685, "satellites": 8, "altitude_gps_m": 212.94000244140625, "groundspeed_mps": 0.15990863740444183}, "flight": {"mode": "STABILIZE", "armed": false}, "ekf": {"attitude": {"roll": -0.03161456063389778, "pitch": -0.003548192325979471, "yaw": 3.046222448348999}, "local_position": {"x": 7.314101219177246, "y": -19.758878707885742, "z": -4.013644695281982}, "status": {"flags": 33599, "velocity_variance": 0.11709023267030716, "pos_horiz_variance": 0.012010597623884678, "pos_vert_variance": 0.07931913435459137}}, "errors": ["PreArm: Hardware safety switch", "PreArm: Internal errors 0x100000 l:66 flow_of_ctrl"]}
{"timestamp": "2025-12-28T10:31:23.868732Z", "telemetry": {"lat": 28.7531421, "lon": 77.1176697, "satellites": 8, "altitude_gps_m": 212.9099884033203, "groundspeed_mps": 0.08927369862794876}, "flight": {"mode": "STABILIZE", "armed": false}, "ekf": {"attitude": {"roll": -0.03253140673041344, "pitch": -0.0024284441024065018, "yaw": 3.046194553375244}, "local_position": {"x": 7.4948272705078125, "y": -19.765411376953125, "z": -3.985553741455078}, "status": {"flags": 33599, "velocity_variance": 0.07718602567911148, "pos_horiz_variance": 0.0069733308628201485, "pos_vert_variance": 0.013815294951200485}}, "errors": ["PreArm: Hardware safety switch", "PreArm: Internal errors 0x100000 l:66 flow_of_ctrl"]}
{"timestamp": "2025-12-28T10:31:24.868522Z", "telemetry": {"lat": 28.7531395, "lon": 77.1176667, "satellites": 8, "altitude_gps_m": 212.79998779296875, "groundspeed_mps": 0.0715586319565773}, "flight": {"mode": "STABILIZE", "armed": false}, "ekf": {"attitude": {"roll": -0.03303936496376991, "pitch": -0.0024422206915915012, "yaw": 3.046229124069214}, "local_position": {"x": 7.49137544631958, "y": -19.845680236816406, "z": -3.875401496887207}, "status": {"flags": 33599, "velocity_variance": 0.09962406009435654, "pos_horiz_variance": 0.013924437575042248, "pos_vert_variance": 0.05992079898715019}}, "errors": ["PreArm: Hardware safety switch", "PreArm: Internal errors 0x100000 l:66 flow_of_ctrl"]}
{"timestamp": "2025-12-28T10:31:25.868416Z", "telemetry": {"lat": 28.7531362, "lon": 77.1176621, "satellites": 8, "altitude_gps_m": 212.76998901367188, "groundspeed_mps": 0.09056814014911652}, "flight": {"mode": "STABILIZE", "armed": false}, "ekf": {"attitude": {"roll": -0.03272547200322151, "pitch": -0.0028307554312050343, "yaw": 3.046224594116211}, "local_position": {"x": 7.366945743560791, "y": -20.087873458862305, "z": -3.8473587036132812}, "status": {"flags": 33599, "velocity_variance": 0.16011539101600647, "pos_horiz_variance": 0.020712099969387054, "pos_vert_variance": 0.0219242163002491}}, "errors": ["PreArm: Hardware safety switch", "PreArm: Internal errors 0x100000 l:66 flow_of_ctrl"]}
{"timestamp": "2025-12-28T10:31:26.868567Z", "telemetry": {"lat": 28.7531315, "lon": 77.1176557, "satellites": 8, "altitude_gps_m": 212.79998779296875, "groundspeed_mps": 0.18143558502197266}, "flight": {"mode": "STABILIZE", "armed": false}, "ekf": {"attitude": {"roll": -0.03170391544699669, "pitch": -0.004000652115792036, "yaw": 3.046234369277954}, "local_position": {"x": 6.925040245056152, "y": -20.5700626373291, "z": -3.8744988441467285}, "status": {"flags": 33599, "velocity_variance": 0.08360446989536285, "pos_horiz_variance": 0.02522377111017704, "pos_vert_variance": 0.0289109218865633}}, "errors": ["PreArm: Hardware safety switch", "PreArm: Internal errors 0x100000 l:66 flow_of_ctrl"]}
{"timestamp": "2025-12-28T10:31:27.868318Z", "telemetry": {"lat": 28.7531295, "lon": 77.1176521, "satellites": 9, "altitude_gps_m": 212.84999084472656, "groundspeed_mps": 0.246877521276474}, "flight": {"mode": "STABILIZE", "armed": false}, "ekf": {"attitude": {"roll": -0.03125075623393059, "pitch": -0.004669868852943182, "yaw": 3.0463075637817383}, "local_position": {"x": 6.532437324523926, "y": -20.977067947387695, "z": -3.9253039360046387}, "status": {"flags": 33599, "velocity_variance": 0.08105634152889252, "pos_horiz_variance": 0.022940421476960182, "pos_vert_variance": 0.032020945101976395}}, "errors": ["PreArm: Hardware safety switch", "PreArm: Internal errors 0x100000 l:66 flow_of_ctrl"]}
{"timestamp": "2025-12-28T10:31:28.868189Z", "telemetry": {"lat": 28.7531357, "lon": 77.1176535, "satellites": 9, "altitude_gps_m": 212.92999267578125, "groundspeed_mps": 0.2082209289073944}, "flight": {"mode": "STABILIZE", "armed": false}, "ekf": {"attitude": {"roll": -0.03168514743447304, "pitch": -0.0035919216461479664, "yaw": 3.046245813369751}, "local_position": {"x": 6.525045871734619, "y": -21.182119369506836, "z": -4.006261825561523}, "status": {"flags": 33599, "velocity_variance": 0.16725164651870728, "pos_horiz_variance": 0.012040894478559494, "pos_vert_variance": 0.08096307516098022}}, "errors": ["PreArm: Hardware safety switch", "PreArm: Internal errors 0x100000 l:66 flow_of_ctrl"]}
{"timestamp": "2025-12-28T10:31:29.868385Z", "telemetry": {"lat": 28.7531367, "lon": 77.1176539, "satellites": 9, "altitude_gps_m": 212.95999145507812, "groundspeed_mps": 0.13970918953418732}, "flight": {"mode": "STABILIZE", "armed": false}, "ekf": {"attitude": {"roll": -0.03284912928938866, "pitch": -0.003389929886907339, "yaw": 3.0463454723358154}, "local_position": {"x": 6.555922031402588, "y": -21.256216049194336, "z": -4.03266716003418}, "status": {"flags": 33599, "velocity_variance": 0.19265466928482056, "pos_horiz_variance": 0.009913081303238869, "pos_vert_variance": 0.06899251788854599}}, "errors": ["PreArm: Hardware safety switch", "PreArm: Internal errors 0x100000 l:66 flow_of_ctrl"]}
{"timestamp": "2025-12-28T10:31:30.867913Z", "telemetry": {"lat": 28.7531436, "lon": 77.1176583, "satellites": 9, "altitude_gps_m": 212.97000122070312, "groundspeed_mps": 0.07293979823589325}, "flight": {"mode": "STABILIZE", "armed": false}, "ekf": {"attitude": {"roll": -0.03410918638110161, "pitch": -0.002442244440317154, "yaw": 3.0463860034942627}, "local_position": {"x": 6.888854503631592, "y": -21.151485443115234, "z": -4.0455803871154785}, "status": {"flags": 33599, "velocity_variance": 0.14315102994441986, "pos_horiz_variance": 0.015272201038897038, "pos_vert_variance": 0.02411738783121109}}, "errors": ["PreArm: Hardware safety switch", "PreArm: Internal errors 0x100000 l:66 flow_of_ctrl"]}
{"timestamp": "2025-12-28T10:31:31.870352Z", "telemetry": {"lat": 28.753151, "lon": 77.1176644, "satellites": 9, "altitude_gps_m": 212.94000244140625, "groundspeed_mps": 0.18116439878940582}, "flight": {"mode": "STABILIZE", "armed": false}, "ekf": {"attitude": {"roll": -0.03582651540637016, "pitch": -0.0013881768099963665, "yaw": 3.0463671684265137}, "local_position": {"x": 7.373220443725586, "y": -20.823272705078125, "z": -4.013711452484131}, "status": {"flags": 33599, "velocity_variance": 0.17372651398181915, "pos_horiz_variance": 0.025585174560546875, "pos_vert_variance": 0.010580322705209255}}, "errors": ["PreArm: Hardware safety switch", "PreArm: Internal errors 0x100000 l:66 flow_of_ctrl", "PreArm: Hardware safety switch", "PreArm: Internal errors 0x100000 l:66 flow_of_ctrl"]}
{"timestamp": "2025-12-28T10:31:32.870402Z", "telemetry": {"lat": 28.753158, "lon": 77.1176697, "satellites": 9, "altitude_gps_m": 212.89999389648438, "groundspeed_mps": 0.3989650309085846}, "flight": {"mode": "STABILIZE", "armed": false}, "ekf": {"attitude": {"roll": -0.03763928636908531, "pitch": 0.00026073725894093513, "yaw": 3.0463707447052}, "local_position": {"x": 7.949236869812012, "y": -20.45804786682129, "z": -3.9680376052856445}, "status": {"flags": 33599, "velocity_variance": 0.18522843718528748, "pos_horiz_variance": 0.030528826639056206, "pos_vert_variance": 0.041923727840185165}}, "errors": ["PreArm: Hardware safety switch", "PreArm: Internal errors 0x100000 l:66 flow_of_ctrl", "PreArm: Hardware safety switch", "PreArm: Internal errors 0x100000 l:66 flow_of_ctrl"]}
{"timestamp": "2025-12-28T10:31:33.868576Z", "telemetry": {"lat": 28.7531645, "lon": 77.1176758, "satellites": 9, "altitude_gps_m": 212.87998962402344, "groundspeed_mps": 0.5239800810813904}, "flight": {"mode": "STABILIZE", "armed": false}, "ekf": {"attitude": {"roll": -0.03848104551434517, "pitch": 0.00025630928575992584, "yaw": 3.046551465988159}, "local_position": {"x": 8.705262184143066, "y": -19.95189094543457, "z": -3.9708070755004883}, "status": {"flags": 33599, "velocity_variance": 0.37642931938171387, "pos_horiz_variance": 0.032136380672454834, "pos_vert_variance": 0.0007543850806541741}}, "errors": ["PreArm: Hardware safety switch", "PreArm: Internal errors 0x100000 l:66 flow_of_ctrl", "PreArm: Hardware safety switch", "PreArm: Internal errors 0x100000 l:66 flow_of_ctrl"]}
{"timestamp": "2025-12-28T10:31:34.868541Z", "telemetry": {"lat": 28.7531757, "lon": 77.1176845, "satellites": 9, "altitude_gps_m": 212.8199920654297, "groundspeed_mps": 0.6549234986305237}, "flight": {"mode": "STABILIZE", "armed": false}, "ekf": {"attitude": {"roll": -0.03903502598404884, "pitch": 0.0011972016654908657, "yaw": 3.0466015338897705}, "local_position": {"x": 9.612367630004883, "y": -19.40682601928711, "z": -3.8929178714752197}, "status": {"flags": 33599, "velocity_variance": 0.07108328491449356, "pos_horiz_variance": 0.04373164847493172, "pos_vert_variance": 0.022148389369249344}}, "errors": ["PreArm: Hardware safety switch", "PreArm: Internal errors 0x100000 l:66 flow_of_ctrl", "PreArm: Hardware safety switch", "PreArm: Internal errors 0x100000 l:66 flow_of_ctrl"]}
{"timestamp": "2025-12-28T10:31:35.868279Z", "telemetry": {"lat": 28.7531853, "lon": 77.1176899, "satellites": 8, "altitude_gps_m": 212.88999938964844, "groundspeed_mps": 0.7686134576797485}, "flight": {"mode": "STABILIZE", "armed": false}, "ekf": {"attitude": {"roll": -0.03831855580210686, "pitch": 0.0018719627987593412, "yaw": 3.0467441082000732}, "local_position": {"x": 10.578679084777832, "y": -18.990825653076172, "z": -3.9697165489196777}, "status": {"flags": 33599, "velocity_variance": 0.230951189994812, "pos_horiz_variance": 0.04701319336891174, "pos_vert_variance": 0.06220518797636032}}, "errors": ["PreArm: Hardware safety switch", "PreArm: Internal errors 0x100000 l:66 flow_of_ctrl", "PreArm: Hardware safety switch", "PreArm: Internal errors 0x100000 l:66 flow_of_ctrl"]}
{"timestamp": "2025-12-28T10:31:36.868635Z", "telemetry": {"lat": 28.7531914, "lon": 77.1176949, "satellites": 8, "altitude_gps_m": 212.9199981689453, "groundspeed_mps": 0.7901448011398315}, "flight": {"mode": "STABILIZE", "armed": false}, "ekf": {"attitude": {"roll": -0.038020189851522446, "pitch": 0.0007992885075509548, "yaw": 3.0469586849212646}, "local_position": {"x": 11.297215461730957, "y": -18.542898178100586, "z": -3.996851921081543}, "status": {"flags": 33599, "velocity_variance": 0.2521611750125885, "pos_horiz_variance": 0.047214481979608536, "pos_vert_variance": 0.011429021134972572}}, "errors": ["PreArm: Hardware safety switch", "PreArm: Internal errors 0x100000 l:66 flow_of_ctrl", "PreArm: Hardware safety switch", "PreArm: Internal errors 0x100000 l:66 flow_of_ctrl"]}
{"timestamp": "2025-12-28T10:31:37.868476Z", "telemetry": {"lat": 28.7531973, "lon": 77.1177005, "satellites": 8, "altitude_gps_m": 212.94000244140625, "groundspeed_mps": 0.8036091327667236}, "flight": {"mode": "STABILIZE", "armed": false}, "ekf": {"attitude": {"roll": -0.038073111325502396, "pitch": -0.00016427459195256233, "yaw": 3.04703688621521}, "local_position": {"x": 11.963008880615234, "y": -18.013042449951172, "z": -4.015927791595459}, "status": {"flags": 33599, "velocity_variance": 0.17733941972255707, "pos_horiz_variance": 0.04732918366789818, "pos_vert_variance": 0.007821762003004551}}, "errors": ["PreArm: Hardware safety switch", "PreArm: Internal errors 0x100000 l:66 flow_of_ctrl", "PreArm: Hardware safety switch", "PreArm: Internal errors 0x100000 l:66 flow_of_ctrl"]}
