{"timestamp": "2025-12-28T11:25:37.466987Z", "telemetry": {"lat": 28.7530504, "lon": 77.1179104, "satellites": 10, "altitude_gps_m": 210.72000122070312, "groundspeed_mps": 0.08498407155275345}, "flight": {"mode": null, "armed": null}, "ekf": {"attitude": {"roll": 0.004464227706193924, "pitch": 0.04429871588945389, "yaw": 1.5143362283706665}, "local_position": {"x": -2.6091220378875732, "y": 3.7911794185638428, "z": -1.7923593521118164}, "status": {"flags": 831, "velocity_variance": 0.0784912258386612, "pos_horiz_variance": 0.023448720574378967, "pos_vert_variance": 0.03870103508234024}}, "errors": []}
{"timestamp": "2025-12-28T11:25:38.417031Z", "telemetry": {"lat": 28.7530508, "lon": 77.1179099, "satellites": 10, "altitude_gps_m": 210.87998962402344, "groundspeed_mps": 0.10268302261829376}, "flight": {"mode": "STABILIZE", "armed": false}, "ekf": {"attitude": {"roll": 0.004203613847494125, "pitch": 0.04467837139964104, "yaw": 1.5160845518112183}, "local_position": {"x": -2.592198371887207, "y": 3.6940391063690186, "z": -1.9520760774612427}, "status": {"flags": 831, "velocity_variance": 0.04658442735671997, "pos_horiz_variance": 0.021316517144441605, "pos_vert_variance": 0.0331890769302845}}, "errors": []}
{"timestamp": "2025-12-28T11:25:39.368222Z", "telemetry": {"lat": 28.753051, "lon": 77.1179093, "satellites": 10, "altitude_gps_m": 211.05999755859375, "groundspeed_mps": 0.07840552181005478}, "flight": {"mode": "STABILIZE", "armed": false}, "ekf": {"attitude": {"roll": 0.005040675401687622, "pitch": 0.044681429862976074, "yaw": 1.5175676345825195}, "local_position": {"x": -2.634265422821045, "y": 3.6224567890167236, "z": -2.136754035949707}, "status": {"flags": 831, "velocity_variance": 0.07731050252914429, "pos_horiz_variance": 0.020075203850865364, "pos_vert_variance": 0.022859614342451096}}, "errors": []}
{"timestamp": "2025-12-28T11:25:40.368298Z", "telemetry": {"lat": 28.7530515, "lon": 77.1179086, "satellites": 10, "altitude_gps_m": 211.239990234375, "groundspeed_mps": 0.04775942116975784}, "flight": {"mode": "STABILIZE", "armed": false}, "ekf": {"attitude": {"roll": 0.0056390464305877686, "pitch": 0.04451591521501541, "yaw": 1.51895010471344}, "local_position": {"x": -2.682572841644287, "y": 3.5906903743743896, "z": -2.312239408493042}, "status": {"flags": 831, "velocity_variance": 0.06682110577821732, "pos_horiz_variance": 0.020896650850772858, "pos_vert_variance": 0.010904199443757534}}, "errors": []}
{"timestamp": "2025-12-28T11:25:41.368395Z", "telemetry": {"lat": 28.7530519, "lon": 77.1179082, "satellites": 10, "altitude_gps_m": 211.36000061035156, "groundspeed_mps": 0.03877943754196167}, "flight": {"mode": "STABILIZE", "armed": false}, "ekf": {"attitude": {"roll": 0.005993552505970001, "pitch": 0.04486576467752457, "yaw": 1.5205217599868774}, "local_position": {"x": -2.694333076477051, "y": 3.5222527980804443, "z": -2.43356990814209}, "status": {"flags": 831, "velocity_variance": 0.06799232959747314, "pos_horiz_variance": 0.019846079871058464, "pos_vert_variance": 0.0022242688573896885}}, "errors": []}
{"timestamp": "2025-12-28T11:25:42.368570Z", "telemetry": {"lat": 28.7530522, "lon": 77.1179083, "satellites": 10, "altitude_gps_m": 211.4099884033203, "groundspeed_mps": 0.046161092817783356}, "flight": {"mode": "STABILIZE", "armed": false}, "ekf": {"attitude": {"roll": 0.0058470070362091064, "pitch": 0.04505214840173721, "yaw": 1.5220481157302856}, "local_position": {"x": -2.682372808456421, "y": 3.4824514389038086, "z": -2.4787681102752686}, "status": {"flags": 831, "velocity_variance": 0.07949851453304291, "pos_horiz_variance": 0.017104171216487885, "pos_vert_variance": 0.008256292901933193}}, "errors": []}
{"timestamp": "2025-12-28T11:25:43.368882Z", "telemetry": {"lat": 28.7530524, "lon": 77.1179085, "satellites": 10, "altitude_gps_m": 211.4199981689453, "groundspeed_mps": 0.050508975982666016}, "flight": {"mode": "STABILIZE", "armed": false}, "ekf": {"attitude": {"roll": 0.005998589098453522, "pitch": 0.04517245665192604, "yaw": 1.523418664932251}, "local_position": {"x": -2.6529717445373535, "y": 3.433258533477783, "z": -2.489935874938965}, "status": {"flags": 831, "velocity_variance": 0.0430418998003006, "pos_horiz_variance": 0.013448109850287437, "pos_vert_variance": 0.007053231354802847}}, "errors": []}
{"timestamp": "2025-12-28T11:25:44.368917Z", "telemetry": {"lat": 28.7530526, "lon": 77.1179086, "satellites": 10, "altitude_gps_m": 211.4499969482422, "groundspeed_mps": 0.0539846308529377}, "flight": {"mode": "STABILIZE", "armed": false}, "ekf": {"attitude": {"roll": 0.006054360419511795, "pitch": 0.04521835222840309, "yaw": 1.5247722864151}, "local_position": {"x": -2.6136813163757324, "y": 3.392150640487671, "z": -2.521841287612915}, "status": {"flags": 831, "velocity_variance": 0.055030930787324905, "pos_horiz_variance": 0.01066297385841608, "pos_vert_variance": 0.009766632691025734}}, "errors": []}
{"timestamp": "2025-12-28T11:25:45.368764Z", "telemetry": {"lat": 28.7530528, "lon": 77.1179084, "satellites": 10, "altitude_gps_m": 211.47999572753906, "groundspeed_mps": 0.05580028519034386}, "flight": {"mode": "STABILIZE", "armed": false}, "ekf": {"attitude": {"roll": 0.006287429481744766, "pitch": 0.04536657780408859, "yaw": 1.526044249534607}, "local_position": {"x": -2.5917983055114746, "y": 3.3597259521484375, "z": -2.5552494525909424}, "status": {"flags": 831, "velocity_variance": 0.03132924437522888, "pos_horiz_variance": 0.00981921050697565, "pos_vert_variance": 0.009787771850824356}}, "errors": []}
{"timestamp": "2025-12-28T11:25:46.368832Z", "telemetry": {"lat": 28.7530527, "lon": 77.1179085, "satellites": 10, "altitude_gps_m": 211.51998901367188, "groundspeed_mps": 0.051942333579063416}, "flight": {"mode": "STABILIZE", "armed": false}, "ekf": {"attitude": {"roll": 0.0068058110773563385, "pitch": 0.045663900673389435, "yaw": 1.527336597442627}, "local_position": {"x": -2.581758499145508, "y": 3.3263497352600098, "z": -2.5895726680755615}, "status": {"flags": 831, "velocity_variance": 0.04984334483742714, "pos_horiz_variance": 0.007358390372246504, "pos_vert_variance": 0.007669366430491209}}, "errors": []}
{"timestamp": "2025-12-28T11:25:47.368724Z", "telemetry": {"lat": 28.7530531, "lon": 77.1179083, "satellites": 10, "altitude_gps_m": 211.55999755859375, "groundspeed_mps": 0.04982111230492592}, "flight": {"mode": "STABILIZE", "armed": false}, "ekf": {"attitude": {"roll": 0.006875038146972656, "pitch": 0.04567930847406387, "yaw": 1.528412938117981}, "local_position": {"x": -2.5642271041870117, "y": 3.288407564163208, "z": -2.6310746669769287}, "status": {"flags": 831, "velocity_variance": 0.06901516020298004, "pos_horiz_variance": 0.006372837349772453, "pos_vert_variance": 0.00990327913314104}}, "errors": []}
{"timestamp": "2025-12-28T11:25:48.368706Z", "telemetry": {"lat": 28.7530528, "lon": 77.117909, "satellites": 10, "altitude_gps_m": 211.55999755859375, "groundspeed_mps": 0.03465691953897476}, "flight": {"mode": "STABILIZE", "armed": false}, "ekf": {"attitude": {"roll": 0.007322318851947784, "pitch": 0.04541633650660515, "yaw": 1.5293161869049072}, "local_position": {"x": -2.5612800121307373, "y": 3.295318603515625, "z": -2.6323347091674805}, "status": {"flags": 831, "velocity_variance": 0.03850851580500603, "pos_horiz_variance": 0.0021803725976496935, "pos_vert_variance": 0.008068898692727089}}, "errors": []}
{"timestamp": "2025-12-28T11:25:49.368680Z", "telemetry": {"lat": 28.7530527, "lon": 77.117909, "satellites": 9, "altitude_gps_m": 211.61000061035156, "groundspeed_mps": 0.033406827598810196}, "flight": {"mode": "STABILIZE", "armed": false}, "ekf": {"attitude": {"roll": 0.008017756044864655, "pitch": 0.04550240561366081, "yaw": 1.530411958694458}, "local_position": {"x": -2.6005709171295166, "y": 3.2759623527526855, "z": -2.6880784034729004}, "status": {"flags": 831, "velocity_variance": 0.03569527342915535, "pos_horiz_variance": 0.0022276784293353558, "pos_vert_variance": 0.008702438324689865}}, "errors": ["Arm: Hardware safety switch", "Arm: Internal errors 0x100000 l:66 flow_of_ctrl"]}
{"timestamp": "2025-12-28T11:25:50.368310Z", "telemetry": {"lat": 28.7530526, "lon": 77.1179091, "satellites": 10, "altitude_gps_m": 211.6599884033203, "groundspeed_mps": 0.034663036465644836}, "flight": {"mode": "STABILIZE", "armed": false}, "ekf": {"attitude": {"roll": 0.008033115416765213, "pitch": 0.04562361165881157, "yaw": 1.5312542915344238}, "local_position": {"x": -2.611879825592041, "y": 3.2730727195739746, "z": -2.737020492553711}, "status": {"flags": 831, "velocity_variance": 0.03688061237335205, "pos_horiz_variance": 0.001807023654691875, "pos_vert_variance": 0.011495723389089108}}, "errors": ["Arm: Hardware safety switch", "Arm: Internal errors 0x100000 l:66 flow_of_ctrl"]}
{"timestamp": "2025-12-28T11:25:51.367889Z", "telemetry": {"lat": 28.7530526, "lon": 77.1179094, "satellites": 10, "altitude_gps_m": 211.6699981689453, "groundspeed_mps": 0.02902797795832157}, "flight": {"mode": "STABILIZE", "armed": false}, "ekf": {"attitude": {"roll": 0.008038606494665146, "pitch": 0.045517630875110626, "yaw": 1.5320528745651245}, "local_position": {"x": -2.6012749671936035, "y": 3.278280735015869, "z": -2.743079900741577}, "status": {"flags": 831, "velocity_variance": 0.02306748367846012, "pos_horiz_variance": 0.002395851071923971, "pos_vert_variance": 0.010054603219032288}}, "errors": ["Arm: Hardware safety switch", "Arm: Internal errors 0x100000 l:66 flow_of_ctrl"]}
{"timestamp": "2025-12-28T11:25:52.369007Z", "telemetry": {"lat": 28.7530524, "lon": 77.1179094, "satellites": 9, "altitude_gps_m": 211.6599884033203, "groundspeed_mps": 0.034437865018844604}, "flight": {"mode": "STABILIZE", "armed": false}, "ekf": {"attitude": {"roll": 0.008256368339061737, "pitch": 0.045590974390506744, "yaw": 1.5329227447509766}, "local_position": {"x": -2.602550745010376, "y": 3.2690844535827637, "z": -2.73883318901062}, "status": {"flags": 831, "velocity_variance": 0.030629398301243782, "pos_horiz_variance": 0.0022450610995292664, "pos_vert_variance": 0.01153787225484848}}, "errors": ["Arm: Hardware safety switch", "Arm: Internal errors 0x100000 l:66 flow_of_ctrl", "Arm: Hardware safety switch", "Arm: Internal errors 0x100000 l:66 flow_of_ctrl"]}
{"timestamp": "2025-12-28T11:25:53.368384Z", "telemetry": {"lat": 28.7530528, "lon": 77.1179091, "satellites": 9, "altitude_gps_m": 211.62998962402344, "groundspeed_mps": 0.040124136954545975}, "flight": {"mode": "STABILIZE", "armed": false}, "ekf": {"attitude": {"roll": 0.008195988833904266, "pitch": 0.04577594995498657, "yaw": 1.5339118242263794}, "local_position": {"x": -2.588890314102173, "y": 3.252081871032715, "z": -2.709442377090454}, "status": {"flags": 831, "velocity_variance": 0.015941783785820007, "pos_horiz_variance": 0.0027319644577801228, "pos_vert_variance": 0.011434816755354404}}, "errors": ["Arm: Hardware safety switch", "Arm: Internal errors 0x100000 l:66 flow_of_ctrl", "Arm: Hardware safety switch", "Arm: Internal errors 0x100000 l:66 flow_of_ctrl"]}
{"timestamp": "2025-12-28T11:25:54.372759Z", "telemetry": {"lat": 28.7530526, "lon": 77.1179089, "satellites": 9, "altitude_gps_m": 211.6199951171875, "groundspeed_mps": 0.04787612706422806}, "flight": {"mode": "STABILIZE", "armed": false}, "ekf": {"attitude": {"roll": 0.008331280201673508, "pitch": 0.04576830565929413, "yaw": 1.5344336032867432}, "local_position": {"x": -2.593191146850586, "y": 3.2251694202423096, "z": -2.6979925632476807}, "status": {"flags": 831, "velocity_variance": 0.03134729340672493, "pos_horiz_variance": 0.0020710856188088655, "pos_vert_variance": 0.007546060252934694}}, "errors": ["Arm: Hardware safety switch", "Arm: Internal errors 0x100000 l:66 flow_of_ctrl", "Arm: Hardware safety switch", "Arm: Internal errors 0x100000 l:66 flow_of_ctrl"]}
{"timestamp": "2025-12-28T11:25:55.368536Z", "telemetry": {"lat": 28.753054, "lon": 77.1179062, "satellites": 10, "altitude_gps_m": 211.5800018310547, "groundspeed_mps": 0.06294479221105576}, "flight": {"mode": "STABILIZE", "armed": false}, "ekf": {"attitude": {"roll": 0.008601892739534378, "pitch": 0.04580460861325264, "yaw": 1.5351532697677612}, "local_position": {"x": -2.624791383743286, "y": 3.186267614364624, "z": -2.6554458141326904}, "status": {"flags": 831, "velocity_variance": 0.020518355071544647, "pos_horiz_variance": 0.01868499256670475, "pos_vert_variance": 0.027468472719192505}}, "errors": ["Arm: Hardware safety switch", "Arm: Internal errors 0x100000 l:66 flow_of_ctrl", "Arm: Hardware safety switch", "Arm: Internal errors 0x100000 l:66 flow_of_ctrl"]}
{"timestamp": "2025-12-28T11:25:56.368594Z", "telemetry": {"lat": 28.7530561, "lon": 77.1179036, "satellites": 10, "altitude_gps_m": 211.489990234375, "groundspeed_mps": 0.05093717202544212}, "flight": {"mode": "STABILIZE", "armed": false}, "ekf": {"attitude": {"roll": 0.007618047297000885, "pitch": 0.045563485473394394, "yaw": 1.5361303091049194}, "local_position": {"x": -2.532219648361206, "y": 3.1214587688446045, "z": -2.5635719299316406}, "status": {"flags": 831, "velocity_variance": 0.03871246799826622, "pos_horiz_variance": 0.03455221280455589, "pos_vert_variance": 0.043522972613573074}}, "errors": ["Arm: Hardware safety switch", "Arm: Internal errors 0x100000 l:66 flow_of_ctrl", "Arm: Hardware safety switch", "Arm: Internal errors 0x100000 l:66 flow_of_ctrl"]}
{"timestamp": "2025-12-28T11:25:57.372576Z", "telemetry": {"lat": 28.753058, "lon": 77.1179009, "satellites": 10, "altitude_gps_m": 211.37998962402344, "groundspeed_mps": 0.06807318329811096}, "flight": {"mode": "STABILIZE", "armed": false}, "ekf": {"attitude": {"roll": 0.007565882056951523, "pitch": 0.045599523931741714, "yaw": 1.5367298126220703}, "local_position": {"x": -2.4046497344970703, "y": 2.985840320587158, "z": -2.4555091857910156}, "status": {"flags": 831, "velocity_variance": 0.04894750192761421, "pos_horiz_variance": 0.046076055616140366, "pos_vert_variance": 0.05403154343366623}}, "errors": ["Arm: Hardware safety switch", "Arm: Internal errors 0x100000 l:66 flow_of_ctrl", "Arm: Hardware safety switch", "Arm: Internal errors 0x100000 l:66 flow_of_ctrl"]}
{"timestamp": "2025-12-28T11:25:58.368159Z", "telemetry": {"lat": 28.7530596, "lon": 77.117899, "satellites": 10, "altitude_gps_m": 211.22000122070312, "groundspeed_mps": 0.06043257564306259}, "flight": {"mode": "STABILIZE", "armed": false}, "ekf": {"attitude": {"roll": 0.007711485028266907, "pitch": 0.04496914520859718, "yaw": 1.5372828245162964}, "local_position": {"x": -2.293938398361206, "y": 2.867283821105957, "z": -2.2928130626678467}, "status": {"flags": 831, "velocity_variance": 0.047946006059646606, "pos_horiz_variance": 0.054246362298727036, "pos_vert_variance": 0.06333310902118683}}, "errors": ["Arm: Hardware safety switch", "Arm: Internal errors 0x100000 l:66 flow_of_ctrl", "Arm: Hardware safety switch", "Arm: Internal errors 0x100000 l:66 flow_of_ctrl"]}
