{"timestamp": "2026-01-15T13:52:12.469161Z", "telemetry": {"lat": 28.7530059, "lon": 77.1179622, "satellites": 0, "altitude_gps_m": 0.28999999165534973, "groundspeed_mps": 0.023740623146295547}, "flight": {"mode": "STABILIZE", "armed": false}, "ekf": {"attitude": {"roll": 0.021842828020453453, "pitch": -0.000555072445422411, "yaw": -0.5539277791976929}, "local_position": {"x": null, "y": null, "z": null}, "status": {"flags": 135, "velocity_variance": 0.0, "pos_horiz_variance": 0.005127867683768272, "pos_vert_variance": 0.017897848039865494}}, "errors": []}
{"timestamp": "2026-01-15T13:52:13.499020Z", "telemetry": {"lat": 28.7530059, "lon": 77.1179622, "satellites": 0, "altitude_gps_m": 0.28999999165534973, "groundspeed_mps": 0.023634538054466248}, "flight": {"mode": "STABILIZE", "armed": false}, "ekf": {"attitude": {"roll": 0.0217727143317461, "pitch": -0.0006771855987608433, "yaw": -0.5539321303367615}, "local_position": {"x": null, "y": null, "z": null}, "status": {"flags": 135, "velocity_variance": 0.0, "pos_horiz_variance": 0.005555587820708752, "pos_vert_variance": 0.05636550113558769}}, "errors": []}
{"timestamp": "2026-01-15T13:52:14.498645Z", "telemetry": {"lat": 28.7530059, "lon": 77.1179622, "satellites": 0, "altitude_gps_m": 0.28999999165534973, "groundspeed_mps": 0.02497253008186817}, "flight": {"mode": "STABILIZE", "armed": false}, "ekf": {"attitude": {"roll": 0.02175309509038925, "pitch": -0.000785748939961195, "yaw": -0.5539100170135498}, "local_position": {"x": null, "y": null, "z": null}, "status": {"flags": 135, "velocity_variance": 0.0, "pos_horiz_variance": 0.005700967740267515, "pos_vert_variance": 0.03150901570916176}}, "errors": []}
{"timestamp": "2026-01-15T13:52:15.503003Z", "telemetry": {"lat": 28.7530059, "lon": 77.1179622, "satellites": 0, "altitude_gps_m": 0.28999999165534973, "groundspeed_mps": 0.025403453037142754}, "flight": {"mode": "STABILIZE", "armed": false}, "ekf": {"attitude": {"roll": 0.021743526682257652, "pitch": -0.0008197366259992123, "yaw": -0.5536868572235107}, "local_position": {"x": null, "y": null, "z": null}, "status": {"flags": 135, "velocity_variance": 0.0, "pos_horiz_variance": 0.005965058226138353, "pos_vert_variance": 0.025729836896061897}}, "errors": []}
{"timestamp": "2026-01-15T13:52:16.502787Z", "telemetry": {"lat": 28.7530059, "lon": 77.1179622, "satellites": 0, "altitude_gps_m": 0.28999999165534973, "groundspeed_mps": 0.02764536254107952}, "flight": {"mode": "STABILIZE", "armed": false}, "ekf": {"attitude": {"roll": 0.021877113729715347, "pitch": -0.0008283192291855812, "yaw": -0.5537256598472595}, "local_position": {"x": null, "y": null, "z": null}, "status": {"flags": 135, "velocity_variance": 0.0, "pos_horiz_variance": 0.006217470392584801, "pos_vert_variance": 0.05634428560733795}}, "errors": []}
{"timestamp": "2026-01-15T13:52:17.502684Z", "telemetry": {"lat": 28.7530059, "lon": 77.1179622, "satellites": 0, "altitude_gps_m": 0.28999999165534973, "groundspeed_mps": 0.03035098873078823}, "flight": {"mode": "STABILIZE", "armed": false}, "ekf": {"attitude": {"roll": 0.021852022036910057, "pitch": -0.0007796082645654678, "yaw": -0.5536512732505798}, "local_position": {"x": null, "y": null, "z": null}, "status": {"flags": 135, "velocity_variance": 0.0, "pos_horiz_variance": 0.006938931066542864, "pos_vert_variance": 0.1091143861413002}}, "errors": []}
{"timestamp": "2026-01-15T13:52:18.483166Z", "telemetry": {"lat": 28.7530059, "lon": 77.1179622, "satellites": 0, "altitude_gps_m": 0.28999999165534973, "groundspeed_mps": 0.027526477351784706}, "flight": {"mode": "STABILIZE", "armed": false}, "ekf": {"attitude": {"roll": 0.0216768067330122, "pitch": -0.0008645909838378429, "yaw": -0.5537798404693604}, "local_position": {"x": null, "y": null, "z": null}, "status": {"flags": 135, "velocity_variance": 0.0, "pos_horiz_variance": 0.006976711563766003, "pos_vert_variance": 0.04631144925951958}}, "errors": []}
{"timestamp": "2026-01-15T13:52:19.470846Z", "telemetry": {"lat": 28.7530059, "lon": 77.1179622, "satellites": 0, "altitude_gps_m": 0.28999999165534973, "groundspeed_mps": 0.028108635917305946}, "flight": {"mode": "STABILIZE", "armed": false}, "ekf": {"attitude": {"roll": 0.021630508825182915, "pitch": -0.0007388405501842499, "yaw": -0.5538166761398315}, "local_position": {"x": null, "y": null, "z": null}, "status": {"flags": 135, "velocity_variance": 0.0, "pos_horiz_variance": 0.006832008250057697, "pos_vert_variance": 0.012541554868221283}}, "errors": []}
{"timestamp": "2026-01-15T13:52:20.476505Z", "telemetry": {"lat": 28.7530059, "lon": 77.1179622, "satellites": 0, "altitude_gps_m": 0.28999999165534973, "groundspeed_mps": 0.027588583528995514}, "flight": {"mode": "STABILIZE", "armed": false}, "ekf": {"attitude": {"roll": 0.021621806547045708, "pitch": -0.0005848449654877186, "yaw": -0.5539452433586121}, "local_position": {"x": null, "y": null, "z": null}, "status": {"flags": 135, "velocity_variance": 0.0, "pos_horiz_variance": 0.006814418360590935, "pos_vert_variance": 0.03675760701298714}}, "errors": []}
{"timestamp": "2026-01-15T13:52:21.484614Z", "telemetry": {"lat": 28.7530059, "lon": 77.1179622, "satellites": 0, "altitude_gps_m": 0.28999999165534973, "groundspeed_mps": 0.02604234591126442}, "flight": {"mode": "STABILIZE", "armed": false}, "ekf": {"attitude": {"roll": 0.021661000326275826, "pitch": -0.0005684760399162769, "yaw": -0.553844153881073}, "local_position": {"x": null, "y": null, "z": null}, "status": {"flags": 135, "velocity_variance": 0.0, "pos_horiz_variance": 0.00653151236474514, "pos_vert_variance": 0.03610847890377045}}, "errors": []}
{"timestamp": "2026-01-15T13:52:22.506576Z", "telemetry": {"lat": 28.7530059, "lon": 77.1179622, "satellites": 0, "altitude_gps_m": 0.28999999165534973, "groundspeed_mps": 0.02420157380402088}, "flight": {"mode": "STABILIZE", "armed": false}, "ekf": {"attitude": {"roll": 0.021619463339447975, "pitch": -0.0004888712428510189, "yaw": -0.5537759065628052}, "local_position": {"x": null, "y": null, "z": null}, "status": {"flags": 135, "velocity_variance": 0.0, "pos_horiz_variance": 0.006421410478651524, "pos_vert_variance": 0.025405362248420715}}, "errors": []}
{"timestamp": "2026-01-15T13:52:23.510571Z", "telemetry": {"lat": 28.7530059, "lon": 77.1179622, "satellites": 0, "altitude_gps_m": 0.28999999165534973, "groundspeed_mps": 0.02300971932709217}, "flight": {"mode": "STABILIZE", "armed": false}, "ekf": {"attitude": {"roll": 0.021589800715446472, "pitch": -0.0005074259825050831, "yaw": -0.553774893283844}, "local_position": {"x": null, "y": null, "z": null}, "status": {"flags": 135, "velocity_variance": 0.0, "pos_horiz_variance": 0.006125673186033964, "pos_vert_variance": 0.016189124435186386}}, "errors": []}
{"timestamp": "2026-01-15T13:52:24.511027Z", "telemetry": {"lat": 28.7530059, "lon": 77.1179622, "satellites": 0, "altitude_gps_m": 0.28999999165534973, "groundspeed_mps": 0.02412176877260208}, "flight": {"mode": "STABILIZE", "armed": false}, "ekf": {"attitude": {"roll": 0.021661318838596344, "pitch": -0.0005502025596797466, "yaw": -0.5537197589874268}, "local_position": {"x": null, "y": null, "z": null}, "status": {"flags": 135, "velocity_variance": 0.0, "pos_horiz_variance": 0.005926614161580801, "pos_vert_variance": 0.11361042410135269}}, "errors": []}
{"timestamp": "2026-01-15T13:52:25.511759Z", "telemetry": {"lat": 28.7530059, "lon": 77.1179622, "satellites": 0, "altitude_gps_m": 0.28999999165534973, "groundspeed_mps": 0.025081081315875053}, "flight": {"mode": "STABILIZE", "armed": false}, "ekf": {"attitude": {"roll": 0.021675800904631615, "pitch": -0.0005504479631781578, "yaw": -0.5537132620811462}, "local_position": {"x": null, "y": null, "z": null}, "status": {"flags": 135, "velocity_variance": 0.0, "pos_horiz_variance": 0.005926318932324648, "pos_vert_variance": 0.048024002462625504}}, "errors": []}
{"timestamp": "2026-01-15T13:52:26.486435Z", "telemetry": {"lat": 28.7530059, "lon": 77.1179622, "satellites": 0, "altitude_gps_m": 0.28999999165534973, "groundspeed_mps": 0.024162620306015015}, "flight": {"mode": "STABILIZE", "armed": false}, "ekf": {"attitude": {"roll": 0.021840550005435944, "pitch": -0.0006608869880437851, "yaw": -0.5537245869636536}, "local_position": {"x": null, "y": null, "z": null}, "status": {"flags": 135, "velocity_variance": 0.0, "pos_horiz_variance": 0.006078339647501707, "pos_vert_variance": 0.029121797531843185}}, "errors": []}
{"timestamp": "2026-01-15T13:52:27.487579Z", "telemetry": {"lat": 28.7530059, "lon": 77.1179622, "satellites": 0, "altitude_gps_m": 0.28999999165534973, "groundspeed_mps": 0.0214341189712286}, "flight": {"mode": "STABILIZE", "armed": false}, "ekf": {"attitude": {"roll": 0.021869223564863205, "pitch": -0.000651482492685318, "yaw": -0.5537800192832947}, "local_position": {"x": null, "y": null, "z": null}, "status": {"flags": 135, "velocity_variance": 0.0, "pos_horiz_variance": 0.005675687454640865, "pos_vert_variance": 0.06252531707286835}}, "errors": []}
{"timestamp": "2026-01-15T13:52:28.487967Z", "telemetry": {"lat": 28.7530059, "lon": 77.1179622, "satellites": 0, "altitude_gps_m": 0.28999999165534973, "groundspeed_mps": 0.02392786554992199}, "flight": {"mode": "STABILIZE", "armed": false}, "ekf": {"attitude": {"roll": 0.021942388266324997, "pitch": -0.0007044849917292595, "yaw": -0.5537104606628418}, "local_position": {"x": null, "y": null, "z": null}, "status": {"flags": 135, "velocity_variance": 0.0, "pos_horiz_variance": 0.0055173165164887905, "pos_vert_variance": 0.024822859093546867}}, "errors": []}
{"timestamp": "2026-01-15T13:52:29.491755Z", "telemetry": {"lat": 28.7530059, "lon": 77.1179622, "satellites": 0, "altitude_gps_m": 0.28999999165534973, "groundspeed_mps": 0.025724900886416435}, "flight": {"mode": "STABILIZE", "armed": false}, "ekf": {"attitude": {"roll": 0.021984759718179703, "pitch": -0.0007005720399320126, "yaw": -0.5537663102149963}, "local_position": {"x": null, "y": null, "z": null}, "status": {"flags": 135, "velocity_variance": 0.0, "pos_horiz_variance": 0.005836880765855312, "pos_vert_variance": 0.03203495219349861}}, "errors": []}
{"timestamp": "2026-01-15T13:52:30.492977Z", "telemetry": {"lat": 28.7530059, "lon": 77.1179622, "satellites": 0, "altitude_gps_m": 0.28999999165534973, "groundspeed_mps": 0.026397328823804855}, "flight": {"mode": "STABILIZE", "armed": false}, "ekf": {"attitude": {"roll": 0.021968379616737366, "pitch": -0.0007704398594796658, "yaw": -0.5538262724876404}, "local_position": {"x": null, "y": null, "z": null}, "status": {"flags": 135, "velocity_variance": 0.0, "pos_horiz_variance": 0.006237651687115431, "pos_vert_variance": 0.010412842035293579}}, "errors": []}
{"timestamp": "2026-01-15T13:52:31.518176Z", "telemetry": {"lat": 28.7530059, "lon": 77.1179622, "satellites": 0, "altitude_gps_m": 0.28999999165534973, "groundspeed_mps": 0.026782214641571045}, "flight": {"mode": "STABILIZE", "armed": false}, "ekf": {"attitude": {"roll": 0.02189161814749241, "pitch": -0.0006301682442426682, "yaw": -0.553787350654602}, "local_position": {"x": null, "y": null, "z": null}, "status": {"flags": 135, "velocity_variance": 0.0, "pos_horiz_variance": 0.006305451039224863, "pos_vert_variance": 0.03470095619559288}}, "errors": []}
{"timestamp": "2026-01-15T13:52:32.518156Z", "telemetry": {"lat": 28.7530059, "lon": 77.1179622, "satellites": 0, "altitude_gps_m": 0.28999999165534973, "groundspeed_mps": 0.025455068796873093}, "flight": {"mode": "STABILIZE", "armed": false}, "ekf": {"attitude": {"roll": 0.021885903552174568, "pitch": -0.0005063898861408234, "yaw": -0.5536929368972778}, "local_position": {"x": null, "y": null, "z": null}, "status": {"flags": 135, "velocity_variance": 0.0, "pos_horiz_variance": 0.006307302042841911, "pos_vert_variance": 0.004677274264395237}}, "errors": []}
{"timestamp": "2026-01-15T13:52:33.492439Z", "telemetry": {"lat": 28.7530059, "lon": 77.1179622, "satellites": 0, "altitude_gps_m": 0.28999999165534973, "groundspeed_mps": 0.024891261011362076}, "flight": {"mode": "STABILIZE", "armed": false}, "ekf": {"attitude": {"roll": 0.021818505600094795, "pitch": -0.0006015081889927387, "yaw": -0.5537781715393066}, "local_position": {"x": null, "y": null, "z": null}, "status": {"flags": 135, "velocity_variance": 0.0, "pos_horiz_variance": 0.00616112956777215, "pos_vert_variance": 0.00641659926623106}}, "errors": []}
{"timestamp": "2026-01-15T13:52:34.490100Z", "telemetry": {"lat": 28.7530059, "lon": 77.1179622, "satellites": 0, "altitude_gps_m": 0.28999999165534973, "groundspeed_mps": 0.02419671043753624}, "flight": {"mode": "STABILIZE", "armed": false}, "ekf": {"attitude": {"roll": 0.021817626431584358, "pitch": -0.0004829028621315956, "yaw": -0.5537968277931213}, "local_position": {"x": null, "y": null, "z": null}, "status": {"flags": 135, "velocity_variance": 0.0, "pos_horiz_variance": 0.006118733901530504, "pos_vert_variance": 0.03992152959108353}}, "errors": []}
{"timestamp": "2026-01-15T13:52:35.492753Z", "telemetry": {"lat": 28.7530059, "lon": 77.1179622, "satellites": 0, "altitude_gps_m": 0.28999999165534973, "groundspeed_mps": 0.022029098123311996}, "flight": {"mode": "STABILIZE", "armed": false}, "ekf": {"attitude": {"roll": 0.021773040294647217, "pitch": -0.00040359562262892723, "yaw": -0.5538197755813599}, "local_position": {"x": null, "y": null, "z": null}, "status": {"flags": 135, "velocity_variance": 0.0, "pos_horiz_variance": 0.00592868123203516, "pos_vert_variance": 0.07190196216106415}}, "errors": []}
{"timestamp": "2026-01-15T13:52:36.493393Z", "telemetry": {"lat": 28.7530059, "lon": 77.1179622, "satellites": 0, "altitude_gps_m": 0.28999999165534973, "groundspeed_mps": 0.022409332916140556}, "flight": {"mode": "STABILIZE", "armed": false}, "ekf": {"attitude": {"roll": 0.02170824632048607, "pitch": -0.00047885486856102943, "yaw": -0.5537827014923096}, "local_position": {"x": null, "y": null, "z": null}, "status": {"flags": 135, "velocity_variance": 0.0, "pos_horiz_variance": 0.005447747185826302, "pos_vert_variance": 0.014039715752005577}}, "errors": []}
{"timestamp": "2026-01-15T13:52:37.498483Z", "telemetry": {"lat": 28.7530059, "lon": 77.1179622, "satellites": 0, "altitude_gps_m": 0.28999999165534973, "groundspeed_mps": 0.020370913669466972}, "flight": {"mode": "STABILIZE", "armed": false}, "ekf": {"attitude": {"roll": 0.021673336625099182, "pitch": -0.0003026495687663555, "yaw": -0.5537479519844055}, "local_position": {"x": null, "y": null, "z": null}, "status": {"flags": 135, "velocity_variance": 0.0, "pos_horiz_variance": 0.005333166569471359, "pos_vert_variance": 0.0542740635573864}}, "errors": ["PreArm: Hardware safety switch"]}
{"timestamp": "2026-01-15T13:52:38.496681Z", "telemetry": {"lat": 28.7530059, "lon": 77.1179622, "satellites": 0, "altitude_gps_m": 0.28999999165534973, "groundspeed_mps": 0.020256122574210167}, "flight": {"mode": "STABILIZE", "armed": false}, "ekf": {"attitude": {"roll": 0.021590586751699448, "pitch": -0.00034892838448286057, "yaw": -0.5537787675857544}, "local_position": {"x": null, "y": null, "z": null}, "status": {"flags": 135, "velocity_variance": 0.0, "pos_horiz_variance": 0.005199010483920574, "pos_vert_variance": 0.040256939828395844}}, "errors": ["PreArm: Hardware safety switch"]}
{"timestamp": "2026-01-15T13:52:39.500754Z", "telemetry": {"lat": 28.7530059, "lon": 77.1179622, "satellites": 0, "altitude_gps_m": 0.28999999165534973, "groundspeed_mps": 0.021378133445978165}, "flight": {"mode": "STABILIZE", "armed": false}, "ekf": {"attitude": {"roll": 0.021528372541069984, "pitch": -0.00024921027943491936, "yaw": -0.5537053346633911}, "local_position": {"x": null, "y": null, "z": null}, "status": {"flags": 135, "velocity_variance": 0.0, "pos_horiz_variance": 0.005056807305663824, "pos_vert_variance": 0.08179565519094467}}, "errors": ["PreArm: Hardware safety switch"]}
{"timestamp": "2026-01-15T13:52:40.471663Z", "telemetry": {"lat": 28.7530059, "lon": 77.1179622, "satellites": 0, "altitude_gps_m": 0.28999999165534973, "groundspeed_mps": 0.019937695935368538}, "flight": {"mode": "STABILIZE", "armed": false}, "ekf": {"attitude": {"roll": 0.021390799432992935, "pitch": -0.00010479195043444633, "yaw": -0.5536736249923706}, "local_position": {"x": null, "y": null, "z": null}, "status": {"flags": 135, "velocity_variance": 0.0, "pos_horiz_variance": 0.005216576624661684, "pos_vert_variance": 0.10745785385370255}}, "errors": ["PreArm: Hardware safety switch"]}
{"timestamp": "2026-01-15T13:52:41.498221Z", "telemetry": {"lat": 28.7530059, "lon": 77.1179622, "satellites": 0, "altitude_gps_m": 0.28999999165534973, "groundspeed_mps": 0.01554675493389368}, "flight": {"mode": "STABILIZE", "armed": false}, "ekf": {"attitude": {"roll": 0.021221667528152466, "pitch": 4.201289266347885e-05, "yaw": -0.5536880493164062}, "local_position": {"x": null, "y": null, "z": null}, "status": {"flags": 135, "velocity_variance": 0.0, "pos_horiz_variance": 0.004645992070436478, "pos_vert_variance": 0.01785999909043312}}, "errors": ["PreArm: Hardware safety switch"]}
{"timestamp": "2026-01-15T13:52:42.503417Z", "telemetry": {"lat": 28.7530059, "lon": 77.1179622, "satellites": 0, "altitude_gps_m": 0.28999999165534973, "groundspeed_mps": 0.014791841618716717}, "flight": {"mode": "STABILIZE", "armed": false}, "ekf": {"attitude": {"roll": 0.021081436425447464, "pitch": 6.55120238661766e-05, "yaw": -0.5537222027778625}, "local_position": {"x": null, "y": null, "z": null}, "status": {"flags": 135, "velocity_variance": 0.0, "pos_horiz_variance": 0.004034371580928564, "pos_vert_variance": 0.030312759801745415}}, "errors": ["PreArm: Hardware safety switch"]}
{"timestamp": "2026-01-15T13:52:43.494509Z", "telemetry": {"lat": 28.7530059, "lon": 77.1179622, "satellites": 0, "altitude_gps_m": 0.28999999165534973, "groundspeed_mps": 0.01519740279763937}, "flight": {"mode": "STABILIZE", "armed": false}, "ekf": {"attitude": {"roll": 0.021047962829470634, "pitch": 0.0001644650474190712, "yaw": -0.5535331964492798}, "local_position": {"x": null, "y": null, "z": null}, "status": {"flags": 135, "velocity_variance": 0.0, "pos_horiz_variance": 0.0038350666873157024, "pos_vert_variance": 0.0052698818035423756}}, "errors": ["PreArm: Hardware safety switch"]}
{"timestamp": "2026-01-15T13:52:44.493948Z", "telemetry": {"lat": 28.7530059, "lon": 77.1179622, "satellites": 0, "altitude_gps_m": 0.28999999165534973, "groundspeed_mps": 0.01417604275047779}, "flight": {"mode": "STABILIZE", "armed": false}, "ekf": {"attitude": {"roll": 0.021103840321302414, "pitch": 0.0003404286690056324, "yaw": -0.5533225536346436}, "local_position": {"x": null, "y": null, "z": null}, "status": {"flags": 135, "velocity_variance": 0.0, "pos_horiz_variance": 0.0036428566090762615, "pos_vert_variance": 0.01540901605039835}}, "errors": ["PreArm: Hardware safety switch"]}
{"timestamp": "2026-01-15T13:52:45.498094Z", "telemetry": {"lat": 28.7530059, "lon": 77.1179622, "satellites": 0, "altitude_gps_m": 0.28999999165534973, "groundspeed_mps": 0.014525397680699825}, "flight": {"mode": "STABILIZE", "armed": false}, "ekf": {"attitude": {"roll": 0.02102747932076454, "pitch": 0.0005070366896688938, "yaw": -0.5532330274581909}, "local_position": {"x": null, "y": null, "z": null}, "status": {"flags": 135, "velocity_variance": 0.0, "pos_horiz_variance": 0.003624693024903536, "pos_vert_variance": 0.055318206548690796}}, "errors": ["PreArm: Hardware safety switch"]}
{"timestamp": "2026-01-15T13:52:46.497778Z", "telemetry": {"lat": 28.7530059, "lon": 77.1179622, "satellites": 0, "altitude_gps_m": 0.28999999165534973, "groundspeed_mps": 0.012234894558787346}, "flight": {"mode": "STABILIZE", "armed": false}, "ekf": {"attitude": {"roll": 0.02104761265218258, "pitch": 0.0005942471325397491, "yaw": -0.5533875226974487}, "local_position": {"x": null, "y": null, "z": null}, "status": {"flags": 135, "velocity_variance": 0.0, "pos_horiz_variance": 0.0035056027118116617, "pos_vert_variance": 0.07938263565301895}}, "errors": ["PreArm: Hardware safety switch"]}
{"timestamp": "2026-01-15T13:52:47.498168Z", "telemetry": {"lat": 28.7530059, "lon": 77.1179622, "satellites": 0, "altitude_gps_m": 0.28999999165534973, "groundspeed_mps": 0.01017113495618105}, "flight": {"mode": "STABILIZE", "armed": false}, "ekf": {"attitude": {"roll": 0.020957475528120995, "pitch": 0.0005552126094698906, "yaw": -0.5530528426170349}, "local_position": {"x": null, "y": null, "z": null}, "status": {"flags": 135, "velocity_variance": 0.0, "pos_horiz_variance": 0.002801945200189948, "pos_vert_variance": 0.04851704463362694}}, "errors": ["PreArm: Hardware safety switch"]}
{"timestamp": "2026-01-15T13:52:48.470107Z", "telemetry": {"lat": 28.7530059, "lon": 77.1179622, "satellites": 0, "altitude_gps_m": 0.28999999165534973, "groundspeed_mps": 0.010724169202148914}, "flight": {"mode": "STABILIZE", "armed": false}, "ekf": {"attitude": {"roll": 0.02093290537595749, "pitch": 0.0004033721052110195, "yaw": -0.5529851317405701}, "local_position": {"x": null, "y": null, "z": null}, "status": {"flags": 135, "velocity_variance": 0.0, "pos_horiz_variance": 0.0026578090619295835, "pos_vert_variance": 0.026033645495772362}}, "errors": ["PreArm: Hardware safety switch"]}
{"timestamp": "2026-01-15T13:52:49.470392Z", "telemetry": {"lat": 28.7530059, "lon": 77.1179622, "satellites": 0, "altitude_gps_m": 0.28999999165534973, "groundspeed_mps": 0.012743818573653698}, "flight": {"mode": "STABILIZE", "armed": false}, "ekf": {"attitude": {"roll": 0.020788323134183884, "pitch": 0.00040342239663004875, "yaw": -0.552908718585968}, "local_position": {"x": null, "y": null, "z": null}, "status": {"flags": 135, "velocity_variance": 0.0, "pos_horiz_variance": 0.002777871210128069, "pos_vert_variance": 0.06230611354112625}}, "errors": ["PreArm: Hardware safety switch"]}
{"timestamp": "2026-01-15T13:52:50.479840Z", "telemetry": {"lat": 28.7530059, "lon": 77.1179622, "satellites": 0, "altitude_gps_m": 0.28999999165534973, "groundspeed_mps": 0.013564471155405045}, "flight": {"mode": "STABILIZE", "armed": false}, "ekf": {"attitude": {"roll": 0.020715489983558655, "pitch": 0.000421775970607996, "yaw": -0.5528625249862671}, "local_position": {"x": null, "y": null, "z": null}, "status": {"flags": 135, "velocity_variance": 0.0, "pos_horiz_variance": 0.0029892080929130316, "pos_vert_variance": 0.04152243211865425}}, "errors": ["PreArm: Hardware safety switch"]}
