{"timestamp": "2025-12-28T11:38:26.376432Z", "telemetry": {"lat": 28.7531071, "lon": 77.1178014, "satellites": 8, "altitude_gps_m": 200.72999572753906, "groundspeed_mps": 0.2036934196949005}, "flight": {"mode": null, "armed": null}, "ekf": {"attitude": {"roll": -0.02689354494214058, "pitch": 0.0651441141963005, "yaw": -1.9352506399154663}, "local_position": {"x": 3.6136603355407715, "y": -12.030914306640625, "z": 1.0463167428970337}, "status": {"flags": 33599, "velocity_variance": 0.6766069531440735, "pos_horiz_variance": 0.027361083775758743, "pos_vert_variance": 0.016661234200000763}}, "errors": []}
{"timestamp": "2025-12-28T11:38:27.368932Z", "telemetry": {"lat": 28.7531058, "lon": 77.1178041, "satellites": 8, "altitude_gps_m": 200.64999389648438, "groundspeed_mps": 0.2465413361787796}, "flight": {"mode": "STABILIZE", "armed": false}, "ekf": {"attitude": {"roll": -0.027051102370023727, "pitch": 0.06507505476474762, "yaw": -1.9351093769073486}, "local_position": {"x": 3.9233906269073486, "y": -11.63557243347168, "z": 1.122548222541809}, "status": {"flags": 33599, "velocity_variance": 0.46965402364730835, "pos_horiz_variance": 0.02526729740202427, "pos_vert_variance": 0.04068778455257416}}, "errors": []}
{"timestamp": "2025-12-28T11:38:28.367864Z", "telemetry": {"lat": 28.7530978, "lon": 77.1178137, "satellites": 10, "altitude_gps_m": 200.5500030517578, "groundspeed_mps": 0.15227508544921875}, "flight": {"mode": "STABILIZE", "armed": false}, "ekf": {"attitude": {"roll": -0.031041700392961502, "pitch": 0.06436187773942947, "yaw": -1.9349780082702637}, "local_position": {"x": 3.0331780910491943, "y": -10.700263977050781, "z": 1.228476881980896}, "status": {"flags": 33599, "velocity_variance": 0.14077265560626984, "pos_horiz_variance": 0.027128735557198524, "pos_vert_variance": 0.04786182940006256}}, "errors": []}
{"timestamp": "2025-12-28T11:38:29.368952Z", "telemetry": {"lat": 28.7530912, "lon": 77.1178173, "satellites": 10, "altitude_gps_m": 200.47000122070312, "groundspeed_mps": 0.2342812716960907}, "flight": {"mode": "STABILIZE", "armed": false}, "ekf": {"attitude": {"roll": -0.03271755203604698, "pitch": 0.06399772316217422, "yaw": -1.9349416494369507}, "local_position": {"x": 2.680098295211792, "y": -10.221467971801758, "z": 1.3086979389190674}, "status": {"flags": 33599, "velocity_variance": 0.22996829450130463, "pos_horiz_variance": 0.027478668838739395, "pos_vert_variance": 0.05923309922218323}}, "errors": ["PreArm: Hardware safety switch"]}
{"timestamp": "2025-12-28T11:38:30.367775Z", "telemetry": {"lat": 28.7530901, "lon": 77.1178114, "satellites": 10, "altitude_gps_m": 200.50999450683594, "groundspeed_mps": 0.2513746917247772}, "flight": {"mode": "STABILIZE", "armed": false}, "ekf": {"attitude": {"roll": -0.03268781676888466, "pitch": 0.06183755397796631, "yaw": -1.9347715377807617}, "local_position": {"x": 2.2983551025390625, "y": -10.294994354248047, "z": 1.2635992765426636}, "status": {"flags": 33599, "velocity_variance": 0.47918638586997986, "pos_horiz_variance": 0.018081530928611755, "pos_vert_variance": 0.022281641140580177}}, "errors": ["PreArm: Hardware safety switch"]}
{"timestamp": "2025-12-28T11:38:31.368972Z", "telemetry": {"lat": 28.753087, "lon": 77.1178131, "satellites": 10, "altitude_gps_m": 200.489990234375, "groundspeed_mps": 0.3264893889427185}, "flight": {"mode": "STABILIZE", "armed": false}, "ekf": {"attitude": {"roll": -0.03301091119647026, "pitch": 0.060260526835918427, "yaw": -1.9346319437026978}, "local_position": {"x": 1.968691349029541, "y": -10.546392440795898, "z": 1.2821929454803467}, "status": {"flags": 33599, "velocity_variance": 0.2928440570831299, "pos_horiz_variance": 0.022669335827231407, "pos_vert_variance": 0.025749852880835533}}, "errors": ["PreArm: Hardware safety switch"]}
{"timestamp": "2025-12-28T11:38:32.368437Z", "telemetry": {"lat": 28.75309, "lon": 77.1178125, "satellites": 10, "altitude_gps_m": 200.5500030517578, "groundspeed_mps": 0.22405730187892914}, "flight": {"mode": "STABILIZE", "armed": false}, "ekf": {"attitude": {"roll": -0.030747193843126297, "pitch": 0.061066094785928726, "yaw": -1.9343549013137817}, "local_position": {"x": 1.9306321144104004, "y": -10.395485877990723, "z": 1.2414417266845703}, "status": {"flags": 33599, "velocity_variance": 0.22885575890541077, "pos_horiz_variance": 0.017121165990829468, "pos_vert_variance": 0.06915435194969177}}, "errors": ["PreArm: Hardware safety switch"]}
{"timestamp": "2025-12-28T11:38:33.368503Z", "telemetry": {"lat": 28.7530928, "lon": 77.1178159, "satellites": 10, "altitude_gps_m": 200.50999450683594, "groundspeed_mps": 0.27688348293304443}, "flight": {"mode": "STABILIZE", "armed": false}, "ekf": {"attitude": {"roll": -0.03164086118340492, "pitch": 0.06047915667295456, "yaw": -1.9343278408050537}, "local_position": {"x": 1.991385579109192, "y": -10.023832321166992, "z": 1.2673524618148804}, "status": {"flags": 33599, "velocity_variance": 0.3435089886188507, "pos_horiz_variance": 0.016774741932749748, "pos_vert_variance": 0.01794920489192009}}, "errors": ["PreArm: Hardware safety switch"]}
{"timestamp": "2025-12-28T11:38:34.368263Z", "telemetry": {"lat": 28.7530896, "lon": 77.1178198, "satellites": 10, "altitude_gps_m": 200.5699920654297, "groundspeed_mps": 0.3147413730621338}, "flight": {"mode": "STABILIZE", "armed": false}, "ekf": {"attitude": {"roll": -0.031627822667360306, "pitch": 0.060455381870269775, "yaw": -1.9341157674789429}, "local_position": {"x": 1.8267991542816162, "y": -9.959257125854492, "z": 1.2066107988357544}, "status": {"flags": 33599, "velocity_variance": 0.3521716296672821, "pos_horiz_variance": 0.022303452715277672, "pos_vert_variance": 0.06254958361387253}}, "errors": ["PreArm: Hardware safety switch"]}
{"timestamp": "2025-12-28T11:38:35.368782Z", "telemetry": {"lat": 28.7530902, "lon": 77.117819, "satellites": 10, "altitude_gps_m": 200.69000244140625, "groundspeed_mps": 0.31832802295684814}, "flight": {"mode": "STABILIZE", "armed": false}, "ekf": {"attitude": {"roll": -0.03085452690720558, "pitch": 0.06050766259431839, "yaw": -1.9335201978683472}, "local_position": {"x": 1.8265461921691895, "y": -9.844416618347168, "z": 1.077201247215271}, "status": {"flags": 33599, "velocity_variance": 0.07916441559791565, "pos_horiz_variance": 0.018639715388417244, "pos_vert_variance": 0.08440151065587997}}, "errors": ["PreArm: Hardware safety switch"]}
{"timestamp": "2025-12-28T11:38:36.368351Z", "telemetry": {"lat": 28.7530867, "lon": 77.117819, "satellites": 10, "altitude_gps_m": 200.63999938964844, "groundspeed_mps": 0.41821861267089844}, "flight": {"mode": "STABILIZE", "armed": false}, "ekf": {"attitude": {"roll": -0.03242642804980278, "pitch": 0.05992820858955383, "yaw": -1.933451771736145}, "local_position": {"x": 1.4092702865600586, "y": -9.684028625488281, "z": 1.1239672899246216}, "status": {"flags": 33599, "velocity_variance": 0.3066069483757019, "pos_horiz_variance": 0.014490196481347084, "pos_vert_variance": 0.013426454737782478}}, "errors": ["PreArm: Hardware safety switch"]}
{"timestamp": "2025-12-28T11:38:37.370220Z", "telemetry": {"lat": 28.753083, "lon": 77.1178094, "satellites": 10, "altitude_gps_m": 200.58999633789062, "groundspeed_mps": 0.5463773012161255}, "flight": {"mode": "STABILIZE", "armed": false}, "ekf": {"attitude": {"roll": -0.03224029019474983, "pitch": 0.058247584849596024, "yaw": -1.9332153797149658}, "local_position": {"x": 0.95930016040802, "y": -10.163069725036621, "z": 1.189237117767334}, "status": {"flags": 33599, "velocity_variance": 0.2741973102092743, "pos_horiz_variance": 0.005949333310127258, "pos_vert_variance": 0.0026218912098556757}}, "errors": ["PreArm: Hardware safety switch"]}
{"timestamp": "2025-12-28T11:38:38.367977Z", "telemetry": {"lat": 28.7530828, "lon": 77.1178034, "satellites": 10, "altitude_gps_m": 200.58999633789062, "groundspeed_mps": 0.653156042098999}, "flight": {"mode": "STABILIZE", "armed": false}, "ekf": {"attitude": {"roll": -0.03132978454232216, "pitch": 0.057849619537591934, "yaw": -1.9330065250396729}, "local_position": {"x": 0.6506893634796143, "y": -10.575865745544434, "z": 1.1705964803695679}, "status": {"flags": 33599, "velocity_variance": 0.27647411823272705, "pos_horiz_variance": 0.006416947580873966, "pos_vert_variance": 0.008498648181557655}}, "errors": ["PreArm: Hardware safety switch"]}
{"timestamp": "2025-12-28T11:38:39.368824Z", "telemetry": {"lat": 28.7530876, "lon": 77.117793, "satellites": 10, "altitude_gps_m": 200.5699920654297, "groundspeed_mps": 0.7640096545219421}, "flight": {"mode": "STABILIZE", "armed": false}, "ekf": {"attitude": {"roll": -0.02983419969677925, "pitch": 0.05702470242977142, "yaw": -1.932594895362854}, "local_position": {"x": 0.5511338710784912, "y": -11.26115608215332, "z": 1.2089966535568237}, "status": {"flags": 33599, "velocity_variance": 0.6832754015922546, "pos_horiz_variance": 0.018398044630885124, "pos_vert_variance": 0.07236777991056442}}, "errors": ["PreArm: Hardware safety switch"]}
{"timestamp": "2025-12-28T11:38:40.371204Z", "telemetry": {"lat": 28.7530887, "lon": 77.1177939, "satellites": 10, "altitude_gps_m": 200.59999084472656, "groundspeed_mps": 0.7456417083740234}, "flight": {"mode": "STABILIZE", "armed": false}, "ekf": {"attitude": {"roll": -0.02910808101296425, "pitch": 0.058080412447452545, "yaw": -1.9325631856918335}, "local_position": {"x": 0.9959989786148071, "y": -11.799583435058594, "z": 1.193995475769043}, "status": {"flags": 33599, "velocity_variance": 0.45242056250572205, "pos_horiz_variance": 0.014575791545212269, "pos_vert_variance": 0.07580240070819855}}, "errors": ["PreArm: Hardware safety switch"]}
{"timestamp": "2025-12-28T11:38:41.368132Z", "telemetry": {"lat": 28.753088, "lon": 77.1177945, "satellites": 10, "altitude_gps_m": 200.6199951171875, "groundspeed_mps": 0.6966559886932373}, "flight": {"mode": "STABILIZE", "armed": false}, "ekf": {"attitude": {"roll": -0.028961192816495895, "pitch": 0.0596146434545517, "yaw": -1.9323676824569702}, "local_position": {"x": 0.9753519892692566, "y": -11.967199325561523, "z": 1.1409690380096436}, "status": {"flags": 33599, "velocity_variance": 0.24154704809188843, "pos_horiz_variance": 0.017104431986808777, "pos_vert_variance": 0.05311255529522896}}, "errors": ["PreArm: Hardware safety switch"]}
{"timestamp": "2025-12-28T11:38:42.368753Z", "telemetry": {"lat": 28.7530916, "lon": 77.1177979, "satellites": 10, "altitude_gps_m": 200.47999572753906, "groundspeed_mps": 0.5938323736190796}, "flight": {"mode": "STABILIZE", "armed": false}, "ekf": {"attitude": {"roll": -0.02796081081032753, "pitch": 0.06210040673613548, "yaw": -1.9321081638336182}, "local_position": {"x": 1.2531511783599854, "y": -12.077752113342285, "z": 1.2640005350112915}, "status": {"flags": 33599, "velocity_variance": 0.461032509803772, "pos_horiz_variance": 0.022450881078839302, "pos_vert_variance": 0.05496750771999359}}, "errors": ["PreArm: Hardware safety switch"]}
{"timestamp": "2025-12-28T11:38:43.369358Z", "telemetry": {"lat": 28.7530915, "lon": 77.1177953, "satellites": 10, "altitude_gps_m": 200.55999755859375, "groundspeed_mps": 0.5453484654426575}, "flight": {"mode": "STABILIZE", "armed": false}, "ekf": {"attitude": {"roll": -0.028463635593652725, "pitch": 0.06270269304513931, "yaw": -1.932019829750061}, "local_position": {"x": 1.4701964855194092, "y": -11.989005088806152, "z": 1.2529302835464478}, "status": {"flags": 33599, "velocity_variance": 0.22354787588119507, "pos_horiz_variance": 0.019840100780129433, "pos_vert_variance": 0.012557408772408962}}, "errors": ["PreArm: Hardware safety switch"]}
{"timestamp": "2025-12-28T11:38:44.368539Z", "telemetry": {"lat": 28.753091, "lon": 77.1177952, "satellites": 10, "altitude_gps_m": 200.5800018310547, "groundspeed_mps": 0.4985769987106323}, "flight": {"mode": "STABILIZE", "armed": false}, "ekf": {"attitude": {"roll": -0.02868587151169777, "pitch": 0.06391856074333191, "yaw": -1.9315906763076782}, "local_position": {"x": 1.412044644355774, "y": -12.112439155578613, "z": 1.2236477136611938}, "status": {"flags": 33599, "velocity_variance": 0.22783614695072174, "pos_horiz_variance": 0.02098795399069786, "pos_vert_variance": 0.04539492726325989}}, "errors": ["PreArm: Hardware safety switch"]}
{"timestamp": "2025-12-28T11:38:45.368120Z", "telemetry": {"lat": 28.7530917, "lon": 77.1177909, "satellites": 10, "altitude_gps_m": 200.72000122070312, "groundspeed_mps": 0.5127074718475342}, "flight": {"mode": "STABILIZE", "armed": false}, "ekf": {"attitude": {"roll": -0.029375288635492325, "pitch": 0.06379155069589615, "yaw": -1.9312385320663452}, "local_position": {"x": 1.541654348373413, "y": -12.383207321166992, "z": 1.0721577405929565}, "status": {"flags": 33599, "velocity_variance": 0.38914456963539124, "pos_horiz_variance": 0.019788235425949097, "pos_vert_variance": 0.028877725824713707}}, "errors": ["PreArm: Hardware safety switch"]}
{"timestamp": "2025-12-28T11:38:46.368456Z", "telemetry": {"lat": 28.7530942, "lon": 77.1177985, "satellites": 10, "altitude_gps_m": 200.67999267578125, "groundspeed_mps": 0.27437934279441833}, "flight": {"mode": "STABILIZE", "armed": false}, "ekf": {"attitude": {"roll": -0.03057379648089409, "pitch": 0.06731218099594116, "yaw": -1.9309226274490356}, "local_position": {"x": 1.439994215965271, "y": -11.909165382385254, "z": 1.0656484365463257}, "status": {"flags": 33599, "velocity_variance": 0.2700241804122925, "pos_horiz_variance": 0.027011653408408165, "pos_vert_variance": 0.01796913705766201}}, "errors": ["PreArm: Hardware safety switch"]}
{"timestamp": "2025-12-28T11:38:47.368590Z", "telemetry": {"lat": 28.7530968, "lon": 77.117801, "satellites": 10, "altitude_gps_m": 200.6699981689453, "groundspeed_mps": 0.18020033836364746}, "flight": {"mode": "STABILIZE", "armed": false}, "ekf": {"attitude": {"roll": -0.030637633055448532, "pitch": 0.0682641863822937, "yaw": -1.9305713176727295}, "local_position": {"x": 1.5287545919418335, "y": -11.537135124206543, "z": 1.1176197528839111}, "status": {"flags": 33599, "velocity_variance": 0.2590184509754181, "pos_horiz_variance": 0.029424043372273445, "pos_vert_variance": 0.025549903512001038}}, "errors": ["PreArm: Hardware safety switch"]}
{"timestamp": "2025-12-28T11:38:48.367900Z", "telemetry": {"lat": 28.7531038, "lon": 77.1178062, "satellites": 10, "altitude_gps_m": 200.5699920654297, "groundspeed_mps": 0.06615503877401352}, "flight": {"mode": "STABILIZE", "armed": false}, "ekf": {"attitude": {"roll": -0.030654754489660263, "pitch": 0.06994370371103287, "yaw": -1.9300669431686401}, "local_position": {"x": 1.9240291118621826, "y": -11.272583961486816, "z": 1.1747405529022217}, "status": {"flags": 33599, "velocity_variance": 0.22620739042758942, "pos_horiz_variance": 0.03403551131486893, "pos_vert_variance": 0.0013588560977950692}}, "errors": ["PreArm: Hardware safety switch"]}
{"timestamp": "2025-12-28T11:38:49.368543Z", "telemetry": {"lat": 28.7531091, "lon": 77.1178082, "satellites": 10, "altitude_gps_m": 200.4099884033203, "groundspeed_mps": 0.09602803736925125}, "flight": {"mode": "STABILIZE", "armed": false}, "ekf": {"attitude": {"roll": -0.030527818948030472, "pitch": 0.07125648856163025, "yaw": -1.9294788837432861}, "local_position": {"x": 2.337340831756592, "y": -10.852551460266113, "z": 1.333801507949829}, "status": {"flags": 33599, "velocity_variance": 0.21241652965545654, "pos_horiz_variance": 0.038081228733062744, "pos_vert_variance": 0.02868531085550785}}, "errors": ["PreArm: Hardware safety switch"]}
{"timestamp": "2025-12-28T11:38:50.368715Z", "telemetry": {"lat": 28.753112, "lon": 77.1178145, "satellites": 10, "altitude_gps_m": 200.4099884033203, "groundspeed_mps": 0.25579410791397095}, "flight": {"mode": "STABILIZE", "armed": false}, "ekf": {"attitude": {"roll": -0.02949010208249092, "pitch": 0.07274402678012848, "yaw": -1.9290035963058472}, "local_position": {"x": 2.8254663944244385, "y": -10.265381813049316, "z": 1.3791154623031616}, "status": {"flags": 33599, "velocity_variance": 0.21148844063282013, "pos_horiz_variance": 0.03623751550912857, "pos_vert_variance": 0.020698625594377518}}, "errors": ["PreArm: Hardware safety switch"]}
{"timestamp": "2025-12-28T11:38:51.367937Z", "telemetry": {"lat": 28.7531265, "lon": 77.1178142, "satellites": 10, "altitude_gps_m": 200.45999145507812, "groundspeed_mps": 0.4668406844139099}, "flight": {"mode": "STABILIZE", "armed": false}, "ekf": {"attitude": {"roll": -0.027397189289331436, "pitch": 0.07307353615760803, "yaw": -1.9285531044006348}, "local_position": {"x": 4.086732387542725, "y": -10.025879859924316, "z": 1.3248478174209595}, "status": {"flags": 33599, "velocity_variance": 0.12906353175640106, "pos_horiz_variance": 0.0411539301276207, "pos_vert_variance": 0.028366459533572197}}, "errors": ["PreArm: Hardware safety switch"]}
{"timestamp": "2025-12-28T11:38:52.368785Z", "telemetry": {"lat": 28.7531352, "lon": 77.1178184, "satellites": 9, "altitude_gps_m": 200.55999755859375, "groundspeed_mps": 0.6385497450828552}, "flight": {"mode": "STABILIZE", "armed": false}, "ekf": {"attitude": {"roll": -0.026622828096151352, "pitch": 0.07415703684091568, "yaw": -1.9280633926391602}, "local_position": {"x": 5.184722900390625, "y": -9.685523986816406, "z": 1.2241158485412598}, "status": {"flags": 33599, "velocity_variance": 0.20624345541000366, "pos_horiz_variance": 0.04045209288597107, "pos_vert_variance": 0.04698381945490837}}, "errors": ["PreArm: Hardware safety switch"]}
{"timestamp": "2025-12-28T11:38:53.368377Z", "telemetry": {"lat": 28.7531349, "lon": 77.1178221, "satellites": 9, "altitude_gps_m": 200.58999633789062, "groundspeed_mps": 0.6478139758110046}, "flight": {"mode": "STABILIZE", "armed": false}, "ekf": {"attitude": {"roll": -0.027274813503026962, "pitch": 0.07338011264801025, "yaw": -1.9274356365203857}, "local_position": {"x": 5.754073143005371, "y": -9.067253112792969, "z": 1.2053687572479248}, "status": {"flags": 33599, "velocity_variance": 0.3494790196418762, "pos_horiz_variance": 0.027799872681498528, "pos_vert_variance": 0.028294723480939865}}, "errors": ["PreArm: Hardware safety switch"]}
{"timestamp": "2025-12-28T11:38:54.368451Z", "telemetry": {"lat": 28.7531423, "lon": 77.1178185, "satellites": 9, "altitude_gps_m": 200.72999572753906, "groundspeed_mps": 0.6519193053245544}, "flight": {"mode": "STABILIZE", "armed": false}, "ekf": {"attitude": {"roll": -0.026736285537481308, "pitch": 0.07164336740970612, "yaw": -1.926984190940857}, "local_position": {"x": 6.519982814788818, "y": -9.059062004089355, "z": 1.0550724267959595}, "status": {"flags": 33599, "velocity_variance": 0.2908436357975006, "pos_horiz_variance": 0.026259824633598328, "pos_vert_variance": 0.058136604726314545}}, "errors": ["PreArm: Hardware safety switch"]}
{"timestamp": "2025-12-28T11:38:55.368012Z", "telemetry": {"lat": 28.7531502, "lon": 77.1178182, "satellites": 9, "altitude_gps_m": 200.739990234375, "groundspeed_mps": 0.7126415371894836}, "flight": {"mode": "STABILIZE", "armed": false}, "ekf": {"attitude": {"roll": -0.02658887580037117, "pitch": 0.07158646732568741, "yaw": -1.9265553951263428}, "local_position": {"x": 7.450274467468262, "y": -9.183127403259277, "z": 1.0501093864440918}, "status": {"flags": 33599, "velocity_variance": 0.39230555295944214, "pos_horiz_variance": 0.024279890581965446, "pos_vert_variance": 0.0616842545568943}}, "errors": ["PreArm: Hardware safety switch"]}
{"timestamp": "2025-12-28T11:38:56.368504Z", "telemetry": {"lat": 28.753156, "lon": 77.1178214, "satellites": 10, "altitude_gps_m": 200.6199951171875, "groundspeed_mps": 0.7546447515487671}, "flight": {"mode": "STABILIZE", "armed": false}, "ekf": {"attitude": {"roll": -0.026662718504667282, "pitch": 0.07096979767084122, "yaw": -1.9262235164642334}, "local_position": {"x": 8.239195823669434, "y": -8.788896560668945, "z": 1.129697322845459}, "status": {"flags": 33599, "velocity_variance": 0.3618207573890686, "pos_horiz_variance": 0.021749086678028107, "pos_vert_variance": 0.0021050875075161457}}, "errors": ["PreArm: Hardware safety switch"]}
{"timestamp": "2025-12-28T11:38:57.368612Z", "telemetry": {"lat": 28.7531565, "lon": 77.1178219, "satellites": 10, "altitude_gps_m": 200.5800018310547, "groundspeed_mps": 0.6665367484092712}, "flight": {"mode": "STABILIZE", "armed": false}, "ekf": {"attitude": {"roll": -0.028679262846708298, "pitch": 0.06865745037794113, "yaw": -1.926041841506958}, "local_position": {"x": 8.707470893859863, "y": -8.740642547607422, "z": 1.1931912899017334}, "status": {"flags": 33599, "velocity_variance": 0.4770585298538208, "pos_horiz_variance": 0.014519128017127514, "pos_vert_variance": 0.025982921943068504}}, "errors": ["PreArm: Hardware safety switch"]}
{"timestamp": "2025-12-28T11:38:58.369299Z", "telemetry": {"lat": 28.7531553, "lon": 77.1178158, "satellites": 10, "altitude_gps_m": 200.6699981689453, "groundspeed_mps": 0.4468359053134918}, "flight": {"mode": "STABILIZE", "armed": false}, "ekf": {"attitude": {"roll": -0.030017416924238205, "pitch": 0.06575163453817368, "yaw": -1.9258209466934204}, "local_position": {"x": 8.750316619873047, "y": -9.08797836303711, "z": 1.1050312519073486}, "status": {"flags": 33599, "velocity_variance": 0.3467567563056946, "pos_horiz_variance": 0.009907529689371586, "pos_vert_variance": 0.027068449184298515}}, "errors": ["PreArm: Hardware safety switch"]}
{"timestamp": "2025-12-28T11:38:59.368348Z", "telemetry": {"lat": 28.7531575, "lon": 77.1178079, "satellites": 10, "altitude_gps_m": 200.739990234375, "groundspeed_mps": 0.465642511844635}, "flight": {"mode": "STABILIZE", "armed": false}, "ekf": {"attitude": {"roll": -0.030030887573957443, "pitch": 0.06268906593322754, "yaw": -1.9256385564804077}, "local_position": {"x": 9.128165245056152, "y": -9.677898406982422, "z": 1.0693974494934082}, "status": {"flags": 33599, "velocity_variance": 0.45572587847709656, "pos_horiz_variance": 0.007662505842745304, "pos_vert_variance": 0.03630494698882103}}, "errors": ["PreArm: Hardware safety switch"]}
{"timestamp": "2025-12-28T11:39:00.368176Z", "telemetry": {"lat": 28.7531645, "lon": 77.1178081, "satellites": 10, "altitude_gps_m": 200.84999084472656, "groundspeed_mps": 0.49538764357566833}, "flight": {"mode": "STABILIZE", "armed": false}, "ekf": {"attitude": {"roll": -0.030000608414411545, "pitch": 0.062059517949819565, "yaw": -1.9255539178848267}, "local_position": {"x": 9.545074462890625, "y": -9.982904434204102, "z": 0.9584296941757202}, "status": {"flags": 33599, "velocity_variance": 0.30856192111968994, "pos_horiz_variance": 0.012485126033425331, "pos_vert_variance": 0.024510791525244713}}, "errors": ["PreArm: Hardware safety switch", "PreArm: Hardware safety switch"]}
{"timestamp": "2025-12-28T11:39:01.368419Z", "telemetry": {"lat": 28.7531709, "lon": 77.1178031, "satellites": 10, "altitude_gps_m": 200.8699951171875, "groundspeed_mps": 0.5695488452911377}, "flight": {"mode": "STABILIZE", "armed": false}, "ekf": {"attitude": {"roll": -0.029787275940179825, "pitch": 0.06134176254272461, "yaw": -1.9255174398422241}, "local_position": {"x": 10.120353698730469, "y": -10.492647171020508, "z": 0.8924192786216736}, "status": {"flags": 33599, "velocity_variance": 0.15685723721981049, "pos_horiz_variance": 0.015501927584409714, "pos_vert_variance": 0.016874175518751144}}, "errors": ["PreArm: Hardware safety switch", "PreArm: Hardware safety switch"]}
{"timestamp": "2025-12-28T11:39:02.368321Z", "telemetry": {"lat": 28.7531707, "lon": 77.1178012, "satellites": 10, "altitude_gps_m": 200.9499969482422, "groundspeed_mps": 0.5192181468009949}, "flight": {"mode": "STABILIZE", "armed": false}, "ekf": {"attitude": {"roll": -0.03163417801260948, "pitch": 0.06019056588411331, "yaw": -1.9256528615951538}, "local_position": {"x": 10.302717208862305, "y": -10.714295387268066, "z": 0.8375867605209351}, "status": {"flags": 33599, "velocity_variance": 0.37450629472732544, "pos_horiz_variance": 0.011950114741921425, "pos_vert_variance": 0.02759622596204281}}, "errors": ["PreArm: Hardware safety switch", "PreArm: Hardware safety switch"]}
{"timestamp": "2025-12-28T11:39:03.368300Z", "telemetry": {"lat": 28.7531716, "lon": 77.1177959, "satellites": 10, "altitude_gps_m": 200.89999389648438, "groundspeed_mps": 0.5448579788208008}, "flight": {"mode": "STABILIZE", "armed": false}, "ekf": {"attitude": {"roll": -0.0326710008084774, "pitch": 0.05945650115609169, "yaw": -1.9256230592727661}, "local_position": {"x": 10.426360130310059, "y": -11.105173110961914, "z": 0.8462929725646973}, "status": {"flags": 33599, "velocity_variance": 0.21272577345371246, "pos_horiz_variance": 0.01426429208368063, "pos_vert_variance": 0.018762003630399704}}, "errors": ["PreArm: Hardware safety switch", "PreArm: Hardware safety switch"]}
{"timestamp": "2025-12-28T11:39:04.368206Z", "telemetry": {"lat": 28.7531716, "lon": 77.1177953, "satellites": 9, "altitude_gps_m": 200.87998962402344, "groundspeed_mps": 0.5579317212104797}, "flight": {"mode": "STABILIZE", "armed": false}, "ekf": {"attitude": {"roll": -0.0342019684612751, "pitch": 0.05904248729348183, "yaw": -1.9257488250732422}, "local_position": {"x": 10.284746170043945, "y": -11.503992080688477, "z": 0.9151783585548401}, "status": {"flags": 33599, "velocity_variance": 0.1449534147977829, "pos_horiz_variance": 0.013414517045021057, "pos_vert_variance": 0.03808923065662384}}, "errors": ["PreArm: Hardware safety switch", "PreArm: Hardware safety switch"]}
{"timestamp": "2025-12-28T11:39:05.368860Z", "telemetry": {"lat": 28.7531675, "lon": 77.1177963, "satellites": 9, "altitude_gps_m": 200.9199981689453, "groundspeed_mps": 0.5736963152885437}, "flight": {"mode": "STABILIZE", "armed": false}, "ekf": {"attitude": {"roll": -0.03642532601952553, "pitch": 0.059134647250175476, "yaw": -1.925864577293396}, "local_position": {"x": 9.968562126159668, "y": -11.718815803527832, "z": 0.8589330315589905}, "status": {"flags": 33599, "velocity_variance": 0.14925967156887054, "pos_horiz_variance": 0.014504370279610157, "pos_vert_variance": 0.05705845355987549}}, "errors": ["PreArm: Hardware safety switch", "PreArm: Hardware safety switch"]}
{"timestamp": "2025-12-28T11:39:06.368802Z", "telemetry": {"lat": 28.7531737, "lon": 77.1177963, "satellites": 9, "altitude_gps_m": 200.8199920654297, "groundspeed_mps": 0.5316559672355652}, "flight": {"mode": "STABILIZE", "armed": false}, "ekf": {"attitude": {"roll": -0.03514517471194267, "pitch": 0.060395851731300354, "yaw": -1.925446629524231}, "local_position": {"x": 10.118136405944824, "y": -11.849111557006836, "z": 0.9538686275482178}, "status": {"flags": 33599, "velocity_variance": 0.306451678276062, "pos_horiz_variance": 0.023754622787237167, "pos_vert_variance": 0.030790431424975395}}, "errors": ["PreArm: Hardware safety switch", "PreArm: Hardware safety switch"]}
{"timestamp": "2025-12-28T11:39:07.368837Z", "telemetry": {"lat": 28.7531763, "lon": 77.1178001, "satellites": 9, "altitude_gps_m": 200.7899932861328, "groundspeed_mps": 0.443807452917099}, "flight": {"mode": "STABILIZE", "armed": false}, "ekf": {"attitude": {"roll": -0.03546338155865669, "pitch": 0.061830367892980576, "yaw": -1.9254965782165527}, "local_position": {"x": 10.498298645019531, "y": -11.732806205749512, "z": 0.9486098885536194}, "status": {"flags": 33599, "velocity_variance": 0.14725187420845032, "pos_horiz_variance": 0.026799222454428673, "pos_vert_variance": 0.05672767385840416}}, "errors": ["PreArm: Hardware safety switch", "PreArm: Hardware safety switch"]}
{"timestamp": "2025-12-28T11:39:08.368345Z", "telemetry": {"lat": 28.7531827, "lon": 77.1178005, "satellites": 9, "altitude_gps_m": 200.67999267578125, "groundspeed_mps": 0.3889326751232147}, "flight": {"mode": "STABILIZE", "armed": false}, "ekf": {"attitude": {"roll": -0.034819263964891434, "pitch": 0.0627489686012268, "yaw": -1.9252947568893433}, "local_position": {"x": 10.841480255126953, "y": -11.681785583496094, "z": 1.09101140499115}, "status": {"flags": 33599, "velocity_variance": 0.14646153151988983, "pos_horiz_variance": 0.03320853412151337, "pos_vert_variance": 0.04751073196530342}}, "errors": ["PreArm: Hardware safety switch", "PreArm: Hardware safety switch"]}
{"timestamp": "2025-12-28T11:39:09.368225Z", "telemetry": {"lat": 28.7531848, "lon": 77.1177935, "satellites": 9, "altitude_gps_m": 200.61000061035156, "groundspeed_mps": 0.5015155076980591}, "flight": {"mode": "STABILIZE", "armed": false}, "ekf": {"attitude": {"roll": -0.0356481559574604, "pitch": 0.06133158132433891, "yaw": -1.9250922203063965}, "local_position": {"x": 11.117178916931152, "y": -12.082151412963867, "z": 1.137557864189148}, "status": {"flags": 33599, "velocity_variance": 0.3613898456096649, "pos_horiz_variance": 0.029956085607409477, "pos_vert_variance": 0.11993720382452011}}, "errors": ["PreArm: Hardware safety switch", "PreArm: Hardware safety switch"]}
{"timestamp": "2025-12-28T11:39:10.367892Z", "telemetry": {"lat": 28.7531826, "lon": 77.117795, "satellites": 10, "altitude_gps_m": 200.50999450683594, "groundspeed_mps": 0.4730834662914276}, "flight": {"mode": "STABILIZE", "armed": false}, "ekf": {"attitude": {"roll": -0.03582153096795082, "pitch": 0.06241749972105026, "yaw": -1.9248559474945068}, "local_position": {"x": 10.948420524597168, "y": -12.185458183288574, "z": 1.228633165359497}, "status": {"flags": 33599, "velocity_variance": 0.2315431386232376, "pos_horiz_variance": 0.031913939863443375, "pos_vert_variance": 0.052304014563560486}}, "errors": ["PreArm: Hardware safety switch", "PreArm: Hardware safety switch"]}
{"timestamp": "2025-12-28T11:39:11.374412Z", "telemetry": {"lat": 28.7531773, "lon": 77.1177951, "satellites": 10, "altitude_gps_m": 200.37998962402344, "groundspeed_mps": 0.46258023381233215}, "flight": {"mode": "STABILIZE", "armed": false}, "ekf": {"attitude": {"roll": -0.03679802641272545, "pitch": 0.06324680894613266, "yaw": -1.9247008562088013}, "local_position": {"x": 10.940213203430176, "y": -12.200634002685547, "z": 1.350572109222412}, "status": {"flags": 33599, "velocity_variance": 0.25782713294029236, "pos_horiz_variance": 0.023832369595766068, "pos_vert_variance": 0.008589372038841248}}, "errors": ["PreArm: Hardware safety switch", "PreArm: Hardware safety switch"]}
{"timestamp": "2025-12-28T11:39:12.369936Z", "telemetry": {"lat": 28.7531866, "lon": 77.1177951, "satellites": 10, "altitude_gps_m": 200.47999572753906, "groundspeed_mps": 0.37991902232170105}, "flight": {"mode": "STABILIZE", "armed": false}, "ekf": {"attitude": {"roll": -0.03555260971188545, "pitch": 0.06452200561761856, "yaw": -1.9244149923324585}, "local_position": {"x": 11.181379318237305, "y": -12.034153938293457, "z": 1.2940490245819092}, "status": {"flags": 33599, "velocity_variance": 0.10612113028764725, "pos_horiz_variance": 0.03215936943888664, "pos_vert_variance": 0.04294965788722038}}, "errors": ["PreArm: Hardware safety switch", "PreArm: Hardware safety switch"]}
{"timestamp": "2025-12-28T11:39:13.368408Z", "telemetry": {"lat": 28.7531901, "lon": 77.117795, "satellites": 10, "altitude_gps_m": 200.39999389648438, "groundspeed_mps": 0.292841374874115}, "flight": {"mode": "STABILIZE", "armed": false}, "ekf": {"attitude": {"roll": -0.03490930423140526, "pitch": 0.06509312242269516, "yaw": -1.9240481853485107}, "local_position": {"x": 11.795878410339355, "y": -11.989045143127441, "z": 1.3735264539718628}, "status": {"flags": 33599, "velocity_variance": 0.2561161518096924, "pos_horiz_variance": 0.030903855338692665, "pos_vert_variance": 0.05459120124578476}}, "errors": ["PreArm: Hardware safety switch", "PreArm: Hardware safety switch"]}
{"timestamp": "2025-12-28T11:39:14.368143Z", "telemetry": {"lat": 28.7531873, "lon": 77.1177952, "satellites": 10, "altitude_gps_m": 200.45999145507812, "groundspeed_mps": 0.31361252069473267}, "flight": {"mode": "STABILIZE", "armed": false}, "ekf": {"attitude": {"roll": -0.03553076460957527, "pitch": 0.06515715271234512, "yaw": -1.9239096641540527}, "local_position": {"x": 11.779775619506836, "y": -12.08069896697998, "z": 1.3355897665023804}, "status": {"flags": 33599, "velocity_variance": 0.22516430914402008, "pos_horiz_variance": 0.02653511054813862, "pos_vert_variance": 0.03769322484731674}}, "errors": ["PreArm: Hardware safety switch", "PreArm: Hardware safety switch"]}
{"timestamp": "2025-12-28T11:39:15.368392Z", "telemetry": {"lat": 28.7531822, "lon": 77.1177945, "satellites": 10, "altitude_gps_m": 200.39999389648438, "groundspeed_mps": 0.4266873896121979}, "flight": {"mode": "STABILIZE", "armed": false}, "ekf": {"attitude": {"roll": -0.037020113319158554, "pitch": 0.06398525089025497, "yaw": -1.9237217903137207}, "local_position": {"x": 11.456400871276855, "y": -12.063074111938477, "z": 1.35653555393219}, "status": {"flags": 33599, "velocity_variance": 0.22485482692718506, "pos_horiz_variance": 0.021000834181904793, "pos_vert_variance": 0.04842507839202881}}, "errors": ["PreArm: Hardware safety switch", "PreArm: Hardware safety switch"]}
{"timestamp": "2025-12-28T11:39:16.368658Z", "telemetry": {"lat": 28.7531659, "lon": 77.1177898, "satellites": 10, "altitude_gps_m": 200.3000030517578, "groundspeed_mps": 0.7174102663993835}, "flight": {"mode": "STABILIZE", "armed": false}, "ekf": {"attitude": {"roll": -0.04034768417477608, "pitch": 0.06200363487005234, "yaw": -1.9236489534378052}, "local_position": {"x": 10.194424629211426, "y": -12.404699325561523, "z": 1.4777072668075562}, "status": {"flags": 33599, "velocity_variance": 0.2343289703130722, "pos_horiz_variance": 0.013490653596818447, "pos_vert_variance": 0.034526336938142776}}, "errors": ["PreArm: Hardware safety switch", "PreArm: Hardware safety switch"]}
{"timestamp": "2025-12-28T11:39:17.368009Z", "telemetry": {"lat": 28.753157, "lon": 77.1177863, "satellites": 10, "altitude_gps_m": 200.34999084472656, "groundspeed_mps": 0.9495426416397095}, "flight": {"mode": "STABILIZE", "armed": false}, "ekf": {"attitude": {"roll": -0.041338417679071426, "pitch": 0.06090886890888214, "yaw": -1.9236819744110107}, "local_position": {"x": 9.218589782714844, "y": -12.675688743591309, "z": 1.4493151903152466}, "status": {"flags": 33599, "velocity_variance": 0.3938698470592499, "pos_horiz_variance": 0.012490312568843365, "pos_vert_variance": 0.019380273297429085}}, "errors": ["PreArm: Hardware safety switch", "PreArm: Hardware safety switch"]}
{"timestamp": "2025-12-28T11:39:18.368210Z", "telemetry": {"lat": 28.7531545, "lon": 77.1177881, "satellites": 10, "altitude_gps_m": 200.3000030517578, "groundspeed_mps": 0.9781492948532104}, "flight": {"mode": "STABILIZE", "armed": false}, "ekf": {"attitude": {"roll": -0.04135861620306969, "pitch": 0.06176537647843361, "yaw": -1.9236388206481934}, "local_position": {"x": 8.640771865844727, "y": -12.770247459411621, "z": 1.4653451442718506}, "status": {"flags": 33599, "velocity_variance": 0.18527306616306305, "pos_horiz_variance": 0.017735658213496208, "pos_vert_variance": 0.04238688945770264}}, "errors": ["PreArm: Hardware safety switch", "PreArm: Hardware safety switch"]}
{"timestamp": "2025-12-28T11:39:19.368319Z", "telemetry": {"lat": 28.7531593, "lon": 77.1177941, "satellites": 10, "altitude_gps_m": 200.2899932861328, "groundspeed_mps": 0.8843377828598022}, "flight": {"mode": "STABILIZE", "armed": false}, "ekf": {"attitude": {"roll": -0.03908253833651543, "pitch": 0.06471018493175507, "yaw": -1.9233087301254272}, "local_position": {"x": 8.378706932067871, "y": -12.49632740020752, "z": 1.4844574928283691}, "status": {"flags": 33599, "velocity_variance": 0.7994218468666077, "pos_horiz_variance": 0.03129952773451805, "pos_vert_variance": 0.03671976178884506}}, "errors": ["PreArm: Hardware safety switch", "PreArm: Hardware safety switch"]}
{"timestamp": "2025-12-28T11:39:20.367938Z", "telemetry": {"lat": 28.753159, "lon": 77.1178008, "satellites": 9, "altitude_gps_m": 200.38999938964844, "groundspeed_mps": 0.7588375210762024}, "flight": {"mode": "STABILIZE", "armed": false}, "ekf": {"attitude": {"roll": -0.03936569765210152, "pitch": 0.06607896834611893, "yaw": -1.9229618310928345}, "local_position": {"x": 8.462706565856934, "y": -11.9448823928833, "z": 1.379367709159851}, "status": {"flags": 33599, "velocity_variance": 0.2410314530134201, "pos_horiz_variance": 0.03296911343932152, "pos_vert_variance": 0.07827752828598022}}, "errors": ["PreArm: Hardware safety switch", "PreArm: Hardware safety switch"]}
{"timestamp": "2025-12-28T11:39:21.374673Z", "telemetry": {"lat": 28.7531527, "lon": 77.1178012, "satellites": 9, "altitude_gps_m": 200.47999572753906, "groundspeed_mps": 0.8616382479667664}, "flight": {"mode": "STABILIZE", "armed": false}, "ekf": {"attitude": {"roll": -0.039895299822092056, "pitch": 0.06587830185890198, "yaw": -1.9226059913635254}, "local_position": {"x": 7.71312952041626, "y": -11.671618461608887, "z": 1.3522425889968872}, "status": {"flags": 33599, "velocity_variance": 0.2058178037405014, "pos_horiz_variance": 0.029833337292075157, "pos_vert_variance": 0.004840761423110962}}, "errors": ["PreArm: Hardware safety switch", "PreArm: Hardware safety switch"]}
{"timestamp": "2025-12-28T11:39:22.375387Z", "telemetry": {"lat": 28.7531276, "lon": 77.117788, "satellites": 9, "altitude_gps_m": 200.61000061035156, "groundspeed_mps": 1.2645397186279297}, "flight": {"mode": "STABILIZE", "armed": false}, "ekf": {"attitude": {"roll": -0.043681081384420395, "pitch": 0.06179148331284523, "yaw": -1.9223098754882812}, "local_position": {"x": 6.231609344482422, "y": -11.963991165161133, "z": 1.1751967668533325}, "status": {"flags": 33599, "velocity_variance": 0.9081812500953674, "pos_horiz_variance": 0.0057714758440852165, "pos_vert_variance": 0.011574018746614456}}, "errors": ["PreArm: Hardware safety switch", "PreArm: Hardware safety switch"]}
{"timestamp": "2025-12-28T11:39:23.370335Z", "telemetry": {"lat": 28.7531176, "lon": 77.1177819, "satellites": 9, "altitude_gps_m": 200.5800018310547, "groundspeed_mps": 1.4742974042892456}, "flight": {"mode": "STABILIZE", "armed": false}, "ekf": {"attitude": {"roll": -0.04360199347138405, "pitch": 0.060996998101472855, "yaw": -1.922059416770935}, "local_position": {"x": 4.37982702255249, "y": -12.565714836120605, "z": 1.187085747718811}, "status": {"flags": 33599, "velocity_variance": 0.49038615822792053, "pos_horiz_variance": 0.0067179338075220585, "pos_vert_variance": 0.01497212890535593}}, "errors": ["PreArm: Hardware safety switch", "PreArm: Hardware safety switch"]}
{"timestamp": "2025-12-28T11:39:24.367898Z", "telemetry": {"lat": 28.7531218, "lon": 77.1177831, "satellites": 9, "altitude_gps_m": 200.45999145507812, "groundspeed_mps": 1.2979273796081543}, "flight": {"mode": "STABILIZE", "armed": false}, "ekf": {"attitude": {"roll": -0.0400795079767704, "pitch": 0.06218291446566582, "yaw": -1.9217554330825806}, "local_position": {"x": 3.9622597694396973, "y": -12.70620059967041, "z": 1.2840496301651}, "status": {"flags": 33599, "velocity_variance": 0.3600532114505768, "pos_horiz_variance": 0.0224281158298254, "pos_vert_variance": 0.04338328540325165}}, "errors": ["PreArm: Hardware safety switch", "PreArm: Hardware safety switch"]}
{"timestamp": "2025-12-28T11:39:25.368008Z", "telemetry": {"lat": 28.7531252, "lon": 77.117781, "satellites": 9, "altitude_gps_m": 200.4099884033203, "groundspeed_mps": 1.1260377168655396}, "flight": {"mode": "STABILIZE", "armed": false}, "ekf": {"attitude": {"roll": -0.03712708130478859, "pitch": 0.06257186830043793, "yaw": -1.9214564561843872}, "local_position": {"x": 3.9254066944122314, "y": -12.959121704101562, "z": 1.3687677383422852}, "status": {"flags": 33599, "velocity_variance": 0.16677826642990112, "pos_horiz_variance": 0.03296007961034775, "pos_vert_variance": 0.04232470691204071}}, "errors": ["PreArm: Hardware safety switch", "PreArm: Hardware safety switch"]}
{"timestamp": "2025-12-28T11:39:26.368340Z", "telemetry": {"lat": 28.7531336, "lon": 77.1177828, "satellites": 10, "altitude_gps_m": 200.3699951171875, "groundspeed_mps": 0.9437644481658936}, "flight": {"mode": "STABILIZE", "armed": false}, "ekf": {"attitude": {"roll": -0.034051332622766495, "pitch": 0.06400471925735474, "yaw": -1.9211792945861816}, "local_position": {"x": 4.025519371032715, "y": -13.06185531616211, "z": 1.4043827056884766}, "status": {"flags": 33599, "velocity_variance": 0.3036065101623535, "pos_horiz_variance": 0.04941604658961296, "pos_vert_variance": 0.00622666347771883}}, "errors": ["PreArm: Hardware safety switch", "PreArm: Hardware safety switch"]}
{"timestamp": "2025-12-28T11:39:27.368033Z", "telemetry": {"lat": 28.7531373, "lon": 77.1177829, "satellites": 9, "altitude_gps_m": 200.3300018310547, "groundspeed_mps": 0.7154978513717651}, "flight": {"mode": "STABILIZE", "armed": false}, "ekf": {"attitude": {"roll": -0.03125104680657387, "pitch": 0.0655456930398941, "yaw": -1.9207748174667358}, "local_position": {"x": 4.400118350982666, "y": -13.181754112243652, "z": 1.4170154333114624}, "status": {"flags": 33599, "velocity_variance": 0.5046964883804321, "pos_horiz_variance": 0.05164005607366562, "pos_vert_variance": 0.0376802459359169}}, "errors": ["PreArm: Hardware safety switch", "PreArm: Hardware safety switch"]}
{"timestamp": "2025-12-28T11:39:28.368029Z", "telemetry": {"lat": 28.7531352, "lon": 77.1177862, "satellites": 8, "altitude_gps_m": 200.22000122070312, "groundspeed_mps": 0.5600507855415344}, "flight": {"mode": "STABILIZE", "armed": false}, "ekf": {"attitude": {"roll": -0.030216265469789505, "pitch": 0.06685344129800797, "yaw": -1.9203678369522095}, "local_position": {"x": 4.626921653747559, "y": -12.812177658081055, "z": 1.5539603233337402}, "status": {"flags": 33599, "velocity_variance": 0.21340221166610718, "pos_horiz_variance": 0.04323113337159157, "pos_vert_variance": 0.09658754616975784}}, "errors": ["PreArm: Hardware safety switch", "PreArm: Hardware safety switch"]}
{"timestamp": "2025-12-28T11:39:29.368052Z", "telemetry": {"lat": 28.7531349, "lon": 77.1177821, "satellites": 8, "altitude_gps_m": 200.26998901367188, "groundspeed_mps": 0.48267030715942383}, "flight": {"mode": "STABILIZE", "armed": false}, "ekf": {"attitude": {"roll": -0.02879970148205757, "pitch": 0.06651129573583603, "yaw": -1.9198962450027466}, "local_position": {"x": 4.751969337463379, "y": -13.010010719299316, "z": 1.4975193738937378}, "status": {"flags": 33599, "velocity_variance": 0.17419397830963135, "pos_horiz_variance": 0.03879790008068085, "pos_vert_variance": 0.11401413381099701}}, "errors": ["PreArm: Hardware safety switch", "PreArm: Hardware safety switch"]}
{"timestamp": "2025-12-28T11:39:30.368438Z", "telemetry": {"lat": 28.7531337, "lon": 77.1177779, "satellites": 8, "altitude_gps_m": 200.36000061035156, "groundspeed_mps": 0.4728360176086426}, "flight": {"mode": "STABILIZE", "armed": false}, "ekf": {"attitude": {"roll": -0.027798626571893692, "pitch": 0.06595873832702637, "yaw": -1.9197524785995483}, "local_position": {"x": 4.777420520782471, "y": -13.301986694335938, "z": 1.4337120056152344}, "status": {"flags": 33599, "velocity_variance": 0.2779182493686676, "pos_horiz_variance": 0.03441198915243149, "pos_vert_variance": 0.06385965645313263}}, "errors": ["PreArm: Hardware safety switch", "PreArm: Hardware safety switch"]}
{"timestamp": "2025-12-28T11:39:31.367955Z", "telemetry": {"lat": 28.753127, "lon": 77.1177733, "satellites": 7, "altitude_gps_m": 200.33999633789062, "groundspeed_mps": 0.4904555678367615}, "flight": {"mode": "STABILIZE", "armed": false}, "ekf": {"attitude": {"roll": -0.027708452194929123, "pitch": 0.06538654863834381, "yaw": -1.919748067855835}, "local_position": {"x": 4.708433628082275, "y": -13.75121021270752, "z": 1.4357658624649048}, "status": {"flags": 33599, "velocity_variance": 0.16910934448242188, "pos_horiz_variance": 0.02323903888463974, "pos_vert_variance": 0.1089998185634613}}, "errors": ["PreArm: Hardware safety switch", "PreArm: Hardware safety switch", "PreArm: Hardware safety switch"]}
{"timestamp": "2025-12-28T11:39:32.375338Z", "telemetry": {"lat": 28.7531223, "lon": 77.1177741, "satellites": 7, "altitude_gps_m": 200.37998962402344, "groundspeed_mps": 0.5096295475959778}, "flight": {"mode": "STABILIZE", "armed": false}, "ekf": {"attitude": {"roll": -0.027579884976148605, "pitch": 0.06559692323207855, "yaw": -1.9196828603744507}, "local_position": {"x": 4.40539026260376, "y": -13.99163818359375, "z": 1.396738886833191}, "status": {"flags": 33599, "velocity_variance": 0.2914162576198578, "pos_horiz_variance": 0.02033233642578125, "pos_vert_variance": 0.055839236825704575}}, "errors": ["PreArm: Hardware safety switch", "PreArm: Hardware safety switch", "PreArm: Hardware safety switch"]}
{"timestamp": "2025-12-28T11:39:33.370146Z", "telemetry": {"lat": 28.7531223, "lon": 77.1177718, "satellites": 7, "altitude_gps_m": 200.45999145507812, "groundspeed_mps": 0.47713568806648254}, "flight": {"mode": "STABILIZE", "armed": false}, "ekf": {"attitude": {"roll": -0.02681291475892067, "pitch": 0.06583177298307419, "yaw": -1.9195101261138916}, "local_position": {"x": 4.424479007720947, "y": -14.192618370056152, "z": 1.3210053443908691}, "status": {"flags": 33599, "velocity_variance": 0.3288588523864746, "pos_horiz_variance": 0.019785111770033836, "pos_vert_variance": 0.0016207940643653274}}, "errors": ["PreArm: Hardware safety switch", "PreArm: Hardware safety switch", "PreArm: Hardware safety switch"]}
{"timestamp": "2025-12-28T11:39:34.369315Z", "telemetry": {"lat": 28.7531418, "lon": 77.1177837, "satellites": 8, "altitude_gps_m": 200.5399932861328, "groundspeed_mps": 0.31167006492614746}, "flight": {"mode": "STABILIZE", "armed": false}, "ekf": {"attitude": {"roll": -0.02533816173672676, "pitch": 0.068231962621212, "yaw": -1.9190388917922974}, "local_position": {"x": 4.761574745178223, "y": -14.070724487304688, "z": 1.2444939613342285}, "status": {"flags": 33599, "velocity_variance": 0.40725451707839966, "pos_horiz_variance": 0.05302245542407036, "pos_vert_variance": 0.005031075794249773}}, "errors": ["PreArm: Hardware safety switch", "PreArm: Hardware safety switch", "PreArm: Hardware safety switch"]}
{"timestamp": "2025-12-28T11:39:35.367846Z", "telemetry": {"lat": 28.7531744, "lon": 77.1177925, "satellites": 8, "altitude_gps_m": 200.5800018310547, "groundspeed_mps": 0.40187835693359375}, "flight": {"mode": "STABILIZE", "armed": false}, "ekf": {"attitude": {"roll": -0.021801088005304337, "pitch": 0.07004491984844208, "yaw": -1.9185611009597778}, "local_position": {"x": 6.72415018081665, "y": -13.609457015991211, "z": 1.1997724771499634}, "status": {"flags": 33599, "velocity_variance": 0.3195885717868805, "pos_horiz_variance": 0.08329418301582336, "pos_vert_variance": 0.0017370673594996333}}, "errors": ["PreArm: Hardware safety switch", "PreArm: Hardware safety switch", "PreArm: Hardware safety switch"]}
{"timestamp": "2025-12-28T11:39:36.367834Z", "telemetry": {"lat": 28.7531836, "lon": 77.117798, "satellites": 8, "altitude_gps_m": 200.6199951171875, "groundspeed_mps": 0.5602512359619141}, "flight": {"mode": "STABILIZE", "armed": false}, "ekf": {"attitude": {"roll": -0.020835626870393753, "pitch": 0.07094822824001312, "yaw": -1.9181350469589233}, "local_position": {"x": 7.721048355102539, "y": -13.181777954101562, "z": 1.1613316535949707}, "status": {"flags": 33599, "velocity_variance": 0.45590123534202576, "pos_horiz_variance": 0.08530284464359283, "pos_vert_variance": 0.06026843190193176}}, "errors": ["PreArm: Hardware safety switch", "PreArm: Hardware safety switch", "PreArm: Hardware safety switch"]}
{"timestamp": "2025-12-28T11:39:37.368573Z", "telemetry": {"lat": 28.7532045, "lon": 77.117805, "satellites": 8, "altitude_gps_m": 200.5699920654297, "groundspeed_mps": 0.9060574173927307}, "flight": {"mode": "STABILIZE", "armed": false}, "ekf": {"attitude": {"roll": -0.018138211220502853, "pitch": 0.07322227954864502, "yaw": -1.9177767038345337}, "local_position": {"x": 9.635743141174316, "y": -12.769906997680664, "z": 1.1762808561325073}, "status": {"flags": 33599, "velocity_variance": 0.26881980895996094, "pos_horiz_variance": 0.09416795521974564, "pos_vert_variance": 0.09414274245500565}}, "errors": ["PreArm: Hardware safety switch", "PreArm: Hardware safety switch", "PreArm: Hardware safety switch"]}
{"timestamp": "2025-12-28T11:39:38.367890Z", "telemetry": {"lat": 28.7532265, "lon": 77.1178048, "satellites": 8, "altitude_gps_m": 200.5399932861328, "groundspeed_mps": 1.2835780382156372}, "flight": {"mode": "STABILIZE", "armed": false}, "ekf": {"attitude": {"roll": -0.015436757355928421, "pitch": 0.07407892495393753, "yaw": -1.9173880815505981}, "local_position": {"x": 12.141057968139648, "y": -12.35679817199707, "z": 1.223311185836792}, "status": {"flags": 33599, "velocity_variance": 0.14067703485488892, "pos_horiz_variance": 0.08736422657966614, "pos_vert_variance": 0.041649289429187775}}, "errors": ["PreArm: Hardware safety switch", "PreArm: Hardware safety switch", "PreArm: Hardware safety switch"]}
{"timestamp": "2025-12-28T11:39:39.367908Z", "telemetry": {"lat": 28.7532367, "lon": 77.1178125, "satellites": 8, "altitude_gps_m": 200.50999450683594, "groundspeed_mps": 1.5816211700439453}, "flight": {"mode": "STABILIZE", "armed": false}, "ekf": {"attitude": {"roll": -0.014193065464496613, "pitch": 0.07600557059049606, "yaw": -1.9169303178787231}, "local_position": {"x": 14.51224422454834, "y": -11.667357444763184, "z": 1.286474347114563}, "status": {"flags": 33599, "velocity_variance": 0.13864818215370178, "pos_horiz_variance": 0.07568530738353729, "pos_vert_variance": 0.028206126764416695}}, "errors": ["PreArm: Hardware safety switch", "PreArm: Hardware safety switch", "PreArm: Hardware safety switch"]}
{"timestamp": "2025-12-28T11:39:40.368781Z", "telemetry": {"lat": 28.753241, "lon": 77.1178125, "satellites": 7, "altitude_gps_m": 200.6599884033203, "groundspeed_mps": 1.7681974172592163}, "flight": {"mode": "STABILIZE", "armed": false}, "ekf": {"attitude": {"roll": -0.01448770985007286, "pitch": 0.0765591412782669, "yaw": -1.9166337251663208}, "local_position": {"x": 16.7902774810791, "y": -11.065035820007324, "z": 1.1178920269012451}, "status": {"flags": 33599, "velocity_variance": 0.5457147359848022, "pos_horiz_variance": 0.0461820550262928, "pos_vert_variance": 0.017636561766266823}}, "errors": ["PreArm: Hardware safety switch", "PreArm: Hardware safety switch", "PreArm: Hardware safety switch"]}
{"timestamp": "2025-12-28T11:39:41.367962Z", "telemetry": {"lat": 28.7532418, "lon": 77.11782, "satellites": 9, "altitude_gps_m": 200.6699981689453, "groundspeed_mps": 1.7381311655044556}, "flight": {"mode": "STABILIZE", "armed": false}, "ekf": {"attitude": {"roll": -0.016773901879787445, "pitch": 0.07613750547170639, "yaw": -1.91656494140625}, "local_position": {"x": 18.081417083740234, "y": -10.255263328552246, "z": 1.1461669206619263}, "status": {"flags": 33599, "velocity_variance": 0.4472217857837677, "pos_horiz_variance": 0.028519395738840103, "pos_vert_variance": 0.08100670576095581}}, "errors": ["PreArm: Hardware safety switch", "PreArm: Hardware safety switch", "PreArm: Hardware safety switch"]}
{"timestamp": "2025-12-28T11:39:42.367789Z", "telemetry": {"lat": 28.7532462, "lon": 77.1178226, "satellites": 8, "altitude_gps_m": 200.59999084472656, "groundspeed_mps": 1.6047873497009277}, "flight": {"mode": "STABILIZE", "armed": false}, "ekf": {"attitude": {"roll": -0.01968446746468544, "pitch": 0.07486315071582794, "yaw": -1.9163786172866821}, "local_position": {"x": 18.86794090270996, "y": -9.83911418914795, "z": 1.146824598312378}, "status": {"flags": 33599, "velocity_variance": 0.3575948476791382, "pos_horiz_variance": 0.026089312508702278, "pos_vert_variance": 0.02275950275361538}}, "errors": ["PreArm: Hardware safety switch", "PreArm: Hardware safety switch", "PreArm: Hardware safety switch"]}
{"timestamp": "2025-12-28T11:39:43.372601Z", "telemetry": {"lat": 28.7532531, "lon": 77.1178216, "satellites": 8, "altitude_gps_m": 200.5800018310547, "groundspeed_mps": 1.4425667524337769}, "flight": {"mode": "STABILIZE", "armed": false}, "ekf": {"attitude": {"roll": -0.022182289510965347, "pitch": 0.07240776717662811, "yaw": -1.9163891077041626}, "local_position": {"x": 19.756269454956055, "y": -9.618038177490234, "z": 1.1999534368515015}, "status": {"flags": 33599, "velocity_variance": 0.48892292380332947, "pos_horiz_variance": 0.019661644473671913, "pos_vert_variance": 0.038043633103370667}}, "errors": ["PreArm: Hardware safety switch", "PreArm: Hardware safety switch", "PreArm: Hardware safety switch"]}
{"timestamp": "2025-12-28T11:39:44.368389Z", "telemetry": {"lat": 28.7532571, "lon": 77.1178215, "satellites": 9, "altitude_gps_m": 200.6699981689453, "groundspeed_mps": 1.2818679809570312}, "flight": {"mode": "STABILIZE", "armed": false}, "ekf": {"attitude": {"roll": -0.024573590606451035, "pitch": 0.07023732364177704, "yaw": -1.916361689567566}, "local_position": {"x": 20.350116729736328, "y": -9.669329643249512, "z": 1.118736743927002}, "status": {"flags": 33599, "velocity_variance": 0.7894425392150879, "pos_horiz_variance": 0.01666983775794506, "pos_vert_variance": 0.03200851008296013}}, "errors": ["PreArm: Hardware safety switch", "PreArm: Hardware safety switch", "PreArm: Hardware safety switch"]}
{"timestamp": "2025-12-28T11:39:45.368825Z", "telemetry": {"lat": 28.7532617, "lon": 77.1178258, "satellites": 8, "altitude_gps_m": 200.739990234375, "groundspeed_mps": 1.1367285251617432}, "flight": {"mode": "STABILIZE", "armed": false}, "ekf": {"attitude": {"roll": -0.02709997072815895, "pitch": 0.06985019892454147, "yaw": -1.9163014888763428}, "local_position": {"x": 20.886058807373047, "y": -9.269068717956543, "z": 1.0565699338912964}, "status": {"flags": 33599, "velocity_variance": 0.40621164441108704, "pos_horiz_variance": 0.01767468824982643, "pos_vert_variance": 0.0023407824337482452}}, "errors": ["PreArm: Hardware safety switch", "PreArm: Hardware safety switch", "PreArm: Hardware safety switch"]}
{"timestamp": "2025-12-28T11:39:46.367937Z", "telemetry": {"lat": 28.7532636, "lon": 77.1178248, "satellites": 8, "altitude_gps_m": 200.64999389648438, "groundspeed_mps": 0.9820707440376282}, "flight": {"mode": "STABILIZE", "armed": false}, "ekf": {"attitude": {"roll": -0.02869056537747383, "pitch": 0.06824992597103119, "yaw": -1.9162554740905762}, "local_position": {"x": 21.455644607543945, "y": -8.945645332336426, "z": 1.1219892501831055}, "status": {"flags": 33599, "velocity_variance": 0.11958090215921402, "pos_horiz_variance": 0.011536378413438797, "pos_vert_variance": 0.05172354727983475}}, "errors": ["PreArm: Hardware safety switch", "PreArm: Hardware safety switch", "PreArm: Hardware safety switch"]}
{"timestamp": "2025-12-28T11:39:47.368781Z", "telemetry": {"lat": 28.7532706, "lon": 77.1178292, "satellites": 9, "altitude_gps_m": 200.61000061035156, "groundspeed_mps": 0.9406658411026001}, "flight": {"mode": "STABILIZE", "armed": false}, "ekf": {"attitude": {"roll": -0.029717791825532913, "pitch": 0.06799914687871933, "yaw": -1.9161795377731323}, "local_position": {"x": 22.2387752532959, "y": -8.578631401062012, "z": 1.1637533903121948}, "status": {"flags": 33599, "velocity_variance": 0.3194717466831207, "pos_horiz_variance": 0.013097774237394333, "pos_vert_variance": 0.012114915065467358}}, "errors": ["PreArm: Hardware safety switch", "PreArm: Hardware safety switch", "PreArm: Hardware safety switch"]}
{"timestamp": "2025-12-28T11:39:48.368273Z", "telemetry": {"lat": 28.7532819, "lon": 77.1178283, "satellites": 9, "altitude_gps_m": 200.63999938964844, "groundspeed_mps": 0.938450813293457}, "flight": {"mode": "STABILIZE", "armed": false}, "ekf": {"attitude": {"roll": -0.029395993798971176, "pitch": 0.0668715089559555, "yaw": -1.9161051511764526}, "local_position": {"x": 22.942169189453125, "y": -8.422957420349121, "z": 1.159009337425232}, "status": {"flags": 33599, "velocity_variance": 0.18930773437023163, "pos_horiz_variance": 0.009721240028738976, "pos_vert_variance": 0.0014165746979415417}}, "errors": ["PreArm: Hardware safety switch", "PreArm: Hardware safety switch", "PreArm: Hardware safety switch"]}
{"timestamp": "2025-12-28T11:39:49.368633Z", "telemetry": {"lat": 28.7532913, "lon": 77.1178274, "satellites": 9, "altitude_gps_m": 200.52999877929688, "groundspeed_mps": 0.885612964630127}, "flight": {"mode": "STABILIZE", "armed": false}, "ekf": {"attitude": {"roll": -0.02992011234164238, "pitch": 0.06525691598653793, "yaw": -1.91594660282135}, "local_position": {"x": 23.90944480895996, "y": -8.550006866455078, "z": 1.2374187707901}, "status": {"flags": 33599, "velocity_variance": 0.21986272931098938, "pos_horiz_variance": 0.011168659664690495, "pos_vert_variance": 0.015381718054413795}}, "errors": ["PreArm: Hardware safety switch", "PreArm: Hardware safety switch", "PreArm: Hardware safety switch"]}
{"timestamp": "2025-12-28T11:39:50.368590Z", "telemetry": {"lat": 28.7532817, "lon": 77.1178291, "satellites": 10, "altitude_gps_m": 200.489990234375, "groundspeed_mps": 0.6191941499710083}, "flight": {"mode": "STABILIZE", "armed": false}, "ekf": {"attitude": {"roll": -0.03331069275736809, "pitch": 0.06344301253557205, "yaw": -1.916011929512024}, "local_position": {"x": 24.12578773498535, "y": -8.437707901000977, "z": 1.287866234779358}, "status": {"flags": 33599, "velocity_variance": 0.33161357045173645, "pos_horiz_variance": 0.01615624502301216, "pos_vert_variance": 0.043929826468229294}}, "errors": ["PreArm: Hardware safety switch", "PreArm: Hardware safety switch", "PreArm: Hardware safety switch"]}
{"timestamp": "2025-12-28T11:39:51.368835Z", "telemetry": {"lat": 28.7532628, "lon": 77.1178317, "satellites": 10, "altitude_gps_m": 200.489990234375, "groundspeed_mps": 0.220818892121315}, "flight": {"mode": "STABILIZE", "armed": false}, "ekf": {"attitude": {"roll": -0.037698324769735336, "pitch": 0.06158377230167389, "yaw": -1.9162241220474243}, "local_position": {"x": 23.429977416992188, "y": -8.400858879089355, "z": 1.3002885580062866}, "status": {"flags": 33599, "velocity_variance": 0.46141472458839417, "pos_horiz_variance": 0.04061969742178917, "pos_vert_variance": 0.046849027276039124}}, "errors": ["PreArm: Hardware safety switch", "PreArm: Hardware safety switch", "PreArm: Hardware safety switch"]}
{"timestamp": "2025-12-28T11:39:52.373900Z", "telemetry": {"lat": 28.753247, "lon": 77.1178299, "satellites": 9, "altitude_gps_m": 200.489990234375, "groundspeed_mps": 0.18632537126541138}, "flight": {"mode": "STABILIZE", "armed": false}, "ekf": {"attitude": {"roll": -0.0401521660387516, "pitch": 0.05975425988435745, "yaw": -1.9163554906845093}, "local_position": {"x": 22.276390075683594, "y": -8.313222885131836, "z": 1.2975430488586426}, "status": {"flags": 33599, "velocity_variance": 0.18147343397140503, "pos_horiz_variance": 0.05184343084692955, "pos_vert_variance": 0.019481442868709564}}, "errors": ["PreArm: Hardware safety switch", "PreArm: Hardware safety switch", "PreArm: Hardware safety switch"]}
{"timestamp": "2025-12-28T11:39:53.371790Z", "telemetry": {"lat": 28.7532316, "lon": 77.1178241, "satellites": 9, "altitude_gps_m": 200.51998901367188, "groundspeed_mps": 0.42760783433914185}, "flight": {"mode": "STABILIZE", "armed": false}, "ekf": {"attitude": {"roll": -0.042074594646692276, "pitch": 0.05763420835137367, "yaw": -1.9164745807647705}, "local_position": {"x": 21.060415267944336, "y": -8.53950023651123, "z": 1.2600395679473877}, "status": {"flags": 33599, "velocity_variance": 0.11745674163103104, "pos_horiz_variance": 0.06128059700131416, "pos_vert_variance": 0.004137131851166487}}, "errors": ["PreArm: Hardware safety switch", "PreArm: Hardware safety switch", "PreArm: Hardware safety switch"]}
