{"timestamp": "2025-12-16T06:27:37.219142Z", "telemetry": {"lat": 28.7530172, "lon": 77.1177938, "satellites": 4, "altitude_gps_m": 212.64999389648438, "groundspeed_mps": 0.12392355501651764}, "flight": {"mode": "STABILIZE", "armed": false}, "ekf": {"attitude": {"roll": -0.030937854200601578, "pitch": 0.03215176612138748, "yaw": 0.8817803263664246}, "local_position": {"x": null, "y": null, "z": null}, "status": {"flags": 135, "velocity_variance": 0.0, "pos_horiz_variance": 0.03417843580245972, "pos_vert_variance": 0.021452784538269043}}, "errors": []}
{"timestamp": "2025-12-16T06:27:38.220550Z", "telemetry": {"lat": 28.7529888, "lon": 77.1178004, "satellites": 5, "altitude_gps_m": 206.6199951171875, "groundspeed_mps": 0.12294622510671616}, "flight": {"mode": "STABILIZE", "armed": false}, "ekf": {"attitude": {"roll": -0.030982624739408493, "pitch": 0.03226561099290848, "yaw": 0.8824567794799805}, "local_position": {"x": null, "y": null, "z": null}, "status": {"flags": 135, "velocity_variance": 0.0, "pos_horiz_variance": 0.034563492983579636, "pos_vert_variance": 0.02523643709719181}}, "errors": []}
{"timestamp": "2025-12-16T06:27:39.223838Z", "telemetry": {"lat": 28.7529501, "lon": 77.1178058, "satellites": 5, "altitude_gps_m": 198.75999450683594, "groundspeed_mps": 0.12249942868947983}, "flight": {"mode": "STABILIZE", "armed": false}, "ekf": {"attitude": {"roll": -0.03120095282793045, "pitch": 0.03244028985500336, "yaw": 0.8836287260055542}, "local_position": {"x": null, "y": null, "z": null}, "status": {"flags": 135, "velocity_variance": 0.0, "pos_horiz_variance": 0.03468916565179825, "pos_vert_variance": 0.006327969022095203}}, "errors": []}
{"timestamp": "2025-12-16T06:27:40.218784Z", "telemetry": {"lat": 28.7529489, "lon": 77.1178165, "satellites": 5, "altitude_gps_m": 195.1199951171875, "groundspeed_mps": 0.11817292124032974}, "flight": {"mode": "STABILIZE", "armed": false}, "ekf": {"attitude": {"roll": -0.03136574476957321, "pitch": 0.03248924762010574, "yaw": 0.8843459486961365}, "local_position": {"x": null, "y": null, "z": null}, "status": {"flags": 135, "velocity_variance": 0.0, "pos_horiz_variance": 0.03442848101258278, "pos_vert_variance": 0.0002570287324488163}}, "errors": []}
{"timestamp": "2025-12-16T06:27:41.219758Z", "telemetry": {"lat": 28.7529228, "lon": 77.1178092, "satellites": 5, "altitude_gps_m": 192.8300018310547, "groundspeed_mps": 0.113887719810009}, "flight": {"mode": "STABILIZE", "armed": false}, "ekf": {"attitude": {"roll": -0.03161293640732765, "pitch": 0.03249020874500275, "yaw": 0.8851265907287598}, "local_position": {"x": null, "y": null, "z": null}, "status": {"flags": 135, "velocity_variance": 0.0, "pos_horiz_variance": 0.03366315737366676, "pos_vert_variance": 0.12391706556081772}}, "errors": []}
{"timestamp": "2025-12-16T06:27:42.218836Z", "telemetry": {"lat": 28.7529061, "lon": 77.1178119, "satellites": 5, "altitude_gps_m": 188.50999450683594, "groundspeed_mps": 0.11536691337823868}, "flight": {"mode": "STABILIZE", "armed": false}, "ekf": {"attitude": {"roll": -0.03173302859067917, "pitch": 0.03249986469745636, "yaw": 0.8855865001678467}, "local_position": {"x": null, "y": null, "z": null}, "status": {"flags": 135, "velocity_variance": 0.0, "pos_horiz_variance": 0.032969553023576736, "pos_vert_variance": 0.0004437216557562351}}, "errors": []}
{"timestamp": "2025-12-16T06:27:43.219123Z", "telemetry": {"lat": 28.7529025, "lon": 77.1178155, "satellites": 5, "altitude_gps_m": 186.34999084472656, "groundspeed_mps": 0.1176648810505867}, "flight": {"mode": "STABILIZE", "armed": false}, "ekf": {"attitude": {"roll": -0.03176470845937729, "pitch": 0.032541267573833466, "yaw": 0.8861817121505737}, "local_position": {"x": null, "y": null, "z": null}, "status": {"flags": 135, "velocity_variance": 0.0, "pos_horiz_variance": 0.03297126293182373, "pos_vert_variance": 0.021058598533272743}}, "errors": []}
{"timestamp": "2025-12-16T06:27:44.218287Z", "telemetry": {"lat": 28.7529037, "lon": 77.1178191, "satellites": 5, "altitude_gps_m": 184.47000122070312, "groundspeed_mps": 0.11825212091207504}, "flight": {"mode": "STABILIZE", "armed": false}, "ekf": {"attitude": {"roll": -0.031892769038677216, "pitch": 0.03256985545158386, "yaw": 0.8870893716812134}, "local_position": {"x": null, "y": null, "z": null}, "status": {"flags": 135, "velocity_variance": 0.0, "pos_horiz_variance": 0.03318437561392784, "pos_vert_variance": 0.021417351439595222}}, "errors": []}
{"timestamp": "2025-12-16T06:27:45.230737Z", "telemetry": {"lat": 28.7529051, "lon": 77.1178231, "satellites": 5, "altitude_gps_m": 183.489990234375, "groundspeed_mps": 0.1196301132440567}, "flight": {"mode": "STABILIZE", "armed": false}, "ekf": {"attitude": {"roll": -0.03188144043087959, "pitch": 0.03254100680351257, "yaw": 0.8876271843910217}, "local_position": {"x": null, "y": null, "z": null}, "status": {"flags": 135, "velocity_variance": 0.0, "pos_horiz_variance": 0.03339874744415283, "pos_vert_variance": 0.03013107180595398}}, "errors": []}
{"timestamp": "2025-12-16T06:27:46.225493Z", "telemetry": {"lat": 28.7529117, "lon": 77.1178275, "satellites": 5, "altitude_gps_m": 183.5, "groundspeed_mps": 0.11799896508455276}, "flight": {"mode": "STABILIZE", "armed": false}, "ekf": {"attitude": {"roll": -0.031887952238321304, "pitch": 0.03260263055562973, "yaw": 0.8880168795585632}, "local_position": {"x": null, "y": null, "z": null}, "status": {"flags": 135, "velocity_variance": 0.0, "pos_horiz_variance": 0.03349171578884125, "pos_vert_variance": 0.004854852333664894}}, "errors": []}
{"timestamp": "2025-12-16T06:27:47.230908Z", "telemetry": {"lat": 28.7528959, "lon": 77.1178214, "satellites": 5, "altitude_gps_m": 182.61000061035156, "groundspeed_mps": 0.11770401895046234}, "flight": {"mode": "STABILIZE", "armed": false}, "ekf": {"attitude": {"roll": -0.0317302830517292, "pitch": 0.03258833289146423, "yaw": 0.8885864019393921}, "local_position": {"x": null, "y": null, "z": null}, "status": {"flags": 135, "velocity_variance": 0.0, "pos_horiz_variance": 0.033270321786403656, "pos_vert_variance": 0.01687723770737648}}, "errors": []}
{"timestamp": "2025-12-16T06:27:48.224923Z", "telemetry": {"lat": 28.7528964, "lon": 77.1178226, "satellites": 5, "altitude_gps_m": 182.1199951171875, "groundspeed_mps": 0.11635483801364899}, "flight": {"mode": "STABILIZE", "armed": false}, "ekf": {"attitude": {"roll": -0.03152360022068024, "pitch": 0.032684192061424255, "yaw": 0.8887909650802612}, "local_position": {"x": null, "y": null, "z": null}, "status": {"flags": 135, "velocity_variance": 0.0, "pos_horiz_variance": 0.03316137567162514, "pos_vert_variance": 0.02104576677083969}}, "errors": []}
{"timestamp": "2025-12-16T06:27:49.225539Z", "telemetry": {"lat": 28.7529027, "lon": 77.1178286, "satellites": 4, "altitude_gps_m": 180.9199981689453, "groundspeed_mps": 0.11511213332414627}, "flight": {"mode": "STABILIZE", "armed": false}, "ekf": {"attitude": {"roll": -0.03154965490102768, "pitch": 0.032748132944107056, "yaw": 0.8891478776931763}, "local_position": {"x": null, "y": null, "z": null}, "status": {"flags": 135, "velocity_variance": 0.0, "pos_horiz_variance": 0.03285107761621475, "pos_vert_variance": 0.06626546382904053}}, "errors": ["PreArm: Hardware safety switch"]}
{"timestamp": "2025-12-16T06:27:50.219100Z", "telemetry": {"lat": 28.752915, "lon": 77.1178354, "satellites": 4, "altitude_gps_m": 180.4499969482422, "groundspeed_mps": 0.11594624072313309}, "flight": {"mode": "STABILIZE", "armed": false}, "ekf": {"attitude": {"roll": -0.03147249296307564, "pitch": 0.032858364284038544, "yaw": 0.8897807002067566}, "local_position": {"x": null, "y": null, "z": null}, "status": {"flags": 135, "velocity_variance": 0.0, "pos_horiz_variance": 0.03280504792928696, "pos_vert_variance": 0.03495803475379944}}, "errors": ["PreArm: Hardware safety switch"]}
{"timestamp": "2025-12-16T06:27:51.219129Z", "telemetry": {"lat": 28.7529155, "lon": 77.1178372, "satellites": 4, "altitude_gps_m": 180.5, "groundspeed_mps": 0.11447544395923615}, "flight": {"mode": "STABILIZE", "armed": false}, "ekf": {"attitude": {"roll": -0.031620096415281296, "pitch": 0.03302265703678131, "yaw": 0.8906145691871643}, "local_position": {"x": null, "y": null, "z": null}, "status": {"flags": 135, "velocity_variance": 0.0, "pos_horiz_variance": 0.03286484256386757, "pos_vert_variance": 0.006877613719552755}}, "errors": ["PreArm: Hardware safety switch"]}
{"timestamp": "2025-12-16T06:27:52.221856Z", "telemetry": {"lat": 28.7529326, "lon": 77.1178398, "satellites": 4, "altitude_gps_m": 182.5500030517578, "groundspeed_mps": 0.10929498821496964}, "flight": {"mode": "STABILIZE", "armed": false}, "ekf": {"attitude": {"roll": -0.03158782050013542, "pitch": 0.033205851912498474, "yaw": 0.8913509845733643}, "local_position": {"x": null, "y": null, "z": null}, "status": {"flags": 135, "velocity_variance": 0.0, "pos_horiz_variance": 0.03223983570933342, "pos_vert_variance": 0.04908809810876846}}, "errors": ["PreArm: Hardware safety switch"]}
{"timestamp": "2025-12-16T06:27:53.219181Z", "telemetry": {"lat": 28.7529221, "lon": 77.1178313, "satellites": 4, "altitude_gps_m": 184.12998962402344, "groundspeed_mps": 0.1052904799580574}, "flight": {"mode": "STABILIZE", "armed": false}, "ekf": {"attitude": {"roll": -0.03161550685763359, "pitch": 0.033239565789699554, "yaw": 0.8918877243995667}, "local_position": {"x": null, "y": null, "z": null}, "status": {"flags": 135, "velocity_variance": 0.0, "pos_horiz_variance": 0.03136375918984413, "pos_vert_variance": 0.07504088431596756}}, "errors": ["PreArm: Hardware safety switch"]}
{"timestamp": "2025-12-16T06:27:54.218748Z", "telemetry": {"lat": 28.7529312, "lon": 77.1178391, "satellites": 4, "altitude_gps_m": 183.26998901367188, "groundspeed_mps": 0.10126935690641403}, "flight": {"mode": "STABILIZE", "armed": false}, "ekf": {"attitude": {"roll": -0.0314849391579628, "pitch": 0.03342312574386597, "yaw": 0.8926401138305664}, "local_position": {"x": null, "y": null, "z": null}, "status": {"flags": 135, "velocity_variance": 0.0, "pos_horiz_variance": 0.030317693948745728, "pos_vert_variance": 0.030400365591049194}}, "errors": ["PreArm: Hardware safety switch"]}
{"timestamp": "2025-12-16T06:27:55.219154Z", "telemetry": {"lat": 28.7529336, "lon": 77.1178398, "satellites": 4, "altitude_gps_m": 183.3000030517578, "groundspeed_mps": 0.09840262681245804}, "flight": {"mode": "STABILIZE", "armed": false}, "ekf": {"attitude": {"roll": -0.031355053186416626, "pitch": 0.03344269096851349, "yaw": 0.8932894468307495}, "local_position": {"x": null, "y": null, "z": null}, "status": {"flags": 135, "velocity_variance": 0.0, "pos_horiz_variance": 0.02935611456632614, "pos_vert_variance": 0.03247201815247536}}, "errors": ["PreArm: Hardware safety switch"]}
{"timestamp": "2025-12-16T06:27:56.232915Z", "telemetry": {"lat": 28.7529385, "lon": 77.1178464, "satellites": 4, "altitude_gps_m": 181.97999572753906, "groundspeed_mps": 0.09303731471300125}, "flight": {"mode": "STABILIZE", "armed": false}, "ekf": {"attitude": {"roll": -0.03123439848423004, "pitch": 0.03345135599374771, "yaw": 0.8936054706573486}, "local_position": {"x": null, "y": null, "z": null}, "status": {"flags": 135, "velocity_variance": 0.0, "pos_horiz_variance": 0.028346097096800804, "pos_vert_variance": 0.07256688922643661}}, "errors": ["PreArm: Hardware safety switch"]}
{"timestamp": "2025-12-16T06:27:57.233021Z", "telemetry": {"lat": 28.7529328, "lon": 77.1178425, "satellites": 4, "altitude_gps_m": 182.0699920654297, "groundspeed_mps": 0.09090010076761246}, "flight": {"mode": "STABILIZE", "armed": false}, "ekf": {"attitude": {"roll": -0.031106289476156235, "pitch": 0.033355094492435455, "yaw": 0.8937512636184692}, "local_position": {"x": null, "y": null, "z": null}, "status": {"flags": 135, "velocity_variance": 0.0, "pos_horiz_variance": 0.027265125885605812, "pos_vert_variance": 0.10565762966871262}}, "errors": ["PreArm: Hardware safety switch"]}
{"timestamp": "2025-12-16T06:27:58.223558Z", "telemetry": {"lat": 28.7529451, "lon": 77.1178442, "satellites": 4, "altitude_gps_m": 183.12998962402344, "groundspeed_mps": 0.09503155946731567}, "flight": {"mode": "STABILIZE", "armed": false}, "ekf": {"attitude": {"roll": -0.03095577284693718, "pitch": 0.033193439245224, "yaw": 0.8938177227973938}, "local_position": {"x": null, "y": null, "z": null}, "status": {"flags": 135, "velocity_variance": 0.0, "pos_horiz_variance": 0.02672232687473297, "pos_vert_variance": 0.005777559708803892}}, "errors": ["PreArm: Hardware safety switch"]}
{"timestamp": "2025-12-16T06:27:59.220239Z", "telemetry": {"lat": 28.7529364, "lon": 77.1178429, "satellites": 4, "altitude_gps_m": 183.13999938964844, "groundspeed_mps": 0.0999135747551918}, "flight": {"mode": "STABILIZE", "armed": false}, "ekf": {"attitude": {"roll": -0.030775364488363266, "pitch": 0.03303828835487366, "yaw": 0.8942644000053406}, "local_position": {"x": null, "y": null, "z": null}, "status": {"flags": 135, "velocity_variance": 0.0, "pos_horiz_variance": 0.027152763679623604, "pos_vert_variance": 0.04365777224302292}}, "errors": ["PreArm: Hardware safety switch"]}
{"timestamp": "2025-12-16T06:28:00.227952Z", "telemetry": {"lat": 28.7529369, "lon": 77.1178411, "satellites": 4, "altitude_gps_m": 183.61000061035156, "groundspeed_mps": 0.10225208103656769}, "flight": {"mode": "STABILIZE", "armed": false}, "ekf": {"attitude": {"roll": -0.03070814162492752, "pitch": 0.032923415303230286, "yaw": 0.8946021795272827}, "local_position": {"x": null, "y": null, "z": null}, "status": {"flags": 135, "velocity_variance": 0.0, "pos_horiz_variance": 0.02796790935099125, "pos_vert_variance": 0.05260666832327843}}, "errors": ["PreArm: Hardware safety switch"]}
{"timestamp": "2025-12-16T06:28:01.219396Z", "telemetry": {"lat": 28.7529564, "lon": 77.1178521, "satellites": 5, "altitude_gps_m": 183.45999145507812, "groundspeed_mps": 0.1077355295419693}, "flight": {"mode": "STABILIZE", "armed": false}, "ekf": {"attitude": {"roll": -0.030739735811948776, "pitch": 0.03283213824033737, "yaw": 0.8947510719299316}, "local_position": {"x": null, "y": null, "z": null}, "status": {"flags": 135, "velocity_variance": 0.0, "pos_horiz_variance": 0.028739674016833305, "pos_vert_variance": 0.039735354483127594}}, "errors": ["PreArm: Hardware safety switch"]}
{"timestamp": "2025-12-16T06:28:02.219052Z", "telemetry": {"lat": 28.7529691, "lon": 77.117861, "satellites": 5, "altitude_gps_m": 183.5500030517578, "groundspeed_mps": 0.10883771628141403}, "flight": {"mode": "STABILIZE", "armed": false}, "ekf": {"attitude": {"roll": -0.03062446415424347, "pitch": 0.03288043290376663, "yaw": 0.894839882850647}, "local_position": {"x": null, "y": null, "z": null}, "status": {"flags": 135, "velocity_variance": 0.0, "pos_horiz_variance": 0.029614299535751343, "pos_vert_variance": 0.021660001948475838}}, "errors": ["PreArm: Hardware safety switch"]}
{"timestamp": "2025-12-16T06:28:03.230689Z", "telemetry": {"lat": 28.7529752, "lon": 77.1178659, "satellites": 5, "altitude_gps_m": 183.47000122070312, "groundspeed_mps": 0.11153461039066315}, "flight": {"mode": "STABILIZE", "armed": false}, "ekf": {"attitude": {"roll": -0.030587997287511826, "pitch": 0.03270941972732544, "yaw": 0.8951248526573181}, "local_position": {"x": null, "y": null, "z": null}, "status": {"flags": 135, "velocity_variance": 0.0, "pos_horiz_variance": 0.030388150364160538, "pos_vert_variance": 0.01160347182303667}}, "errors": ["PreArm: Hardware safety switch"]}
{"timestamp": "2025-12-16T06:28:04.218622Z", "telemetry": {"lat": 28.7529706, "lon": 77.1178703, "satellites": 5, "altitude_gps_m": 181.3199920654297, "groundspeed_mps": 0.11551732569932938}, "flight": {"mode": "STABILIZE", "armed": false}, "ekf": {"attitude": {"roll": -0.03066243976354599, "pitch": 0.03266385197639465, "yaw": 0.8951854109764099}, "local_position": {"x": null, "y": null, "z": null}, "status": {"flags": 135, "velocity_variance": 0.0, "pos_horiz_variance": 0.031246012076735497, "pos_vert_variance": 0.014225857332348824}}, "errors": ["PreArm: Hardware safety switch"]}
{"timestamp": "2025-12-16T06:28:05.218638Z", "telemetry": {"lat": 28.7529721, "lon": 77.1178717, "satellites": 5, "altitude_gps_m": 181.14999389648438, "groundspeed_mps": 0.11480411887168884}, "flight": {"mode": "STABILIZE", "armed": false}, "ekf": {"attitude": {"roll": -0.030892524868249893, "pitch": 0.032839335501194, "yaw": 0.8951327204704285}, "local_position": {"x": null, "y": null, "z": null}, "status": {"flags": 135, "velocity_variance": 0.0, "pos_horiz_variance": 0.03180789202451706, "pos_vert_variance": 0.004363371059298515}}, "errors": ["PreArm: Hardware safety switch"]}
{"timestamp": "2025-12-16T06:28:06.231387Z", "telemetry": {"lat": 28.7529734, "lon": 77.1178707, "satellites": 5, "altitude_gps_m": 181.5500030517578, "groundspeed_mps": 0.11225198209285736}, "flight": {"mode": "STABILIZE", "armed": false}, "ekf": {"attitude": {"roll": -0.030918922275304794, "pitch": 0.032956384122371674, "yaw": 0.895478367805481}, "local_position": {"x": null, "y": null, "z": null}, "status": {"flags": 135, "velocity_variance": 0.0, "pos_horiz_variance": 0.031991761177778244, "pos_vert_variance": 0.007457932457327843}}, "errors": ["PreArm: Hardware safety switch"]}
{"timestamp": "2025-12-16T06:28:07.248228Z", "telemetry": {"lat": 28.7529744, "lon": 77.1178696, "satellites": 5, "altitude_gps_m": 182.19000244140625, "groundspeed_mps": 0.1106220930814743}, "flight": {"mode": "STABILIZE", "armed": false}, "ekf": {"attitude": {"roll": -0.031066376715898514, "pitch": 0.033041566610336304, "yaw": 0.8956772685050964}, "local_position": {"x": null, "y": null, "z": null}, "status": {"flags": 135, "velocity_variance": 0.0, "pos_horiz_variance": 0.0315483920276165, "pos_vert_variance": 0.09929776191711426}}, "errors": ["PreArm: Hardware safety switch"]}
{"timestamp": "2025-12-16T06:28:08.233648Z", "telemetry": {"lat": 28.7529801, "lon": 77.1178685, "satellites": 5, "altitude_gps_m": 183.1199951171875, "groundspeed_mps": 0.10541407763957977}, "flight": {"mode": "STABILIZE", "armed": false}, "ekf": {"attitude": {"roll": -0.031192682683467865, "pitch": 0.03318031132221222, "yaw": 0.8958092927932739}, "local_position": {"x": null, "y": null, "z": null}, "status": {"flags": 135, "velocity_variance": 0.0, "pos_horiz_variance": 0.031169690191745758, "pos_vert_variance": 0.026570389047265053}}, "errors": ["PreArm: Hardware safety switch"]}
{"timestamp": "2025-12-16T06:28:09.232423Z", "telemetry": {"lat": 28.7529843, "lon": 77.117868, "satellites": 5, "altitude_gps_m": 184.1999969482422, "groundspeed_mps": 0.09884030371904373}, "flight": {"mode": "STABILIZE", "armed": false}, "ekf": {"attitude": {"roll": -0.031474851071834564, "pitch": 0.03338932991027832, "yaw": 0.8957353830337524}, "local_position": {"x": null, "y": null, "z": null}, "status": {"flags": 135, "velocity_variance": 0.0, "pos_horiz_variance": 0.03013441152870655, "pos_vert_variance": 0.012065017595887184}}, "errors": ["PreArm: Hardware safety switch"]}
{"timestamp": "2025-12-16T06:28:10.224787Z", "telemetry": {"lat": 28.7529829, "lon": 77.1178672, "satellites": 5, "altitude_gps_m": 184.61000061035156, "groundspeed_mps": 0.09763046354055405}, "flight": {"mode": "STABILIZE", "armed": false}, "ekf": {"attitude": {"roll": -0.03165923058986664, "pitch": 0.03347587585449219, "yaw": 0.8955382108688354}, "local_position": {"x": null, "y": null, "z": null}, "status": {"flags": 135, "velocity_variance": 0.0, "pos_horiz_variance": 0.028854427859187126, "pos_vert_variance": 0.0020386786200106144}}, "errors": ["PreArm: Hardware safety switch"]}
{"timestamp": "2025-12-16T06:28:11.224308Z", "telemetry": {"lat": 28.7529878, "lon": 77.1178642, "satellites": 5, "altitude_gps_m": 186.0399932861328, "groundspeed_mps": 0.09680149704217911}, "flight": {"mode": "STABILIZE", "armed": false}, "ekf": {"attitude": {"roll": -0.03187740966677666, "pitch": 0.03357211500406265, "yaw": 0.8955222964286804}, "local_position": {"x": null, "y": null, "z": null}, "status": {"flags": 135, "velocity_variance": 0.0, "pos_horiz_variance": 0.028175605461001396, "pos_vert_variance": 0.07273435592651367}}, "errors": ["PreArm: Hardware safety switch"]}
{"timestamp": "2025-12-16T06:28:12.218876Z", "telemetry": {"lat": 28.7529841, "lon": 77.1178631, "satellites": 5, "altitude_gps_m": 185.97000122070312, "groundspeed_mps": 0.09334568679332733}, "flight": {"mode": "STABILIZE", "armed": false}, "ekf": {"attitude": {"roll": -0.03205355629324913, "pitch": 0.03363852947950363, "yaw": 0.8954124450683594}, "local_position": {"x": null, "y": null, "z": null}, "status": {"flags": 135, "velocity_variance": 0.0, "pos_horiz_variance": 0.027672482654452324, "pos_vert_variance": 0.0030478264670819044}}, "errors": ["PreArm: Hardware safety switch"]}
{"timestamp": "2025-12-16T06:28:13.219007Z", "telemetry": {"lat": 28.7529805, "lon": 77.1178616, "satellites": 5, "altitude_gps_m": 186.0699920654297, "groundspeed_mps": 0.09442302584648132}, "flight": {"mode": "STABILIZE", "armed": false}, "ekf": {"attitude": {"roll": -0.03204457089304924, "pitch": 0.033722490072250366, "yaw": 0.8952100276947021}, "local_position": {"x": null, "y": null, "z": null}, "status": {"flags": 135, "velocity_variance": 0.0, "pos_horiz_variance": 0.02704772539436817, "pos_vert_variance": 0.05689563229680061}}, "errors": ["PreArm: Hardware safety switch"]}
{"timestamp": "2025-12-16T06:28:14.218347Z", "telemetry": {"lat": 28.75298, "lon": 77.1178607, "satellites": 5, "altitude_gps_m": 185.8199920654297, "groundspeed_mps": 0.09524285048246384}, "flight": {"mode": "STABILIZE", "armed": false}, "ekf": {"attitude": {"roll": -0.03211558982729912, "pitch": 0.03372877091169357, "yaw": 0.8950446844100952}, "local_position": {"x": null, "y": null, "z": null}, "status": {"flags": 135, "velocity_variance": 0.0, "pos_horiz_variance": 0.02689201943576336, "pos_vert_variance": 0.11199095845222473}}, "errors": ["PreArm: Hardware safety switch"]}
{"timestamp": "2025-12-16T06:28:15.218914Z", "telemetry": {"lat": 28.7529732, "lon": 77.117861, "satellites": 5, "altitude_gps_m": 184.8000030517578, "groundspeed_mps": 0.09513750672340393}, "flight": {"mode": "STABILIZE", "armed": false}, "ekf": {"attitude": {"roll": -0.03214598819613457, "pitch": 0.033762410283088684, "yaw": 0.8950737118721008}, "local_position": {"x": null, "y": null, "z": null}, "status": {"flags": 135, "velocity_variance": 0.0, "pos_horiz_variance": 0.026906555518507957, "pos_vert_variance": 0.06681013107299805}}, "errors": ["PreArm: Hardware safety switch"]}
{"timestamp": "2025-12-16T06:28:16.219112Z", "telemetry": {"lat": 28.7529717, "lon": 77.1178603, "satellites": 5, "altitude_gps_m": 184.8000030517578, "groundspeed_mps": 0.09335683286190033}, "flight": {"mode": "STABILIZE", "armed": false}, "ekf": {"attitude": {"roll": -0.032157931476831436, "pitch": 0.033841803669929504, "yaw": 0.8954747915267944}, "local_position": {"x": null, "y": null, "z": null}, "status": {"flags": 135, "velocity_variance": 0.0, "pos_horiz_variance": 0.02681904099881649, "pos_vert_variance": 0.004617730621248484}}, "errors": ["PreArm: Hardware safety switch"]}
{"timestamp": "2025-12-16T06:28:17.237457Z", "telemetry": {"lat": 28.7529665, "lon": 77.1178603, "satellites": 5, "altitude_gps_m": 184.19000244140625, "groundspeed_mps": 0.09607136249542236}, "flight": {"mode": "STABILIZE", "armed": false}, "ekf": {"attitude": {"roll": -0.03222129866480827, "pitch": 0.0336662158370018, "yaw": 0.8956363797187805}, "local_position": {"x": null, "y": null, "z": null}, "status": {"flags": 135, "velocity_variance": 0.0, "pos_horiz_variance": 0.026892531663179398, "pos_vert_variance": 0.03538087010383606}}, "errors": ["PreArm: Hardware safety switch"]}
{"timestamp": "2025-12-16T06:28:18.229512Z", "telemetry": {"lat": 28.7529692, "lon": 77.1178608, "satellites": 5, "altitude_gps_m": 184.4099884033203, "groundspeed_mps": 0.09791788458824158}, "flight": {"mode": "STABILIZE", "armed": false}, "ekf": {"attitude": {"roll": -0.03198372200131416, "pitch": 0.033550016582012177, "yaw": 0.8959231376647949}, "local_position": {"x": null, "y": null, "z": null}, "status": {"flags": 135, "velocity_variance": 0.0, "pos_horiz_variance": 0.027257541194558144, "pos_vert_variance": 0.008730076253414154}}, "errors": ["PreArm: Hardware safety switch"]}
{"timestamp": "2025-12-16T06:28:19.227611Z", "telemetry": {"lat": 28.7529634, "lon": 77.1178618, "satellites": 6, "altitude_gps_m": 183.94000244140625, "groundspeed_mps": 0.09771968424320221}, "flight": {"mode": "STABILIZE", "armed": false}, "ekf": {"attitude": {"roll": -0.031866177916526794, "pitch": 0.033574625849723816, "yaw": 0.8960358500480652}, "local_position": {"x": null, "y": null, "z": null}, "status": {"flags": 135, "velocity_variance": 0.0, "pos_horiz_variance": 0.027486417442560196, "pos_vert_variance": 0.06070960313081741}}, "errors": ["PreArm: Hardware safety switch"]}
{"timestamp": "2025-12-16T06:28:20.225136Z", "telemetry": {"lat": 28.7529539, "lon": 77.1178631, "satellites": 6, "altitude_gps_m": 181.77999877929688, "groundspeed_mps": 0.09547926485538483}, "flight": {"mode": "STABILIZE", "armed": false}, "ekf": {"attitude": {"roll": -0.031748246401548386, "pitch": 0.03348497301340103, "yaw": 0.8962146639823914}, "local_position": {"x": null, "y": null, "z": null}, "status": {"flags": 135, "velocity_variance": 0.0, "pos_horiz_variance": 0.02737773396074772, "pos_vert_variance": 0.009648590348660946}}, "errors": ["PreArm: Hardware safety switch", "PreArm: Hardware safety switch"]}
{"timestamp": "2025-12-16T06:28:21.220887Z", "telemetry": {"lat": 28.7529435, "lon": 77.1178639, "satellites": 6, "altitude_gps_m": 179.9099884033203, "groundspeed_mps": 0.09688539803028107}, "flight": {"mode": "STABILIZE", "armed": false}, "ekf": {"attitude": {"roll": -0.03172122314572334, "pitch": 0.0333855077624321, "yaw": 0.8962545394897461}, "local_position": {"x": null, "y": null, "z": null}, "status": {"flags": 135, "velocity_variance": 0.0, "pos_horiz_variance": 0.027129681780934334, "pos_vert_variance": 0.031593769788742065}}, "errors": ["PreArm: Hardware safety switch", "PreArm: Hardware safety switch"]}
{"timestamp": "2025-12-16T06:28:22.218528Z", "telemetry": {"lat": 28.7529405, "lon": 77.1178647, "satellites": 6, "altitude_gps_m": 179.55999755859375, "groundspeed_mps": 0.09933513402938843}, "flight": {"mode": "STABILIZE", "armed": false}, "ekf": {"attitude": {"roll": -0.03163846209645271, "pitch": 0.03337237983942032, "yaw": 0.8962036371231079}, "local_position": {"x": null, "y": null, "z": null}, "status": {"flags": 135, "velocity_variance": 0.0, "pos_horiz_variance": 0.02741442620754242, "pos_vert_variance": 0.01639632321894169}}, "errors": ["PreArm: Hardware safety switch", "PreArm: Hardware safety switch"]}
{"timestamp": "2025-12-16T06:28:23.219126Z", "telemetry": {"lat": 28.7529449, "lon": 77.1178644, "satellites": 6, "altitude_gps_m": 180.22000122070312, "groundspeed_mps": 0.10219177603721619}, "flight": {"mode": "STABILIZE", "armed": false}, "ekf": {"attitude": {"roll": -0.031483784317970276, "pitch": 0.03343524783849716, "yaw": 0.8961895108222961}, "local_position": {"x": null, "y": null, "z": null}, "status": {"flags": 135, "velocity_variance": 0.0, "pos_horiz_variance": 0.02800511009991169, "pos_vert_variance": 0.003955818712711334}}, "errors": ["PreArm: Hardware safety switch", "PreArm: Hardware safety switch"]}
{"timestamp": "2025-12-16T06:28:24.219209Z", "telemetry": {"lat": 28.7529502, "lon": 77.1178639, "satellites": 6, "altitude_gps_m": 181.0500030517578, "groundspeed_mps": 0.10291161388158798}, "flight": {"mode": "STABILIZE", "armed": false}, "ekf": {"attitude": {"roll": -0.031399648636579514, "pitch": 0.033564962446689606, "yaw": 0.8963161706924438}, "local_position": {"x": null, "y": null, "z": null}, "status": {"flags": 135, "velocity_variance": 0.0, "pos_horiz_variance": 0.02845650352537632, "pos_vert_variance": 0.04826337471604347}}, "errors": ["PreArm: Hardware safety switch", "PreArm: Hardware safety switch"]}
{"timestamp": "2025-12-16T06:28:25.219929Z", "telemetry": {"lat": 28.7529486, "lon": 77.1178651, "satellites": 6, "altitude_gps_m": 180.47999572753906, "groundspeed_mps": 0.10109079629182816}, "flight": {"mode": "STABILIZE", "armed": false}, "ekf": {"attitude": {"roll": -0.031381309032440186, "pitch": 0.03354664891958237, "yaw": 0.8963374495506287}, "local_position": {"x": null, "y": null, "z": null}, "status": {"flags": 135, "velocity_variance": 0.0, "pos_horiz_variance": 0.028726957738399506, "pos_vert_variance": 0.06880486011505127}}, "errors": ["PreArm: Hardware safety switch", "PreArm: Hardware safety switch"]}
{"timestamp": "2025-12-16T06:28:26.218746Z", "telemetry": {"lat": 28.7529402, "lon": 77.1178657, "satellites": 6, "altitude_gps_m": 179.3000030517578, "groundspeed_mps": 0.10095972567796707}, "flight": {"mode": "STABILIZE", "armed": false}, "ekf": {"attitude": {"roll": -0.03126756474375725, "pitch": 0.03360690176486969, "yaw": 0.8962291479110718}, "local_position": {"x": null, "y": null, "z": null}, "status": {"flags": 135, "velocity_variance": 0.0, "pos_horiz_variance": 0.0286630317568779, "pos_vert_variance": 0.009315995499491692}}, "errors": ["PreArm: Hardware safety switch", "PreArm: Hardware safety switch"]}
{"timestamp": "2025-12-16T06:28:27.232815Z", "telemetry": {"lat": 28.7529395, "lon": 77.1178652, "satellites": 6, "altitude_gps_m": 180.09999084472656, "groundspeed_mps": 0.10004858672618866}, "flight": {"mode": "STABILIZE", "armed": false}, "ekf": {"attitude": {"roll": -0.03120115026831627, "pitch": 0.03374375402927399, "yaw": 0.8962658643722534}, "local_position": {"x": null, "y": null, "z": null}, "status": {"flags": 135, "velocity_variance": 0.0, "pos_horiz_variance": 0.0285164974629879, "pos_vert_variance": 0.03089253231883049}}, "errors": ["PreArm: Hardware safety switch", "PreArm: Hardware safety switch"]}
{"timestamp": "2025-12-16T06:28:28.233697Z", "telemetry": {"lat": 28.7529354, "lon": 77.1178649, "satellites": 6, "altitude_gps_m": 179.739990234375, "groundspeed_mps": 0.09771320223808289}, "flight": {"mode": "STABILIZE", "armed": false}, "ekf": {"attitude": {"roll": -0.030996087938547134, "pitch": 0.03386218845844269, "yaw": 0.8963564038276672}, "local_position": {"x": null, "y": null, "z": null}, "status": {"flags": 135, "velocity_variance": 0.0, "pos_horiz_variance": 0.02818474732339382, "pos_vert_variance": 0.019335811957716942}}, "errors": ["PreArm: Hardware safety switch", "PreArm: Hardware safety switch"]}
{"timestamp": "2025-12-16T06:28:29.225988Z", "telemetry": {"lat": 28.7529374, "lon": 77.1178643, "satellites": 6, "altitude_gps_m": 180.26998901367188, "groundspeed_mps": 0.0947241559624672}, "flight": {"mode": "STABILIZE", "armed": false}, "ekf": {"attitude": {"roll": -0.030937422066926956, "pitch": 0.03403734415769577, "yaw": 0.8965749740600586}, "local_position": {"x": null, "y": null, "z": null}, "status": {"flags": 135, "velocity_variance": 0.0, "pos_horiz_variance": 0.027735132724046707, "pos_vert_variance": 0.10727914422750473}}, "errors": ["PreArm: Hardware safety switch", "PreArm: Hardware safety switch"]}
{"timestamp": "2025-12-16T06:28:30.230034Z", "telemetry": {"lat": 28.7529376, "lon": 77.1178642, "satellites": 6, "altitude_gps_m": 180.0399932861328, "groundspeed_mps": 0.0948905423283577}, "flight": {"mode": "STABILIZE", "armed": false}, "ekf": {"attitude": {"roll": -0.03089737519621849, "pitch": 0.03412410616874695, "yaw": 0.896459698677063}, "local_position": {"x": null, "y": null, "z": null}, "status": {"flags": 135, "velocity_variance": 0.0, "pos_horiz_variance": 0.027309872210025787, "pos_vert_variance": 0.057962652295827866}}, "errors": ["PreArm: Hardware safety switch", "PreArm: Hardware safety switch"]}
{"timestamp": "2025-12-16T06:28:31.225664Z", "telemetry": {"lat": 28.7529389, "lon": 77.1178637, "satellites": 6, "altitude_gps_m": 180.4499969482422, "groundspeed_mps": 0.09135627001523972}, "flight": {"mode": "STABILIZE", "armed": false}, "ekf": {"attitude": {"roll": -0.030844442546367645, "pitch": 0.03406049311161041, "yaw": 0.8962134718894958}, "local_position": {"x": null, "y": null, "z": null}, "status": {"flags": 135, "velocity_variance": 0.0, "pos_horiz_variance": 0.026886822655797005, "pos_vert_variance": 0.032867323607206345}}, "errors": ["PreArm: Hardware safety switch", "PreArm: Hardware safety switch"]}
{"timestamp": "2025-12-16T06:28:32.229243Z", "telemetry": {"lat": 28.7529357, "lon": 77.117864, "satellites": 6, "altitude_gps_m": 179.8699951171875, "groundspeed_mps": 0.08904261142015457}, "flight": {"mode": "STABILIZE", "armed": false}, "ekf": {"attitude": {"roll": -0.03062015026807785, "pitch": 0.03402010351419449, "yaw": 0.896131694316864}, "local_position": {"x": null, "y": null, "z": null}, "status": {"flags": 135, "velocity_variance": 0.0, "pos_horiz_variance": 0.02608563005924225, "pos_vert_variance": 0.0349460206925869}}, "errors": ["PreArm: Hardware safety switch", "PreArm: Hardware safety switch"]}
{"timestamp": "2025-12-16T06:28:33.220613Z", "telemetry": {"lat": 28.7529319, "lon": 77.1178649, "satellites": 6, "altitude_gps_m": 178.5800018310547, "groundspeed_mps": 0.086293064057827}, "flight": {"mode": "STABILIZE", "armed": false}, "ekf": {"attitude": {"roll": -0.03059467300772667, "pitch": 0.0339369997382164, "yaw": 0.8957781791687012}, "local_position": {"x": null, "y": null, "z": null}, "status": {"flags": 135, "velocity_variance": 0.0, "pos_horiz_variance": 0.0254172645509243, "pos_vert_variance": 0.05472809821367264}}, "errors": ["PreArm: Hardware safety switch", "PreArm: Hardware safety switch"]}
{"timestamp": "2025-12-16T06:28:34.219066Z", "telemetry": {"lat": 28.7529287, "lon": 77.1178651, "satellites": 6, "altitude_gps_m": 177.5800018310547, "groundspeed_mps": 0.0864141657948494}, "flight": {"mode": "STABILIZE", "armed": false}, "ekf": {"attitude": {"roll": -0.03056945651769638, "pitch": 0.0339449867606163, "yaw": 0.8955783843994141}, "local_position": {"x": null, "y": null, "z": null}, "status": {"flags": 135, "velocity_variance": 0.0, "pos_horiz_variance": 0.024815211072564125, "pos_vert_variance": 0.08170099556446075}}, "errors": ["PreArm: Hardware safety switch", "PreArm: Hardware safety switch"]}
{"timestamp": "2025-12-16T06:28:35.219118Z", "telemetry": {"lat": 28.7529245, "lon": 77.1178641, "satellites": 6, "altitude_gps_m": 177.0399932861328, "groundspeed_mps": 0.08871237188577652}, "flight": {"mode": "STABILIZE", "armed": false}, "ekf": {"attitude": {"roll": -0.030463576316833496, "pitch": 0.03385808318853378, "yaw": 0.8953492641448975}, "local_position": {"x": null, "y": null, "z": null}, "status": {"flags": 135, "velocity_variance": 0.0, "pos_horiz_variance": 0.024693472310900688, "pos_vert_variance": 0.006356863304972649}}, "errors": ["PreArm: Hardware safety switch", "PreArm: Hardware safety switch"]}
{"timestamp": "2025-12-16T06:28:36.218305Z", "telemetry": {"lat": 28.7529188, "lon": 77.117862, "satellites": 6, "altitude_gps_m": 176.26998901367188, "groundspeed_mps": 0.09068749845027924}, "flight": {"mode": "STABILIZE", "armed": false}, "ekf": {"attitude": {"roll": -0.030487004667520523, "pitch": 0.03379710018634796, "yaw": 0.8950401544570923}, "local_position": {"x": null, "y": null, "z": null}, "status": {"flags": 135, "velocity_variance": 0.0, "pos_horiz_variance": 0.025074919685721397, "pos_vert_variance": 0.11498051136732101}}, "errors": ["PreArm: Hardware safety switch", "PreArm: Hardware safety switch"]}
{"timestamp": "2025-12-16T06:28:37.219194Z", "telemetry": {"lat": 28.7529202, "lon": 77.1178617, "satellites": 6, "altitude_gps_m": 176.1999969482422, "groundspeed_mps": 0.09169195592403412}, "flight": {"mode": "STABILIZE", "armed": false}, "ekf": {"attitude": {"roll": -0.030514031648635864, "pitch": 0.03383242338895798, "yaw": 0.8949117064476013}, "local_position": {"x": null, "y": null, "z": null}, "status": {"flags": 135, "velocity_variance": 0.0, "pos_horiz_variance": 0.025509633123874664, "pos_vert_variance": 0.017788028344511986}}, "errors": ["PreArm: Hardware safety switch", "PreArm: Hardware safety switch"]}
{"timestamp": "2025-12-16T06:28:38.230885Z", "telemetry": {"lat": 28.7529204, "lon": 77.1178609, "satellites": 6, "altitude_gps_m": 175.5800018310547, "groundspeed_mps": 0.09365761280059814}, "flight": {"mode": "STABILIZE", "armed": false}, "ekf": {"attitude": {"roll": -0.030761241912841797, "pitch": 0.033824123442173004, "yaw": 0.8944969177246094}, "local_position": {"x": null, "y": null, "z": null}, "status": {"flags": 135, "velocity_variance": 0.0, "pos_horiz_variance": 0.025780005380511284, "pos_vert_variance": 0.0319424606859684}}, "errors": ["PreArm: Hardware safety switch", "PreArm: Hardware safety switch"]}
{"timestamp": "2025-12-16T06:28:39.225265Z", "telemetry": {"lat": 28.752918, "lon": 77.1178613, "satellites": 6, "altitude_gps_m": 174.58999633789062, "groundspeed_mps": 0.09380490332841873}, "flight": {"mode": "STABILIZE", "armed": false}, "ekf": {"attitude": {"roll": -0.030845623463392258, "pitch": 0.03382977843284607, "yaw": 0.8941176533699036}, "local_position": {"x": null, "y": null, "z": null}, "status": {"flags": 135, "velocity_variance": 0.0, "pos_horiz_variance": 0.02604910358786583, "pos_vert_variance": 0.03980403020977974}}, "errors": ["PreArm: Hardware safety switch", "PreArm: Hardware safety switch"]}
{"timestamp": "2025-12-16T06:28:40.235930Z", "telemetry": {"lat": 28.7529196, "lon": 77.1178605, "satellites": 6, "altitude_gps_m": 175.1199951171875, "groundspeed_mps": 0.09282629936933517}, "flight": {"mode": "STABILIZE", "armed": false}, "ekf": {"attitude": {"roll": -0.030967161059379578, "pitch": 0.034006983041763306, "yaw": 0.8938698172569275}, "local_position": {"x": null, "y": null, "z": null}, "status": {"flags": 135, "velocity_variance": 0.0, "pos_horiz_variance": 0.02625201642513275, "pos_vert_variance": 0.011231604032218456}}, "errors": ["PreArm: Hardware safety switch", "PreArm: Hardware safety switch"]}
{"timestamp": "2025-12-16T06:28:41.227065Z", "telemetry": {"lat": 28.7529215, "lon": 77.1178604, "satellites": 6, "altitude_gps_m": 174.4199981689453, "groundspeed_mps": 0.08933063596487045}, "flight": {"mode": "STABILIZE", "armed": false}, "ekf": {"attitude": {"roll": -0.031028326600790024, "pitch": 0.034192174673080444, "yaw": 0.8935638070106506}, "local_position": {"x": null, "y": null, "z": null}, "status": {"flags": 135, "velocity_variance": 0.0, "pos_horiz_variance": 0.026046978309750557, "pos_vert_variance": 0.034176383167505264}}, "errors": ["PreArm: Hardware safety switch", "PreArm: Hardware safety switch"]}
{"timestamp": "2025-12-16T06:28:42.220724Z", "telemetry": {"lat": 28.7529197, "lon": 77.1178594, "satellites": 6, "altitude_gps_m": 174.1199951171875, "groundspeed_mps": 0.08812690526247025}, "flight": {"mode": "STABILIZE", "armed": false}, "ekf": {"attitude": {"roll": -0.031095080077648163, "pitch": 0.03434157371520996, "yaw": 0.8935266733169556}, "local_position": {"x": null, "y": null, "z": null}, "status": {"flags": 135, "velocity_variance": 0.0, "pos_horiz_variance": 0.0254661962389946, "pos_vert_variance": 0.03609534353017807}}, "errors": ["PreArm: Hardware safety switch", "PreArm: Hardware safety switch"]}
{"timestamp": "2025-12-16T06:28:43.218884Z", "telemetry": {"lat": 28.7529141, "lon": 77.1178594, "satellites": 6, "altitude_gps_m": 172.6699981689453, "groundspeed_mps": 0.08494937419891357}, "flight": {"mode": "STABILIZE", "armed": false}, "ekf": {"attitude": {"roll": -0.031135480850934982, "pitch": 0.03446196764707565, "yaw": 0.8929548263549805}, "local_position": {"x": null, "y": null, "z": null}, "status": {"flags": 135, "velocity_variance": 0.0, "pos_horiz_variance": 0.02506757155060768, "pos_vert_variance": 0.007203747984021902}}, "errors": ["PreArm: Hardware safety switch", "PreArm: Hardware safety switch"]}
{"timestamp": "2025-12-16T06:28:44.219181Z", "telemetry": {"lat": 28.7529126, "lon": 77.1178584, "satellites": 6, "altitude_gps_m": 172.14999389648438, "groundspeed_mps": 0.08091796189546585}, "flight": {"mode": "STABILIZE", "armed": false}, "ekf": {"attitude": {"roll": -0.03127767890691757, "pitch": 0.03467956930398941, "yaw": 0.8928627967834473}, "local_position": {"x": null, "y": null, "z": null}, "status": {"flags": 135, "velocity_variance": 0.0, "pos_horiz_variance": 0.02411232516169548, "pos_vert_variance": 0.0016652063932269812}}, "errors": ["PreArm: Hardware safety switch", "PreArm: Hardware safety switch"]}
{"timestamp": "2025-12-16T06:28:45.228105Z", "telemetry": {"lat": 28.7529106, "lon": 77.1178603, "satellites": 6, "altitude_gps_m": 171.66000366210938, "groundspeed_mps": 0.07441213726997375}, "flight": {"mode": "STABILIZE", "armed": false}, "ekf": {"attitude": {"roll": -0.031334225088357925, "pitch": 0.03485620766878128, "yaw": 0.8925312757492065}, "local_position": {"x": null, "y": null, "z": null}, "status": {"flags": 135, "velocity_variance": 0.0, "pos_horiz_variance": 0.023163223639130592, "pos_vert_variance": 0.02828623168170452}}, "errors": ["PreArm: Hardware safety switch", "PreArm: Hardware safety switch"]}
{"timestamp": "2025-12-16T06:28:46.219206Z", "telemetry": {"lat": 28.7529139, "lon": 77.1178604, "satellites": 6, "altitude_gps_m": 171.39999389648438, "groundspeed_mps": 0.06815674155950546}, "flight": {"mode": "STABILIZE", "armed": false}, "ekf": {"attitude": {"roll": -0.03154948726296425, "pitch": 0.03500223159790039, "yaw": 0.8923218846321106}, "local_position": {"x": null, "y": null, "z": null}, "status": {"flags": 135, "velocity_variance": 0.0, "pos_horiz_variance": 0.02178436890244484, "pos_vert_variance": 0.01538840588182211}}, "errors": ["PreArm: Hardware safety switch", "PreArm: Hardware safety switch"]}
{"timestamp": "2025-12-16T06:28:47.218461Z", "telemetry": {"lat": 28.7529152, "lon": 77.1178622, "satellites": 6, "altitude_gps_m": 171.36000061035156, "groundspeed_mps": 0.0663432627916336}, "flight": {"mode": "STABILIZE", "armed": false}, "ekf": {"attitude": {"roll": -0.03162753954529762, "pitch": 0.03505013883113861, "yaw": 0.8920257091522217}, "local_position": {"x": null, "y": null, "z": null}, "status": {"flags": 135, "velocity_variance": 0.0, "pos_horiz_variance": 0.02035917527973652, "pos_vert_variance": 0.04887395352125168}}, "errors": ["PreArm: Hardware safety switch", "PreArm: Hardware safety switch"]}
{"timestamp": "2025-12-16T06:28:48.220735Z", "telemetry": {"lat": 28.7529146, "lon": 77.1178631, "satellites": 6, "altitude_gps_m": 170.4199981689453, "groundspeed_mps": 0.06813567876815796}, "flight": {"mode": "STABILIZE", "armed": false}, "ekf": {"attitude": {"roll": -0.03173253312706947, "pitch": 0.035110801458358765, "yaw": 0.8917770981788635}, "local_position": {"x": null, "y": null, "z": null}, "status": {"flags": 135, "velocity_variance": 0.0, "pos_horiz_variance": 0.01962636224925518, "pos_vert_variance": 0.04084421321749687}}, "errors": ["PreArm: Hardware safety switch", "PreArm: Hardware safety switch"]}
{"timestamp": "2025-12-16T06:28:49.234594Z", "telemetry": {"lat": 28.7529159, "lon": 77.1178637, "satellites": 6, "altitude_gps_m": 170.5699920654297, "groundspeed_mps": 0.0706159770488739}, "flight": {"mode": "STABILIZE", "armed": false}, "ekf": {"attitude": {"roll": -0.03173983097076416, "pitch": 0.03503887355327606, "yaw": 0.8916736841201782}, "local_position": {"x": null, "y": null, "z": null}, "status": {"flags": 135, "velocity_variance": 0.0, "pos_horiz_variance": 0.019528105854988098, "pos_vert_variance": 0.022031523287296295}}, "errors": ["PreArm: Hardware safety switch", "PreArm: Hardware safety switch"]}
{"timestamp": "2025-12-16T06:28:50.229443Z", "telemetry": {"lat": 28.7529153, "lon": 77.1178637, "satellites": 6, "altitude_gps_m": 169.989990234375, "groundspeed_mps": 0.07134975492954254}, "flight": {"mode": "STABILIZE", "armed": false}, "ekf": {"attitude": {"roll": -0.03175925090909004, "pitch": 0.035018473863601685, "yaw": 0.891281247138977}, "local_position": {"x": null, "y": null, "z": null}, "status": {"flags": 135, "velocity_variance": 0.0, "pos_horiz_variance": 0.019907677546143532, "pos_vert_variance": 0.026116015389561653}}, "errors": ["PreArm: Hardware safety switch", "PreArm: Hardware safety switch"]}
{"timestamp": "2025-12-16T06:28:51.223714Z", "telemetry": {"lat": 28.7529128, "lon": 77.1178632, "satellites": 6, "altitude_gps_m": 168.47999572753906, "groundspeed_mps": 0.07201489061117172}, "flight": {"mode": "STABILIZE", "armed": false}, "ekf": {"attitude": {"roll": -0.031718526035547256, "pitch": 0.03483584523200989, "yaw": 0.8908613920211792}, "local_position": {"x": null, "y": null, "z": null}, "status": {"flags": 135, "velocity_variance": 0.0, "pos_horiz_variance": 0.020127402618527412, "pos_vert_variance": 0.026239724829792976}}, "errors": ["PreArm: Hardware safety switch", "PreArm: Hardware safety switch", "PreArm: Hardware safety switch"]}
{"timestamp": "2025-12-16T06:28:52.218611Z", "telemetry": {"lat": 28.7529112, "lon": 77.1178634, "satellites": 6, "altitude_gps_m": 167.75, "groundspeed_mps": 0.0753185972571373}, "flight": {"mode": "STABILIZE", "armed": false}, "ekf": {"attitude": {"roll": -0.03167031332850456, "pitch": 0.034812718629837036, "yaw": 0.8907535672187805}, "local_position": {"x": null, "y": null, "z": null}, "status": {"flags": 135, "velocity_variance": 0.0, "pos_horiz_variance": 0.020372796803712845, "pos_vert_variance": 0.018815049901604652}}, "errors": ["PreArm: Hardware safety switch", "PreArm: Hardware safety switch", "PreArm: Hardware safety switch"]}
{"timestamp": "2025-12-16T06:28:53.224017Z", "telemetry": {"lat": 28.7529124, "lon": 77.1178619, "satellites": 6, "altitude_gps_m": 167.7899932861328, "groundspeed_mps": 0.07626952975988388}, "flight": {"mode": "STABILIZE", "armed": false}, "ekf": {"attitude": {"roll": -0.03163420408964157, "pitch": 0.03469441086053848, "yaw": 0.8904457688331604}, "local_position": {"x": null, "y": null, "z": null}, "status": {"flags": 135, "velocity_variance": 0.0, "pos_horiz_variance": 0.020923849195241928, "pos_vert_variance": 0.03890248388051987}}, "errors": ["PreArm: Hardware safety switch", "PreArm: Hardware safety switch", "PreArm: Hardware safety switch"]}
{"timestamp": "2025-12-16T06:28:54.218579Z", "telemetry": {"lat": 28.7529125, "lon": 77.1178629, "satellites": 6, "altitude_gps_m": 167.75999450683594, "groundspeed_mps": 0.0782499834895134}, "flight": {"mode": "STABILIZE", "armed": false}, "ekf": {"attitude": {"roll": -0.03149568289518356, "pitch": 0.03464691340923309, "yaw": 0.8904712200164795}, "local_position": {"x": null, "y": null, "z": null}, "status": {"flags": 135, "velocity_variance": 0.0, "pos_horiz_variance": 0.02149379253387451, "pos_vert_variance": 0.003727968782186508}}, "errors": ["PreArm: Hardware safety switch", "PreArm: Hardware safety switch", "PreArm: Hardware safety switch"]}
{"timestamp": "2025-12-16T06:28:55.219171Z", "telemetry": {"lat": 28.7529115, "lon": 77.1178649, "satellites": 6, "altitude_gps_m": 167.989990234375, "groundspeed_mps": 0.0773409754037857}, "flight": {"mode": "STABILIZE", "armed": false}, "ekf": {"attitude": {"roll": -0.0313386470079422, "pitch": 0.03465096652507782, "yaw": 0.8902449011802673}, "local_position": {"x": null, "y": null, "z": null}, "status": {"flags": 135, "velocity_variance": 0.0, "pos_horiz_variance": 0.021759917959570885, "pos_vert_variance": 0.04784642904996872}}, "errors": ["PreArm: Hardware safety switch", "PreArm: Hardware safety switch", "PreArm: Hardware safety switch"]}
{"timestamp": "2025-12-16T06:28:56.219604Z", "telemetry": {"lat": 28.7529172, "lon": 77.1178604, "satellites": 6, "altitude_gps_m": 168.94000244140625, "groundspeed_mps": 0.07810062915086746}, "flight": {"mode": "STABILIZE", "armed": false}, "ekf": {"attitude": {"roll": -0.0312793105840683, "pitch": 0.034685686230659485, "yaw": 0.8900197744369507}, "local_position": {"x": null, "y": null, "z": null}, "status": {"flags": 135, "velocity_variance": 0.0, "pos_horiz_variance": 0.021866392344236374, "pos_vert_variance": 0.023433346301317215}}, "errors": ["PreArm: Hardware safety switch", "PreArm: Hardware safety switch", "PreArm: Hardware safety switch"]}
{"timestamp": "2025-12-16T06:28:57.218993Z", "telemetry": {"lat": 28.7529119, "lon": 77.1178579, "satellites": 6, "altitude_gps_m": 167.38999938964844, "groundspeed_mps": 0.07709969580173492}, "flight": {"mode": "STABILIZE", "armed": false}, "ekf": {"attitude": {"roll": -0.031173594295978546, "pitch": 0.03476833552122116, "yaw": 0.8896132111549377}, "local_position": {"x": null, "y": null, "z": null}, "status": {"flags": 135, "velocity_variance": 0.0, "pos_horiz_variance": 0.02195502631366253, "pos_vert_variance": 0.017230015248060226}}, "errors": ["PreArm: Hardware safety switch", "PreArm: Hardware safety switch", "PreArm: Hardware safety switch"]}
{"timestamp": "2025-12-16T06:28:58.219076Z", "telemetry": {"lat": 28.752907, "lon": 77.1178588, "satellites": 6, "altitude_gps_m": 165.41000366210938, "groundspeed_mps": 0.07838127762079239}, "flight": {"mode": "STABILIZE", "armed": false}, "ekf": {"attitude": {"roll": -0.03117791935801506, "pitch": 0.034754686057567596, "yaw": 0.8893306851387024}, "local_position": {"x": null, "y": null, "z": null}, "status": {"flags": 135, "velocity_variance": 0.0, "pos_horiz_variance": 0.021900178864598274, "pos_vert_variance": 0.047269389033317566}}, "errors": ["PreArm: Hardware safety switch", "PreArm: Hardware safety switch", "PreArm: Hardware safety switch"]}
{"timestamp": "2025-12-16T06:28:59.232893Z", "telemetry": {"lat": 28.7529117, "lon": 77.1178567, "satellites": 6, "altitude_gps_m": 166.47999572753906, "groundspeed_mps": 0.07801162451505661}, "flight": {"mode": "STABILIZE", "armed": false}, "ekf": {"attitude": {"roll": -0.03109852597117424, "pitch": 0.034822121262550354, "yaw": 0.8890771865844727}, "local_position": {"x": null, "y": null, "z": null}, "status": {"flags": 135, "velocity_variance": 0.0, "pos_horiz_variance": 0.022023363038897514, "pos_vert_variance": 0.007620675954967737}}, "errors": ["PreArm: Hardware safety switch", "PreArm: Hardware safety switch", "PreArm: Hardware safety switch"]}
{"timestamp": "2025-12-16T06:29:00.231365Z", "telemetry": {"lat": 28.7529123, "lon": 77.1178562, "satellites": 6, "altitude_gps_m": 166.22999572753906, "groundspeed_mps": 0.0750359520316124}, "flight": {"mode": "STABILIZE", "armed": false}, "ekf": {"attitude": {"roll": -0.030923258513212204, "pitch": 0.03475642204284668, "yaw": 0.8890615701675415}, "local_position": {"x": null, "y": null, "z": null}, "status": {"flags": 135, "velocity_variance": 0.0, "pos_horiz_variance": 0.021705519407987595, "pos_vert_variance": 0.008529667742550373}}, "errors": ["PreArm: Hardware safety switch", "PreArm: Hardware safety switch", "PreArm: Hardware safety switch"]}
{"timestamp": "2025-12-16T06:29:01.236941Z", "telemetry": {"lat": 28.7529138, "lon": 77.1178557, "satellites": 6, "altitude_gps_m": 167.0399932861328, "groundspeed_mps": 0.07604716718196869}, "flight": {"mode": "STABILIZE", "armed": false}, "ekf": {"attitude": {"roll": -0.030872929841279984, "pitch": 0.03477031737565994, "yaw": 0.8890187740325928}, "local_position": {"x": null, "y": null, "z": null}, "status": {"flags": 135, "velocity_variance": 0.0, "pos_horiz_variance": 0.021586673334240913, "pos_vert_variance": 0.01634240709245205}}, "errors": ["PreArm: Hardware safety switch", "PreArm: Hardware safety switch", "PreArm: Hardware safety switch"]}
{"timestamp": "2025-12-16T06:29:02.223411Z", "telemetry": {"lat": 28.7529192, "lon": 77.1178588, "satellites": 6, "altitude_gps_m": 168.11000061035156, "groundspeed_mps": 0.07359796017408371}, "flight": {"mode": "STABILIZE", "armed": false}, "ekf": {"attitude": {"roll": -0.03077298030257225, "pitch": 0.03480347990989685, "yaw": 0.8889501690864563}, "local_position": {"x": null, "y": null, "z": null}, "status": {"flags": 135, "velocity_variance": 0.0, "pos_horiz_variance": 0.0214786846190691, "pos_vert_variance": 0.05951125919818878}}, "errors": ["PreArm: Hardware safety switch", "PreArm: Hardware safety switch", "PreArm: Hardware safety switch"]}
{"timestamp": "2025-12-16T06:29:03.218688Z", "telemetry": {"lat": 28.7529282, "lon": 77.117855, "satellites": 6, "altitude_gps_m": 170.17999267578125, "groundspeed_mps": 0.07175841182470322}, "flight": {"mode": "STABILIZE", "armed": false}, "ekf": {"attitude": {"roll": -0.03064584732055664, "pitch": 0.034836865961551666, "yaw": 0.8887513875961304}, "local_position": {"x": null, "y": null, "z": null}, "status": {"flags": 135, "velocity_variance": 0.0, "pos_horiz_variance": 0.02089955285191536, "pos_vert_variance": 0.01842471957206726}}, "errors": ["PreArm: Hardware safety switch", "PreArm: Hardware safety switch", "PreArm: Hardware safety switch"]}
{"timestamp": "2025-12-16T06:29:04.219002Z", "telemetry": {"lat": 28.7529349, "lon": 77.1178535, "satellites": 6, "altitude_gps_m": 171.7899932861328, "groundspeed_mps": 0.07196584343910217}, "flight": {"mode": "STABILIZE", "armed": false}, "ekf": {"attitude": {"roll": -0.030589789152145386, "pitch": 0.03494339436292648, "yaw": 0.8887825012207031}, "local_position": {"x": null, "y": null, "z": null}, "status": {"flags": 135, "velocity_variance": 0.0, "pos_horiz_variance": 0.020627740770578384, "pos_vert_variance": 0.000795340514741838}}, "errors": ["PreArm: Hardware safety switch", "PreArm: Hardware safety switch", "PreArm: Hardware safety switch"]}
{"timestamp": "2025-12-16T06:29:05.219098Z", "telemetry": {"lat": 28.7529376, "lon": 77.1178549, "satellites": 6, "altitude_gps_m": 173.02999877929688, "groundspeed_mps": 0.06897030770778656}, "flight": {"mode": "STABILIZE", "armed": false}, "ekf": {"attitude": {"roll": -0.03059067204594612, "pitch": 0.03498595952987671, "yaw": 0.8886153697967529}, "local_position": {"x": null, "y": null, "z": null}, "status": {"flags": 135, "velocity_variance": 0.0, "pos_horiz_variance": 0.020395293831825256, "pos_vert_variance": 0.017674796283245087}}, "errors": ["PreArm: Hardware safety switch", "PreArm: Hardware safety switch", "PreArm: Hardware safety switch"]}
{"timestamp": "2025-12-16T06:29:06.218268Z", "telemetry": {"lat": 28.7529413, "lon": 77.1178551, "satellites": 6, "altitude_gps_m": 173.59999084472656, "groundspeed_mps": 0.06788016110658646}, "flight": {"mode": "STABILIZE", "armed": false}, "ekf": {"attitude": {"roll": -0.030617810785770416, "pitch": 0.03503580391407013, "yaw": 0.8886036276817322}, "local_position": {"x": null, "y": null, "z": null}, "status": {"flags": 135, "velocity_variance": 0.0, "pos_horiz_variance": 0.019889310002326965, "pos_vert_variance": 0.042324166744947433}}, "errors": ["PreArm: Hardware safety switch", "PreArm: Hardware safety switch", "PreArm: Hardware safety switch"]}
{"timestamp": "2025-12-16T06:29:07.219130Z", "telemetry": {"lat": 28.7529474, "lon": 77.1178544, "satellites": 6, "altitude_gps_m": 174.26998901367188, "groundspeed_mps": 0.06789635866880417}, "flight": {"mode": "STABILIZE", "armed": false}, "ekf": {"attitude": {"roll": -0.030587520450353622, "pitch": 0.03501836955547333, "yaw": 0.8885490298271179}, "local_position": {"x": null, "y": null, "z": null}, "status": {"flags": 135, "velocity_variance": 0.0, "pos_horiz_variance": 0.019418423995375633, "pos_vert_variance": 0.05026935040950775}}, "errors": ["PreArm: Hardware safety switch", "PreArm: Hardware safety switch", "PreArm: Hardware safety switch"]}
{"timestamp": "2025-12-16T06:29:08.218490Z", "telemetry": {"lat": 28.7529462, "lon": 77.1178514, "satellites": 6, "altitude_gps_m": 173.55999755859375, "groundspeed_mps": 0.06752252578735352}, "flight": {"mode": "STABILIZE", "armed": false}, "ekf": {"attitude": {"roll": -0.030484039336442947, "pitch": 0.035023704171180725, "yaw": 0.8885370492935181}, "local_position": {"x": null, "y": null, "z": null}, "status": {"flags": 135, "velocity_variance": 0.0, "pos_horiz_variance": 0.019448643550276756, "pos_vert_variance": 0.031626854091882706}}, "errors": ["PreArm: Hardware safety switch", "PreArm: Hardware safety switch", "PreArm: Hardware safety switch"]}
{"timestamp": "2025-12-16T06:29:09.218247Z", "telemetry": {"lat": 28.7529524, "lon": 77.1178522, "satellites": 6, "altitude_gps_m": 175.02999877929688, "groundspeed_mps": 0.06836526095867157}, "flight": {"mode": "STABILIZE", "armed": false}, "ekf": {"attitude": {"roll": -0.030474133789539337, "pitch": 0.034973084926605225, "yaw": 0.8884177803993225}, "local_position": {"x": null, "y": null, "z": null}, "status": {"flags": 135, "velocity_variance": 0.0, "pos_horiz_variance": 0.019397495314478874, "pos_vert_variance": 0.0038374930154532194}}, "errors": ["PreArm: Hardware safety switch", "PreArm: Hardware safety switch", "PreArm: Hardware safety switch"]}
{"timestamp": "2025-12-16T06:29:10.218932Z", "telemetry": {"lat": 28.7529589, "lon": 77.117847, "satellites": 6, "altitude_gps_m": 175.63999938964844, "groundspeed_mps": 0.07009191811084747}, "flight": {"mode": "STABILIZE", "armed": false}, "ekf": {"attitude": {"roll": -0.030423514544963837, "pitch": 0.03494538366794586, "yaw": 0.8881329894065857}, "local_position": {"x": null, "y": null, "z": null}, "status": {"flags": 135, "velocity_variance": 0.0, "pos_horiz_variance": 0.019536960870027542, "pos_vert_variance": 0.038437455892562866}}, "errors": ["PreArm: Hardware safety switch", "PreArm: Hardware safety switch", "PreArm: Hardware safety switch"]}
{"timestamp": "2025-12-16T06:29:11.221991Z", "telemetry": {"lat": 28.7529641, "lon": 77.117843, "satellites": 6, "altitude_gps_m": 176.5500030517578, "groundspeed_mps": 0.06795373558998108}, "flight": {"mode": "STABILIZE", "armed": false}, "ekf": {"attitude": {"roll": -0.030325990170240402, "pitch": 0.03486239165067673, "yaw": 0.8881256580352783}, "local_position": {"x": null, "y": null, "z": null}, "status": {"flags": 135, "velocity_variance": 0.0, "pos_horiz_variance": 0.0195466298609972, "pos_vert_variance": 0.041551921516656876}}, "errors": ["PreArm: Hardware safety switch", "PreArm: Hardware safety switch", "PreArm: Hardware safety switch"]}
{"timestamp": "2025-12-16T06:29:12.218840Z", "telemetry": {"lat": 28.7529683, "lon": 77.117842, "satellites": 6, "altitude_gps_m": 176.989990234375, "groundspeed_mps": 0.06972061097621918}, "flight": {"mode": "STABILIZE", "armed": false}, "ekf": {"attitude": {"roll": -0.03023666888475418, "pitch": 0.03486233949661255, "yaw": 0.8877601623535156}, "local_position": {"x": null, "y": null, "z": null}, "status": {"flags": 135, "velocity_variance": 0.0, "pos_horiz_variance": 0.019512837752699852, "pos_vert_variance": 0.026428844779729843}}, "errors": ["PreArm: Hardware safety switch", "PreArm: Hardware safety switch", "PreArm: Hardware safety switch"]}
{"timestamp": "2025-12-16T06:29:13.221703Z", "telemetry": {"lat": 28.7529742, "lon": 77.1178406, "satellites": 6, "altitude_gps_m": 178.97999572753906, "groundspeed_mps": 0.07154837250709534}, "flight": {"mode": "STABILIZE", "armed": false}, "ekf": {"attitude": {"roll": -0.030215278267860413, "pitch": 0.03481213003396988, "yaw": 0.8876761794090271}, "local_position": {"x": null, "y": null, "z": null}, "status": {"flags": 135, "velocity_variance": 0.0, "pos_horiz_variance": 0.019771676510572433, "pos_vert_variance": 0.009866076521575451}}, "errors": ["PreArm: Hardware safety switch", "PreArm: Hardware safety switch", "PreArm: Hardware safety switch"]}
{"timestamp": "2025-12-16T06:29:14.218384Z", "telemetry": {"lat": 28.7529813, "lon": 77.1178393, "satellites": 6, "altitude_gps_m": 181.0500030517578, "groundspeed_mps": 0.07349114865064621}, "flight": {"mode": "STABILIZE", "armed": false}, "ekf": {"attitude": {"roll": -0.030120067298412323, "pitch": 0.0346965491771698, "yaw": 0.8876674175262451}, "local_position": {"x": null, "y": null, "z": null}, "status": {"flags": 135, "velocity_variance": 0.0, "pos_horiz_variance": 0.020102715119719505, "pos_vert_variance": 0.019040266051888466}}, "errors": ["PreArm: Hardware safety switch", "PreArm: Hardware safety switch", "PreArm: Hardware safety switch"]}
