{"timestamp": "2025-12-28T11:37:33.369220Z", "telemetry": {"lat": 28.7531695, "lon": 77.117716, "satellites": 8, "altitude_gps_m": 200.6699981689453, "groundspeed_mps": 0.33801740407943726}, "flight": {"mode": null, "armed": null}, "ekf": {"attitude": {"roll": -0.03362482413649559, "pitch": 0.06518997251987457, "yaw": -1.9230939149856567}, "local_position": {"x": 9.670933723449707, "y": -18.491119384765625, "z": 1.103661298751831}, "status": {"flags": 33599, "velocity_variance": 0.22139054536819458, "pos_horiz_variance": 0.021254930645227432, "pos_vert_variance": 0.06473127752542496}}, "errors": []}
{"timestamp": "2025-12-28T11:37:34.368672Z", "telemetry": {"lat": 28.753166, "lon": 77.117715, "satellites": 9, "altitude_gps_m": 200.6199951171875, "groundspeed_mps": 0.37914106249809265}, "flight": {"mode": "STABILIZE", "armed": false}, "ekf": {"attitude": {"roll": -0.03403255715966225, "pitch": 0.06501142680644989, "yaw": -1.9240466356277466}, "local_position": {"x": 9.792439460754395, "y": -18.905696868896484, "z": 1.1586202383041382}, "status": {"flags": 33599, "velocity_variance": 0.06933148950338364, "pos_horiz_variance": 0.01717844046652317, "pos_vert_variance": 0.030527940019965172}}, "errors": []}
{"timestamp": "2025-12-28T11:37:35.367913Z", "telemetry": {"lat": 28.753159, "lon": 77.1177149, "satellites": 9, "altitude_gps_m": 200.5699920654297, "groundspeed_mps": 0.4238259792327881}, "flight": {"mode": "STABILIZE", "armed": false}, "ekf": {"attitude": {"roll": -0.03617792949080467, "pitch": 0.06489823758602142, "yaw": -1.9252958297729492}, "local_position": {"x": 9.252816200256348, "y": -18.96908187866211, "z": 1.2028495073318481}, "status": {"flags": 33599, "velocity_variance": 0.12467854470014572, "pos_horiz_variance": 0.006382343824952841, "pos_vert_variance": 0.014492030255496502}}, "errors": []}
{"timestamp": "2025-12-28T11:37:36.368825Z", "telemetry": {"lat": 28.7531549, "lon": 77.1177151, "satellites": 9, "altitude_gps_m": 200.51998901367188, "groundspeed_mps": 0.4769149422645569}, "flight": {"mode": "STABILIZE", "armed": false}, "ekf": {"attitude": {"roll": -0.03657376393675804, "pitch": 0.06478520482778549, "yaw": -1.9262093305587769}, "local_position": {"x": 8.943131446838379, "y": -19.103063583374023, "z": 1.2475898265838623}, "status": {"flags": 33599, "velocity_variance": 0.1400379091501236, "pos_horiz_variance": 0.005734412930905819, "pos_vert_variance": 0.05625010281801224}}, "errors": []}
{"timestamp": "2025-12-28T11:37:37.368272Z", "telemetry": {"lat": 28.7531496, "lon": 77.117716, "satellites": 9, "altitude_gps_m": 200.489990234375, "groundspeed_mps": 0.599592924118042}, "flight": {"mode": "STABILIZE", "armed": false}, "ekf": {"attitude": {"roll": -0.038503240793943405, "pitch": 0.06475591659545898, "yaw": -1.9272457361221313}, "local_position": {"x": 8.131940841674805, "y": -19.112152099609375, "z": 1.2803370952606201}, "status": {"flags": 33599, "velocity_variance": 0.12592850625514984, "pos_horiz_variance": 0.0043490431271493435, "pos_vert_variance": 0.0018496643751859665}}, "errors": []}
{"timestamp": "2025-12-28T11:37:38.367890Z", "telemetry": {"lat": 28.753149, "lon": 77.1177163, "satellites": 9, "altitude_gps_m": 200.5699920654297, "groundspeed_mps": 0.5302568674087524}, "flight": {"mode": "STABILIZE", "armed": false}, "ekf": {"attitude": {"roll": -0.03657911345362663, "pitch": 0.06486915796995163, "yaw": -1.9280288219451904}, "local_position": {"x": 8.18317699432373, "y": -19.311187744140625, "z": 1.200276255607605}, "status": {"flags": 33599, "velocity_variance": 0.12750205397605896, "pos_horiz_variance": 0.00873495265841484, "pos_vert_variance": 0.047417547553777695}}, "errors": []}
{"timestamp": "2025-12-28T11:37:39.368727Z", "telemetry": {"lat": 28.753151, "lon": 77.1177136, "satellites": 9, "altitude_gps_m": 200.72000122070312, "groundspeed_mps": 0.47737008333206177}, "flight": {"mode": "STABILIZE", "armed": false}, "ekf": {"attitude": {"roll": -0.03513757511973381, "pitch": 0.06480391323566437, "yaw": -1.9287165403366089}, "local_position": {"x": 8.245087623596191, "y": -19.402990341186523, "z": 1.0823822021484375}, "status": {"flags": 33599, "velocity_variance": 0.09537208080291748, "pos_horiz_variance": 0.007891187444329262, "pos_vert_variance": 0.014006558805704117}}, "errors": []}
{"timestamp": "2025-12-28T11:37:40.368095Z", "telemetry": {"lat": 28.7531542, "lon": 77.1177121, "satellites": 9, "altitude_gps_m": 200.75, "groundspeed_mps": 0.4279329776763916}, "flight": {"mode": "STABILIZE", "armed": false}, "ekf": {"attitude": {"roll": -0.032676342874765396, "pitch": 0.06496847420930862, "yaw": -1.929526925086975}, "local_position": {"x": 8.319510459899902, "y": -19.680574417114258, "z": 1.0248079299926758}, "status": {"flags": 33599, "velocity_variance": 0.4684102237224579, "pos_horiz_variance": 0.01546473242342472, "pos_vert_variance": 0.0402546301484108}}, "errors": []}
{"timestamp": "2025-12-28T11:37:41.368181Z", "telemetry": {"lat": 28.7531592, "lon": 77.1177141, "satellites": 9, "altitude_gps_m": 200.8199920654297, "groundspeed_mps": 0.3170831501483917}, "flight": {"mode": "STABILIZE", "armed": false}, "ekf": {"attitude": {"roll": -0.030759166926145554, "pitch": 0.06607431918382645, "yaw": -1.9300416707992554}, "local_position": {"x": 8.922861099243164, "y": -19.851713180541992, "z": 0.9519892930984497}, "status": {"flags": 33599, "velocity_variance": 0.3337182104587555, "pos_horiz_variance": 0.01851896569132805, "pos_vert_variance": 0.037140391767024994}}, "errors": []}
{"timestamp": "2025-12-28T11:37:42.368597Z", "telemetry": {"lat": 28.7531586, "lon": 77.117716, "satellites": 9, "altitude_gps_m": 200.70999145507812, "groundspeed_mps": 0.21922695636749268}, "flight": {"mode": "STABILIZE", "armed": false}, "ekf": {"attitude": {"roll": -0.03186732158064842, "pitch": 0.0668422132730484, "yaw": -1.9307348728179932}, "local_position": {"x": 8.87615966796875, "y": -19.53422737121582, "z": 1.0615988969802856}, "status": {"flags": 33599, "velocity_variance": 0.20344802737236023, "pos_horiz_variance": 0.019147979095578194, "pos_vert_variance": 0.01695878989994526}}, "errors": []}
{"timestamp": "2025-12-28T11:37:43.368018Z", "telemetry": {"lat": 28.7531631, "lon": 77.117718, "satellites": 9, "altitude_gps_m": 200.75, "groundspeed_mps": 0.1345403492450714}, "flight": {"mode": "STABILIZE", "armed": false}, "ekf": {"attitude": {"roll": -0.030231092125177383, "pitch": 0.06776078790426254, "yaw": -1.9313796758651733}, "local_position": {"x": 9.267247200012207, "y": -19.406597137451172, "z": 1.0276187658309937}, "status": {"flags": 33599, "velocity_variance": 0.1772124022245407, "pos_horiz_variance": 0.021099619567394257, "pos_vert_variance": 0.03403964638710022}}, "errors": []}
{"timestamp": "2025-12-28T11:37:44.368321Z", "telemetry": {"lat": 28.7531617, "lon": 77.1177185, "satellites": 9, "altitude_gps_m": 200.8000030517578, "groundspeed_mps": 0.09613775461912155}, "flight": {"mode": "STABILIZE", "armed": false}, "ekf": {"attitude": {"roll": -0.030780579894781113, "pitch": 0.06774523109197617, "yaw": -1.931831955909729}, "local_position": {"x": 9.4339017868042, "y": -19.24568748474121, "z": 0.9975078105926514}, "status": {"flags": 33599, "velocity_variance": 0.11595305055379868, "pos_horiz_variance": 0.01898098550736904, "pos_vert_variance": 0.015962500125169754}}, "errors": []}
{"timestamp": "2025-12-28T11:37:45.368866Z", "telemetry": {"lat": 28.7531605, "lon": 77.1177208, "satellites": 9, "altitude_gps_m": 200.76998901367188, "groundspeed_mps": 0.06542733311653137}, "flight": {"mode": "STABILIZE", "armed": false}, "ekf": {"attitude": {"roll": -0.030963648110628128, "pitch": 0.06782915443181992, "yaw": -1.9325766563415527}, "local_position": {"x": 9.369518280029297, "y": -19.100126266479492, "z": 0.9935869574546814}, "status": {"flags": 33599, "velocity_variance": 0.11834707111120224, "pos_horiz_variance": 0.015525627881288528, "pos_vert_variance": 0.012717449106276035}}, "errors": []}
{"timestamp": "2025-12-28T11:37:46.368324Z", "telemetry": {"lat": 28.7531604, "lon": 77.117716, "satellites": 8, "altitude_gps_m": 200.77999877929688, "groundspeed_mps": 0.1535089910030365}, "flight": {"mode": "STABILIZE", "armed": false}, "ekf": {"attitude": {"roll": -0.030464228242635727, "pitch": 0.06641295552253723, "yaw": -1.9331178665161133}, "local_position": {"x": 9.560843467712402, "y": -19.361133575439453, "z": 0.9903677105903625}, "status": {"flags": 33599, "velocity_variance": 0.20965825021266937, "pos_horiz_variance": 0.010346682742238045, "pos_vert_variance": 0.013021434657275677}}, "errors": []}
{"timestamp": "2025-12-28T11:37:47.368236Z", "telemetry": {"lat": 28.7531583, "lon": 77.1177155, "satellites": 8, "altitude_gps_m": 200.8000030517578, "groundspeed_mps": 0.1761760264635086}, "flight": {"mode": "STABILIZE", "armed": false}, "ekf": {"attitude": {"roll": -0.03074287250638008, "pitch": 0.0662725567817688, "yaw": -1.9335639476776123}, "local_position": {"x": 9.463225364685059, "y": -19.453954696655273, "z": 0.9793010354042053}, "status": {"flags": 33599, "velocity_variance": 0.08787880837917328, "pos_horiz_variance": 0.009699524380266666, "pos_vert_variance": 0.017970895394682884}}, "errors": []}
{"timestamp": "2025-12-28T11:37:48.367984Z", "telemetry": {"lat": 28.7531559, "lon": 77.117718, "satellites": 8, "altitude_gps_m": 200.739990234375, "groundspeed_mps": 0.13565750420093536}, "flight": {"mode": "STABILIZE", "armed": false}, "ekf": {"attitude": {"roll": -0.031425680965185165, "pitch": 0.06675847619771957, "yaw": -1.934224009513855}, "local_position": {"x": 9.342663764953613, "y": -19.324661254882812, "z": 1.0512173175811768}, "status": {"flags": 33599, "velocity_variance": 0.12304063886404037, "pos_horiz_variance": 0.012664412148296833, "pos_vert_variance": 0.03218032047152519}}, "errors": []}
{"timestamp": "2025-12-28T11:37:49.368615Z", "telemetry": {"lat": 28.753157, "lon": 77.1177204, "satellites": 8, "altitude_gps_m": 200.75, "groundspeed_mps": 0.08599521964788437}, "flight": {"mode": "STABILIZE", "armed": false}, "ekf": {"attitude": {"roll": -0.031105708330869675, "pitch": 0.0675705224275589, "yaw": -1.9345957040786743}, "local_position": {"x": 9.37454605102539, "y": -19.112178802490234, "z": 1.0210011005401611}, "status": {"flags": 33599, "velocity_variance": 0.2490876466035843, "pos_horiz_variance": 0.013006957247853279, "pos_vert_variance": 0.02595723234117031}}, "errors": []}
{"timestamp": "2025-12-28T11:37:50.368325Z", "telemetry": {"lat": 28.7531558, "lon": 77.1177177, "satellites": 8, "altitude_gps_m": 200.77999877929688, "groundspeed_mps": 0.07889554649591446}, "flight": {"mode": "STABILIZE", "armed": false}, "ekf": {"attitude": {"roll": -0.03124149516224861, "pitch": 0.06699278205633163, "yaw": -1.9349615573883057}, "local_position": {"x": 9.353461265563965, "y": -19.0294189453125, "z": 0.9959994554519653}, "status": {"flags": 33599, "velocity_variance": 0.2146599143743515, "pos_horiz_variance": 0.006378598976880312, "pos_vert_variance": 0.05305812507867813}}, "errors": []}
{"timestamp": "2025-12-28T11:37:51.368100Z", "telemetry": {"lat": 28.7531581, "lon": 77.1177137, "satellites": 8, "altitude_gps_m": 200.8000030517578, "groundspeed_mps": 0.1364414393901825}, "flight": {"mode": "STABILIZE", "armed": false}, "ekf": {"attitude": {"roll": -0.03003573790192604, "pitch": 0.06621091067790985, "yaw": -1.935254454612732}, "local_position": {"x": 9.428956985473633, "y": -19.215045928955078, "z": 0.977664053440094}, "status": {"flags": 33599, "velocity_variance": 0.29815515875816345, "pos_horiz_variance": 0.0012082799803465605, "pos_vert_variance": 0.019385654479265213}}, "errors": []}
{"timestamp": "2025-12-28T11:37:52.367879Z", "telemetry": {"lat": 28.753162, "lon": 77.1177142, "satellites": 8, "altitude_gps_m": 200.739990234375, "groundspeed_mps": 0.15345607697963715}, "flight": {"mode": "STABILIZE", "armed": false}, "ekf": {"attitude": {"roll": -0.02917526289820671, "pitch": 0.06677316874265671, "yaw": -1.9357397556304932}, "local_position": {"x": 9.74939250946045, "y": -19.275161743164062, "z": 1.0416849851608276}, "status": {"flags": 33599, "velocity_variance": 0.2611469030380249, "pos_horiz_variance": 0.0047121490351855755, "pos_vert_variance": 0.03184455260634422}}, "errors": []}
{"timestamp": "2025-12-28T11:37:53.368263Z", "telemetry": {"lat": 28.7531606, "lon": 77.117722, "satellites": 9, "altitude_gps_m": 200.739990234375, "groundspeed_mps": 0.08349025249481201}, "flight": {"mode": "STABILIZE", "armed": false}, "ekf": {"attitude": {"roll": -0.029964875429868698, "pitch": 0.06822589039802551, "yaw": -1.9360066652297974}, "local_position": {"x": 9.82790756225586, "y": -18.912334442138672, "z": 1.0451209545135498}, "status": {"flags": 33599, "velocity_variance": 0.07973102480173111, "pos_horiz_variance": 0.010107613168656826, "pos_vert_variance": 0.007154341787099838}}, "errors": []}
{"timestamp": "2025-12-28T11:37:54.368422Z", "telemetry": {"lat": 28.7531606, "lon": 77.117722, "satellites": 9, "altitude_gps_m": 200.739990234375, "groundspeed_mps": 0.08349025249481201}, "flight": {"mode": "STABILIZE", "armed": false}, "ekf": {"attitude": {"roll": -0.029964875429868698, "pitch": 0.06822589039802551, "yaw": -1.9360066652297974}, "local_position": {"x": 9.82790756225586, "y": -18.912334442138672, "z": 1.0451209545135498}, "status": {"flags": 33599, "velocity_variance": 0.07973102480173111, "pos_horiz_variance": 0.010107613168656826, "pos_vert_variance": 0.007154341787099838}}, "errors": []}
