{"timestamp": "2026-01-15T12:38:48.971676Z", "telemetry": {"lat": 28.7530967, "lon": 77.1179043, "satellites": 10, "altitude_gps_m": 210.0800018310547, "groundspeed_mps": 0.24089355766773224}, "flight": {"mode": "STABILIZE", "armed": false}, "ekf": {"attitude": {"roll": 0.051988519728183746, "pitch": -0.006487383972853422, "yaw": -2.01694917678833}, "local_position": {"x": 0.5373621582984924, "y": 2.1602015495300293, "z": 2.252091884613037}, "status": {"flags": 33599, "velocity_variance": 0.0570903941988945, "pos_horiz_variance": 0.010164685547351837, "pos_vert_variance": 0.03248612582683563}}, "errors": ["PreArm: Hardware safety switch", "PreArm: Compasses inconsistent"]}
{"timestamp": "2026-01-15T12:38:49.991697Z", "telemetry": {"lat": 28.7530972, "lon": 77.1179039, "satellites": 10, "altitude_gps_m": 210.08999633789062, "groundspeed_mps": 0.22577254474163055}, "flight": {"mode": "STABILIZE", "armed": false}, "ekf": {"attitude": {"roll": 0.051469214260578156, "pitch": -0.0064252871088683605, "yaw": -2.0168752670288086}, "local_position": {"x": 0.6859404444694519, "y": 1.9493544101715088, "z": 2.236450433731079}, "status": {"flags": 33599, "velocity_variance": 0.04256017506122589, "pos_horiz_variance": 0.008052566088736057, "pos_vert_variance": 0.01835942640900612}}, "errors": ["PreArm: Hardware safety switch", "PreArm: Compasses inconsistent"]}
{"timestamp": "2026-01-15T12:38:50.996678Z", "telemetry": {"lat": 28.7530957, "lon": 77.1179026, "satellites": 10, "altitude_gps_m": 210.05999755859375, "groundspeed_mps": 0.17551924288272858}, "flight": {"mode": "STABILIZE", "armed": false}, "ekf": {"attitude": {"roll": 0.050376325845718384, "pitch": -0.006671491544693708, "yaw": -2.016754627227783}, "local_position": {"x": 0.5937079787254333, "y": 1.803336262702942, "z": 2.2663586139678955}, "status": {"flags": 33599, "velocity_variance": 0.10653054714202881, "pos_horiz_variance": 0.0055448212660849094, "pos_vert_variance": 0.01617981120944023}}, "errors": ["PreArm: Hardware safety switch", "PreArm: Compasses inconsistent"]}
{"timestamp": "2026-01-15T12:38:51.997619Z", "telemetry": {"lat": 28.7530949, "lon": 77.1178981, "satellites": 10, "altitude_gps_m": 210.00999450683594, "groundspeed_mps": 0.18775834143161774}, "flight": {"mode": "STABILIZE", "armed": false}, "ekf": {"attitude": {"roll": 0.04976041242480278, "pitch": -0.007207400631159544, "yaw": -2.016653537750244}, "local_position": {"x": 0.46325042843818665, "y": 1.5477129220962524, "z": 2.316831111907959}, "status": {"flags": 33599, "velocity_variance": 0.1777239292860031, "pos_horiz_variance": 0.009934169240295887, "pos_vert_variance": 0.02540990710258484}}, "errors": ["PreArm: Hardware safety switch", "PreArm: Compasses inconsistent"]}
{"timestamp": "2026-01-15T12:38:52.970773Z", "telemetry": {"lat": 28.7530923, "lon": 77.1178989, "satellites": 10, "altitude_gps_m": 209.97999572753906, "groundspeed_mps": 0.17732776701450348}, "flight": {"mode": "STABILIZE", "armed": false}, "ekf": {"attitude": {"roll": 0.048409685492515564, "pitch": -0.006813992280513048, "yaw": -2.0167315006256104}, "local_position": {"x": 0.2505948543548584, "y": 1.4834800958633423, "z": 2.348104953765869}, "status": {"flags": 33599, "velocity_variance": 0.13845954835414886, "pos_horiz_variance": 0.005435138940811157, "pos_vert_variance": 0.06608938425779343}}, "errors": ["PreArm: Hardware safety switch", "PreArm: Compasses inconsistent"]}
{"timestamp": "2026-01-15T12:38:53.979257Z", "telemetry": {"lat": 28.7530918, "lon": 77.1178987, "satellites": 10, "altitude_gps_m": 209.97999572753906, "groundspeed_mps": 0.18537908792495728}, "flight": {"mode": "STABILIZE", "armed": false}, "ekf": {"attitude": {"roll": 0.04822994023561478, "pitch": -0.006607906427234411, "yaw": -2.01672101020813}, "local_position": {"x": 0.13457918167114258, "y": 1.3996528387069702, "z": 2.3479115962982178}, "status": {"flags": 33599, "velocity_variance": 0.16516327857971191, "pos_horiz_variance": 0.003368183970451355, "pos_vert_variance": 0.02163267508149147}}, "errors": ["PreArm: Hardware safety switch", "PreArm: Compasses inconsistent"]}
{"timestamp": "2026-01-15T12:38:55.008736Z", "telemetry": {"lat": 28.7530892, "lon": 77.1178993, "satellites": 10, "altitude_gps_m": 209.989990234375, "groundspeed_mps": 0.21810199320316315}, "flight": {"mode": "STABILIZE", "armed": false}, "ekf": {"attitude": {"roll": 0.04746461659669876, "pitch": -0.006195939611643553, "yaw": -2.016847610473633}, "local_position": {"x": -0.10337676107883453, "y": 1.4423784017562866, "z": 2.3330888748168945}, "status": {"flags": 33599, "velocity_variance": 0.11708929389715195, "pos_horiz_variance": 0.002476467052474618, "pos_vert_variance": 0.08178938925266266}}, "errors": ["PreArm: Hardware safety switch", "PreArm: Compasses inconsistent"]}
{"timestamp": "2026-01-15T12:38:55.992699Z", "telemetry": {"lat": 28.7530878, "lon": 77.1178995, "satellites": 10, "altitude_gps_m": 210.01998901367188, "groundspeed_mps": 0.2410469949245453}, "flight": {"mode": "STABILIZE", "armed": false}, "ekf": {"attitude": {"roll": 0.0475163534283638, "pitch": -0.005766941700130701, "yaw": -2.0168042182922363}, "local_position": {"x": -0.2952820360660553, "y": 1.484440565109253, "z": 2.302670955657959}, "status": {"flags": 33599, "velocity_variance": 0.1237206906080246, "pos_horiz_variance": 0.0029508620500564575, "pos_vert_variance": 0.00795403029769659}}, "errors": ["PreArm: Hardware safety switch", "PreArm: Compasses inconsistent"]}
{"timestamp": "2026-01-15T12:38:56.979745Z", "telemetry": {"lat": 28.7530868, "lon": 77.1178993, "satellites": 10, "altitude_gps_m": 210.04998779296875, "groundspeed_mps": 0.24999454617500305}, "flight": {"mode": "STABILIZE", "armed": false}, "ekf": {"attitude": {"roll": 0.047527242451906204, "pitch": -0.005481461528688669, "yaw": -2.016782522201538}, "local_position": {"x": -0.4445599913597107, "y": 1.5296409130096436, "z": 2.2735486030578613}, "status": {"flags": 33599, "velocity_variance": 0.08020243793725967, "pos_horiz_variance": 0.004620779305696487, "pos_vert_variance": 0.014867430552840233}}, "errors": ["PreArm: Hardware safety switch", "PreArm: Compasses inconsistent"]}
{"timestamp": "2026-01-15T12:38:57.984096Z", "telemetry": {"lat": 28.7530863, "lon": 77.1178991, "satellites": 10, "altitude_gps_m": 210.08999633789062, "groundspeed_mps": 0.24005797505378723}, "flight": {"mode": "STABILIZE", "armed": false}, "ekf": {"attitude": {"roll": 0.04825218394398689, "pitch": -0.005325688514858484, "yaw": -2.0167760848999023}, "local_position": {"x": -0.5404176115989685, "y": 1.5430647134780884, "z": 2.230668783187866}, "status": {"flags": 33599, "velocity_variance": 0.17377223074436188, "pos_horiz_variance": 0.0066207521595060825, "pos_vert_variance": 0.0021653431467711926}}, "errors": ["PreArm: Hardware safety switch", "PreArm: Compasses inconsistent"]}
{"timestamp": "2026-01-15T12:38:58.982534Z", "telemetry": {"lat": 28.7530893, "lon": 77.1178935, "satellites": 10, "altitude_gps_m": 210.0399932861328, "groundspeed_mps": 0.16097088158130646}, "flight": {"mode": "STABILIZE", "armed": false}, "ekf": {"attitude": {"roll": 0.05036480724811554, "pitch": -0.005859517026692629, "yaw": -2.016763687133789}, "local_position": {"x": -0.41529586911201477, "y": 1.2673993110656738, "z": 2.282017946243286}, "status": {"flags": 33599, "velocity_variance": 0.3480859100818634, "pos_horiz_variance": 0.017413578927516937, "pos_vert_variance": 0.009150664322078228}}, "errors": ["PreArm: Hardware safety switch", "PreArm: Compasses inconsistent"]}
{"timestamp": "2026-01-15T12:38:59.989620Z", "telemetry": {"lat": 28.7530896, "lon": 77.1178928, "satellites": 10, "altitude_gps_m": 210.04998779296875, "groundspeed_mps": 0.11608992516994476}, "flight": {"mode": "STABILIZE", "armed": false}, "ekf": {"attitude": {"roll": 0.051037080585956573, "pitch": -0.005956473294645548, "yaw": -2.016735076904297}, "local_position": {"x": -0.27947571873664856, "y": 1.0515600442886353, "z": 2.272717237472534}, "status": {"flags": 33599, "velocity_variance": 0.05542082339525223, "pos_horiz_variance": 0.013291877694427967, "pos_vert_variance": 0.0024998756125569344}}, "errors": ["PreArm: Hardware safety switch", "PreArm: Compasses inconsistent"]}
{"timestamp": "2026-01-15T12:39:00.990035Z", "telemetry": {"lat": 28.7530892, "lon": 77.1178917, "satellites": 10, "altitude_gps_m": 210.1599884033203, "groundspeed_mps": 0.11073606461286545}, "flight": {"mode": "STABILIZE", "armed": false}, "ekf": {"attitude": {"roll": 0.0516018345952034, "pitch": -0.006079884711652994, "yaw": -2.016650676727295}, "local_position": {"x": -0.24354031682014465, "y": 0.8709944486618042, "z": 2.1672110557556152}, "status": {"flags": 33599, "velocity_variance": 0.17289187014102936, "pos_horiz_variance": 0.009864927269518375, "pos_vert_variance": 0.028760850429534912}}, "errors": ["PreArm: Hardware safety switch", "PreArm: Compasses inconsistent"]}
{"timestamp": "2026-01-15T12:39:01.990981Z", "telemetry": {"lat": 28.7530888, "lon": 77.1178916, "satellites": 10, "altitude_gps_m": 210.1699981689453, "groundspeed_mps": 0.1096312627196312}, "flight": {"mode": "STABILIZE", "armed": false}, "ekf": {"attitude": {"roll": 0.05169935151934624, "pitch": -0.006064522545784712, "yaw": -2.0164265632629395}, "local_position": {"x": -0.2981225848197937, "y": 0.7824819087982178, "z": 2.1561925411224365}, "status": {"flags": 33599, "velocity_variance": 0.08487351983785629, "pos_horiz_variance": 0.009003189392387867, "pos_vert_variance": 0.07789350301027298}}, "errors": ["PreArm: Hardware safety switch", "PreArm: Compasses inconsistent"]}
{"timestamp": "2026-01-15T12:39:03.016926Z", "telemetry": {"lat": 28.7530891, "lon": 77.1178896, "satellites": 10, "altitude_gps_m": 210.29998779296875, "groundspeed_mps": 0.09632369875907898}, "flight": {"mode": "STABILIZE", "armed": false}, "ekf": {"attitude": {"roll": 0.0521051287651062, "pitch": -0.005856938194483519, "yaw": -2.0162296295166016}, "local_position": {"x": -0.20458438992500305, "y": 0.6123663783073425, "z": 2.0271530151367188}, "status": {"flags": 33599, "velocity_variance": 0.19992762804031372, "pos_horiz_variance": 0.007542038336396217, "pos_vert_variance": 0.06822862476110458}}, "errors": ["PreArm: Hardware safety switch", "PreArm: Compasses inconsistent"]}
{"timestamp": "2026-01-15T12:39:04.016508Z", "telemetry": {"lat": 28.7530889, "lon": 77.1178898, "satellites": 10, "altitude_gps_m": 210.2899932861328, "groundspeed_mps": 0.08983252942562103}, "flight": {"mode": "STABILIZE", "armed": false}, "ekf": {"attitude": {"roll": 0.05223163962364197, "pitch": -0.006056389305740595, "yaw": -2.0163097381591797}, "local_position": {"x": -0.2517513036727905, "y": 0.5664983987808228, "z": 2.0361342430114746}, "status": {"flags": 33599, "velocity_variance": 0.04432446137070656, "pos_horiz_variance": 0.0073070223443210125, "pos_vert_variance": 0.02871493622660637}}, "errors": ["PreArm: Hardware safety switch", "PreArm: Compasses inconsistent"]}
{"timestamp": "2026-01-15T12:39:05.016897Z", "telemetry": {"lat": 28.7530909, "lon": 77.1178892, "satellites": 9, "altitude_gps_m": 210.29998779296875, "groundspeed_mps": 0.11269401758909225}, "flight": {"mode": "STABILIZE", "armed": false}, "ekf": {"attitude": {"roll": 0.05361064523458481, "pitch": -0.005707432981580496, "yaw": -2.0162391662597656}, "local_position": {"x": -0.08024534583091736, "y": 0.4182213544845581, "z": 2.068632125854492}, "status": {"flags": 33599, "velocity_variance": 0.1627110093832016, "pos_horiz_variance": 0.007926000282168388, "pos_vert_variance": 0.07996927201747894}}, "errors": ["PreArm: Hardware safety switch", "PreArm: Compasses inconsistent"]}
{"timestamp": "2026-01-15T12:39:06.017184Z", "telemetry": {"lat": 28.7530913, "lon": 77.1178907, "satellites": 10, "altitude_gps_m": 210.36000061035156, "groundspeed_mps": 0.0950799435377121}, "flight": {"mode": "STABILIZE", "armed": false}, "ekf": {"attitude": {"roll": 0.05312503129243851, "pitch": -0.005069816950708628, "yaw": -2.0160555839538574}, "local_position": {"x": 0.10359793156385422, "y": 0.3810848295688629, "z": 1.957889437675476}, "status": {"flags": 33599, "velocity_variance": 0.1897321492433548, "pos_horiz_variance": 0.00514511251822114, "pos_vert_variance": 0.023874303326010704}}, "errors": ["PreArm: Hardware safety switch", "PreArm: Compasses inconsistent"]}
{"timestamp": "2026-01-15T12:39:06.990090Z", "telemetry": {"lat": 28.7530902, "lon": 77.1178915, "satellites": 10, "altitude_gps_m": 210.3699951171875, "groundspeed_mps": 0.05448919162154198}, "flight": {"mode": "STABILIZE", "armed": false}, "ekf": {"attitude": {"roll": 0.05261003226041794, "pitch": -0.00469752075150609, "yaw": -2.0160255432128906}, "local_position": {"x": 0.0788198783993721, "y": 0.4923500418663025, "z": 1.9528803825378418}, "status": {"flags": 33599, "velocity_variance": 0.1528240293264389, "pos_horiz_variance": 0.0036367892753332853, "pos_vert_variance": 0.05034267529845238}}, "errors": ["PreArm: Hardware safety switch", "PreArm: Compasses inconsistent"]}
{"timestamp": "2026-01-15T12:39:08.001004Z", "telemetry": {"lat": 28.7530892, "lon": 77.117891, "satellites": 10, "altitude_gps_m": 210.3199920654297, "groundspeed_mps": 0.02748394012451172}, "flight": {"mode": "STABILIZE", "armed": false}, "ekf": {"attitude": {"roll": 0.052108123898506165, "pitch": -0.004674915689975023, "yaw": -2.015911817550659}, "local_position": {"x": 0.00019007176160812378, "y": 0.5947750806808472, "z": 2.0065882205963135}, "status": {"flags": 33599, "velocity_variance": 0.014352905564010143, "pos_horiz_variance": 0.0007490551215596497, "pos_vert_variance": 0.009651108644902706}}, "errors": ["PreArm: Hardware safety switch", "PreArm: Compasses inconsistent"]}
{"timestamp": "2026-01-15T12:39:08.998117Z", "telemetry": {"lat": 28.7530893, "lon": 77.1178924, "satellites": 10, "altitude_gps_m": 210.25999450683594, "groundspeed_mps": 0.05065282806754112}, "flight": {"mode": "STABILIZE", "armed": false}, "ekf": {"attitude": {"roll": 0.05207010358572006, "pitch": -0.004464154597371817, "yaw": -2.0158309936523438}, "local_position": {"x": 0.056059807538986206, "y": 0.6367023587226868, "z": 2.0602164268493652}, "status": {"flags": 33599, "velocity_variance": 0.15280821919441223, "pos_horiz_variance": 0.003205889603123069, "pos_vert_variance": 0.040635526180267334}}, "errors": ["PreArm: Hardware safety switch", "PreArm: Compasses inconsistent"]}
{"timestamp": "2026-01-15T12:39:09.994963Z", "telemetry": {"lat": 28.753087, "lon": 77.1178922, "satellites": 10, "altitude_gps_m": 210.20999145507812, "groundspeed_mps": 0.07727186381816864}, "flight": {"mode": "STABILIZE", "armed": false}, "ekf": {"attitude": {"roll": 0.051242779940366745, "pitch": -0.004704997409135103, "yaw": -2.0156712532043457}, "local_position": {"x": -0.12935836613178253, "y": 0.7760108709335327, "z": 2.1195549964904785}, "status": {"flags": 33599, "velocity_variance": 0.20051588118076324, "pos_horiz_variance": 0.004768654238432646, "pos_vert_variance": 0.012953571043908596}}, "errors": ["PreArm: Hardware safety switch", "PreArm: Compasses inconsistent"]}
{"timestamp": "2026-01-15T12:39:10.993203Z", "telemetry": {"lat": 28.7530884, "lon": 77.1178915, "satellites": 10, "altitude_gps_m": 210.239990234375, "groundspeed_mps": 0.02469300851225853}, "flight": {"mode": "STABILIZE", "armed": false}, "ekf": {"attitude": {"roll": 0.05181200057268143, "pitch": -0.0053499299101531506, "yaw": -2.0154669284820557}, "local_position": {"x": -0.054292891174554825, "y": 0.6443994045257568, "z": 2.083111047744751}, "status": {"flags": 33599, "velocity_variance": 0.04651157930493355, "pos_horiz_variance": 0.0022487195674329996, "pos_vert_variance": 0.04831303656101227}}, "errors": ["PreArm: Hardware safety switch", "PreArm: Compasses inconsistent"]}
{"timestamp": "2026-01-15T12:39:12.004022Z", "telemetry": {"lat": 28.7530875, "lon": 77.1178932, "satellites": 10, "altitude_gps_m": 210.27999877929688, "groundspeed_mps": 0.01722285896539688}, "flight": {"mode": "STABILIZE", "armed": false}, "ekf": {"attitude": {"roll": 0.05176625773310661, "pitch": -0.005519694183021784, "yaw": -2.01546311378479}, "local_position": {"x": -0.06214066594839096, "y": 0.636691153049469, "z": 2.0479183197021484}, "status": {"flags": 33599, "velocity_variance": 0.06769604980945587, "pos_horiz_variance": 0.006420629099011421, "pos_vert_variance": 0.005144438706338406}}, "errors": ["PreArm: Hardware safety switch", "PreArm: Compasses inconsistent"]}
{"timestamp": "2026-01-15T12:39:13.002567Z", "telemetry": {"lat": 28.7530863, "lon": 77.1178924, "satellites": 9, "altitude_gps_m": 210.25999450683594, "groundspeed_mps": 0.01197135541588068}, "flight": {"mode": "STABILIZE", "armed": false}, "ekf": {"attitude": {"roll": 0.051886484026908875, "pitch": -0.006124431733042002, "yaw": -2.015456199645996}, "local_position": {"x": -0.10192123055458069, "y": 0.576869010925293, "z": 2.0625059604644775}, "status": {"flags": 33599, "velocity_variance": 0.04667168855667114, "pos_horiz_variance": 0.008217999711632729, "pos_vert_variance": 0.10375851392745972}}, "errors": ["PreArm: Hardware safety switch", "PreArm: Compasses inconsistent"]}
{"timestamp": "2026-01-15T12:39:13.995535Z", "telemetry": {"lat": 28.7530836, "lon": 77.117895, "satellites": 9, "altitude_gps_m": 210.239990234375, "groundspeed_mps": 0.03447320684790611}, "flight": {"mode": "STABILIZE", "armed": false}, "ekf": {"attitude": {"roll": 0.05148163437843323, "pitch": -0.006370025221258402, "yaw": -2.0154247283935547}, "local_position": {"x": -0.2491721361875534, "y": 0.6268602013587952, "z": 2.0836660861968994}, "status": {"flags": 33599, "velocity_variance": 0.05357637256383896, "pos_horiz_variance": 0.01502696331590414, "pos_vert_variance": 0.054460667073726654}}, "errors": ["PreArm: Hardware safety switch", "PreArm: Compasses inconsistent"]}
{"timestamp": "2026-01-15T12:39:14.993284Z", "telemetry": {"lat": 28.7530826, "lon": 77.1178956, "satellites": 9, "altitude_gps_m": 210.2899932861328, "groundspeed_mps": 0.06372513622045517}, "flight": {"mode": "STABILIZE", "armed": false}, "ekf": {"attitude": {"roll": 0.051423605531454086, "pitch": -0.0063375742174685, "yaw": -2.015561580657959}, "local_position": {"x": -0.4206617474555969, "y": 0.7030026316642761, "z": 2.0448622703552246}, "status": {"flags": 33599, "velocity_variance": 0.04717635363340378, "pos_horiz_variance": 0.014119889587163925, "pos_vert_variance": 0.024419579654932022}}, "errors": ["PreArm: Hardware safety switch", "PreArm: Compasses inconsistent"]}
{"timestamp": "2026-01-15T12:39:15.998156Z", "telemetry": {"lat": 28.753083, "lon": 77.1178978, "satellites": 9, "altitude_gps_m": 210.27999877929688, "groundspeed_mps": 0.0718005821108818}, "flight": {"mode": "STABILIZE", "armed": false}, "ekf": {"attitude": {"roll": 0.05144762247800827, "pitch": -0.0060369339771568775, "yaw": -2.0155067443847656}, "local_position": {"x": -0.5143747925758362, "y": 0.8290184736251831, "z": 2.0427727699279785}, "status": {"flags": 33599, "velocity_variance": 0.15681204199790955, "pos_horiz_variance": 0.014276240020990372, "pos_vert_variance": 0.008564336225390434}}, "errors": ["PreArm: Hardware safety switch", "PreArm: Compasses inconsistent"]}
{"timestamp": "2026-01-15T12:39:16.997174Z", "telemetry": {"lat": 28.753083, "lon": 77.1178993, "satellites": 9, "altitude_gps_m": 210.25999450683594, "groundspeed_mps": 0.10027685016393661}, "flight": {"mode": "STABILIZE", "armed": false}, "ekf": {"attitude": {"roll": 0.0513540618121624, "pitch": -0.005565844010561705, "yaw": -2.0153627395629883}, "local_position": {"x": -0.5703608393669128, "y": 1.0785667896270752, "z": 2.067903757095337}, "status": {"flags": 33599, "velocity_variance": 0.07335497438907623, "pos_horiz_variance": 0.010036048479378223, "pos_vert_variance": 0.03714897856116295}}, "errors": ["PreArm: Hardware safety switch", "PreArm: Compasses inconsistent"]}
{"timestamp": "2026-01-15T12:39:17.971016Z", "telemetry": {"lat": 28.7530822, "lon": 77.1179009, "satellites": 9, "altitude_gps_m": 210.22000122070312, "groundspeed_mps": 0.1132567748427391}, "flight": {"mode": "STABILIZE", "armed": false}, "ekf": {"attitude": {"roll": 0.05142133682966232, "pitch": -0.00569927180185914, "yaw": -2.015404224395752}, "local_position": {"x": -0.6525704860687256, "y": 1.225327730178833, "z": 2.1073970794677734}, "status": {"flags": 33599, "velocity_variance": 0.024885129183530807, "pos_horiz_variance": 0.011251632124185562, "pos_vert_variance": 0.056503117084503174}}, "errors": ["PreArm: Hardware safety switch", "PreArm: Compasses inconsistent", "PreArm: Hardware safety switch", "PreArm: Compasses inconsistent"]}
{"timestamp": "2026-01-15T12:39:18.972875Z", "telemetry": {"lat": 28.7530823, "lon": 77.1179011, "satellites": 9, "altitude_gps_m": 210.22000122070312, "groundspeed_mps": 0.10990511626005173}, "flight": {"mode": "STABILIZE", "armed": false}, "ekf": {"attitude": {"roll": 0.051632463932037354, "pitch": -0.005931423511356115, "yaw": -2.0154619216918945}, "local_position": {"x": -0.7254513502120972, "y": 1.3381041288375854, "z": 2.108448028564453}, "status": {"flags": 33599, "velocity_variance": 0.20499034225940704, "pos_horiz_variance": 0.007104375399649143, "pos_vert_variance": 0.019733596593141556}}, "errors": ["PreArm: Hardware safety switch", "PreArm: Compasses inconsistent", "PreArm: Hardware safety switch", "PreArm: Compasses inconsistent"]}
{"timestamp": "2026-01-15T12:39:20.001480Z", "telemetry": {"lat": 28.7530823, "lon": 77.1179046, "satellites": 9, "altitude_gps_m": 210.22999572753906, "groundspeed_mps": 0.09732437878847122}, "flight": {"mode": "STABILIZE", "armed": false}, "ekf": {"attitude": {"roll": 0.05179841071367264, "pitch": -0.005946983117610216, "yaw": -2.0155038833618164}, "local_position": {"x": -0.7234896421432495, "y": 1.4414000511169434, "z": 2.092564582824707}, "status": {"flags": 33599, "velocity_variance": 0.06059136241674423, "pos_horiz_variance": 0.013517049141228199, "pos_vert_variance": 0.00030562299070879817}}, "errors": ["PreArm: Hardware safety switch", "PreArm: Compasses inconsistent", "PreArm: Hardware safety switch", "PreArm: Compasses inconsistent"]}
{"timestamp": "2026-01-15T12:39:21.001432Z", "telemetry": {"lat": 28.7530815, "lon": 77.1179061, "satellites": 9, "altitude_gps_m": 210.22999572753906, "groundspeed_mps": 0.10208365321159363}, "flight": {"mode": "STABILIZE", "armed": false}, "ekf": {"attitude": {"roll": 0.05221441760659218, "pitch": -0.00618128152564168, "yaw": -2.015434741973877}, "local_position": {"x": -0.7811057567596436, "y": 1.6585613489151, "z": 2.07928466796875}, "status": {"flags": 33599, "velocity_variance": 0.09263943880796432, "pos_horiz_variance": 0.011946450918912888, "pos_vert_variance": 0.034145958721637726}}, "errors": ["PreArm: Hardware safety switch", "PreArm: Compasses inconsistent", "PreArm: Hardware safety switch", "PreArm: Compasses inconsistent"]}
{"timestamp": "2026-01-15T12:39:22.001453Z", "telemetry": {"lat": 28.7530813, "lon": 77.1179071, "satellites": 9, "altitude_gps_m": 210.19000244140625, "groundspeed_mps": 0.10928895324468613}, "flight": {"mode": "STABILIZE", "armed": false}, "ekf": {"attitude": {"roll": 0.0518634058535099, "pitch": -0.005962606985121965, "yaw": -2.0154905319213867}, "local_position": {"x": -0.817464292049408, "y": 1.7848148345947266, "z": 2.1352243423461914}, "status": {"flags": 33599, "velocity_variance": 0.035006675869226456, "pos_horiz_variance": 0.011281244456768036, "pos_vert_variance": 0.02085888385772705}}, "errors": ["PreArm: Hardware safety switch", "PreArm: Compasses inconsistent", "PreArm: Hardware safety switch", "PreArm: Compasses inconsistent"]}
{"timestamp": "2026-01-15T12:39:23.001745Z", "telemetry": {"lat": 28.7530826, "lon": 77.1179045, "satellites": 9, "altitude_gps_m": 210.22000122070312, "groundspeed_mps": 0.06869111210107803}, "flight": {"mode": "STABILIZE", "armed": false}, "ekf": {"attitude": {"roll": 0.05251074954867363, "pitch": -0.006637314800173044, "yaw": -2.0154836177825928}, "local_position": {"x": -0.7937966585159302, "y": 1.8054707050323486, "z": 2.0988612174987793}, "status": {"flags": 33599, "velocity_variance": 0.10962128639221191, "pos_horiz_variance": 0.0026990927290171385, "pos_vert_variance": 0.0937960147857666}}, "errors": ["PreArm: Hardware safety switch", "PreArm: Compasses inconsistent", "PreArm: Hardware safety switch", "PreArm: Compasses inconsistent"]}
{"timestamp": "2026-01-15T12:39:24.005447Z", "telemetry": {"lat": 28.753083, "lon": 77.117904, "satellites": 9, "altitude_gps_m": 210.19000244140625, "groundspeed_mps": 0.0034558537881821394}, "flight": {"mode": "STABILIZE", "armed": false}, "ekf": {"attitude": {"roll": 0.05323026329278946, "pitch": -0.007124044466763735, "yaw": -2.0154266357421875}, "local_position": {"x": -0.7663491368293762, "y": 1.7439268827438354, "z": 2.138951301574707}, "status": {"flags": 33599, "velocity_variance": 0.13580219447612762, "pos_horiz_variance": 0.00263432995416224, "pos_vert_variance": 0.07533706724643707}}, "errors": ["PreArm: Hardware safety switch", "PreArm: Compasses inconsistent", "PreArm: Hardware safety switch", "PreArm: Compasses inconsistent"]}
{"timestamp": "2026-01-15T12:39:25.005627Z", "telemetry": {"lat": 28.7530834, "lon": 77.1179041, "satellites": 9, "altitude_gps_m": 210.1999969482422, "groundspeed_mps": 0.024470074102282524}, "flight": {"mode": "STABILIZE", "armed": false}, "ekf": {"attitude": {"roll": 0.05337788909673691, "pitch": -0.0070054116658866405, "yaw": -2.015512466430664}, "local_position": {"x": -0.6871458292007446, "y": 1.7204581499099731, "z": 2.129117488861084}, "status": {"flags": 33599, "velocity_variance": 0.06408904492855072, "pos_horiz_variance": 0.0031484030187129974, "pos_vert_variance": 0.027509352192282677}}, "errors": ["PreArm: Hardware safety switch", "PreArm: Compasses inconsistent", "PreArm: Hardware safety switch", "PreArm: Compasses inconsistent"]}
{"timestamp": "2026-01-15T12:39:25.998644Z", "telemetry": {"lat": 28.7530825, "lon": 77.1179063, "satellites": 9, "altitude_gps_m": 210.1999969482422, "groundspeed_mps": 0.02606918103992939}, "flight": {"mode": "STABILIZE", "armed": false}, "ekf": {"attitude": {"roll": 0.0531589612364769, "pitch": -0.006897662300616503, "yaw": -2.015489101409912}, "local_position": {"x": -0.678550124168396, "y": 1.8437063694000244, "z": 2.12613582611084}, "status": {"flags": 33599, "velocity_variance": 0.03766031190752983, "pos_horiz_variance": 0.006797026377171278, "pos_vert_variance": 0.01423331256955862}}, "errors": ["PreArm: Hardware safety switch", "PreArm: Compasses inconsistent", "PreArm: Hardware safety switch", "PreArm: Compasses inconsistent"]}
{"timestamp": "2026-01-15T12:39:26.980029Z", "telemetry": {"lat": 28.7530819, "lon": 77.1179051, "satellites": 9, "altitude_gps_m": 210.26998901367188, "groundspeed_mps": 0.05361764505505562}, "flight": {"mode": "STABILIZE", "armed": false}, "ekf": {"attitude": {"roll": 0.05338925123214722, "pitch": -0.007512829732149839, "yaw": -2.0154848098754883}, "local_position": {"x": -0.6663957238197327, "y": 1.8015538454055786, "z": 2.056638240814209}, "status": {"flags": 33599, "velocity_variance": 0.13640674948692322, "pos_horiz_variance": 0.005841870326548815, "pos_vert_variance": 0.0629657581448555}}, "errors": ["PreArm: Hardware safety switch", "PreArm: Compasses inconsistent", "PreArm: Hardware safety switch", "PreArm: Compasses inconsistent"]}
{"timestamp": "2026-01-15T12:39:27.984199Z", "telemetry": {"lat": 28.7530846, "lon": 77.117905, "satellites": 9, "altitude_gps_m": 210.3199920654297, "groundspeed_mps": 0.11585909128189087}, "flight": {"mode": "STABILIZE", "armed": false}, "ekf": {"attitude": {"roll": 0.054338350892066956, "pitch": -0.00709995673969388, "yaw": -2.0155210494995117}, "local_position": {"x": -0.44659820199012756, "y": 1.7874523401260376, "z": 2.008800745010376}, "status": {"flags": 33599, "velocity_variance": 0.045227549970149994, "pos_horiz_variance": 0.004604293033480644, "pos_vert_variance": 0.037343479692935944}}, "errors": ["PreArm: Hardware safety switch", "PreArm: Compasses inconsistent", "PreArm: Hardware safety switch", "PreArm: Compasses inconsistent"]}
{"timestamp": "2026-01-15T12:39:28.982835Z", "telemetry": {"lat": 28.7530831, "lon": 77.1179008, "satellites": 9, "altitude_gps_m": 210.39999389648438, "groundspeed_mps": 0.15281592309474945}, "flight": {"mode": "STABILIZE", "armed": false}, "ekf": {"attitude": {"roll": 0.054228052496910095, "pitch": -0.008224697783589363, "yaw": -2.0156869888305664}, "local_position": {"x": -0.4488355815410614, "y": 1.5914658308029175, "z": 1.9257526397705078}, "status": {"flags": 33599, "velocity_variance": 0.0760388895869255, "pos_horiz_variance": 0.007525431923568249, "pos_vert_variance": 0.04684165120124817}}, "errors": ["PreArm: Hardware safety switch", "PreArm: Compasses inconsistent", "PreArm: Hardware safety switch", "PreArm: Compasses inconsistent"]}
{"timestamp": "2026-01-15T12:39:29.984341Z", "telemetry": {"lat": 28.7530824, "lon": 77.1179009, "satellites": 10, "altitude_gps_m": 210.239990234375, "groundspeed_mps": 0.18893155455589294}, "flight": {"mode": "STABILIZE", "armed": false}, "ekf": {"attitude": {"roll": 0.054169103503227234, "pitch": -0.008749525994062424, "yaw": -2.015774965286255}, "local_position": {"x": -0.5067796111106873, "y": 1.4233628511428833, "z": 2.0384278297424316}, "status": {"flags": 33599, "velocity_variance": 0.10497375577688217, "pos_horiz_variance": 0.00869754794985056, "pos_vert_variance": 0.07042817771434784}}, "errors": ["PreArm: Hardware safety switch", "PreArm: Compasses inconsistent", "PreArm: Hardware safety switch", "PreArm: Compasses inconsistent"]}
{"timestamp": "2026-01-15T12:39:31.010408Z", "telemetry": {"lat": 28.7530817, "lon": 77.1179053, "satellites": 10, "altitude_gps_m": 210.1999969482422, "groundspeed_mps": 0.1369418203830719}, "flight": {"mode": "STABILIZE", "armed": false}, "ekf": {"attitude": {"roll": 0.05322019383311272, "pitch": -0.008157672360539436, "yaw": -2.015897274017334}, "local_position": {"x": -0.5975746512413025, "y": 1.4767180681228638, "z": 2.1254260540008545}, "status": {"flags": 33599, "velocity_variance": 0.12429352849721909, "pos_horiz_variance": 0.01591663621366024, "pos_vert_variance": 0.05363529920578003}}, "errors": ["PreArm: Hardware safety switch", "PreArm: Compasses inconsistent", "PreArm: Hardware safety switch", "PreArm: Compasses inconsistent"]}
{"timestamp": "2026-01-15T12:39:32.014139Z", "telemetry": {"lat": 28.7530806, "lon": 77.1179085, "satellites": 10, "altitude_gps_m": 210.1999969482422, "groundspeed_mps": 0.08728136867284775}, "flight": {"mode": "STABILIZE", "armed": false}, "ekf": {"attitude": {"roll": 0.052213042974472046, "pitch": -0.007750028278678656, "yaw": -2.015875816345215}, "local_position": {"x": -0.7677847146987915, "y": 1.6508351564407349, "z": 2.1241655349731445}, "status": {"flags": 33599, "velocity_variance": 0.3016054034233093, "pos_horiz_variance": 0.01840553991496563, "pos_vert_variance": 0.020687667652964592}}, "errors": ["PreArm: Hardware safety switch", "PreArm: Compasses inconsistent", "PreArm: Hardware safety switch", "PreArm: Compasses inconsistent"]}
{"timestamp": "2026-01-15T12:39:33.014025Z", "telemetry": {"lat": 28.753081, "lon": 77.1179092, "satellites": 10, "altitude_gps_m": 210.14999389648438, "groundspeed_mps": 0.07522596418857574}, "flight": {"mode": "STABILIZE", "armed": false}, "ekf": {"attitude": {"roll": 0.052072908729314804, "pitch": -0.007690326776355505, "yaw": -2.0158987045288086}, "local_position": {"x": -0.86590975522995, "y": 1.7882758378982544, "z": 2.145362138748169}, "status": {"flags": 33599, "velocity_variance": 0.11505472660064697, "pos_horiz_variance": 0.016889048740267754, "pos_vert_variance": 0.02164355479180813}}, "errors": ["PreArm: Hardware safety switch", "PreArm: Compasses inconsistent", "PreArm: Hardware safety switch", "PreArm: Compasses inconsistent"]}
{"timestamp": "2026-01-15T12:39:33.986495Z", "telemetry": {"lat": 28.7530825, "lon": 77.1179102, "satellites": 10, "altitude_gps_m": 210.0699920654297, "groundspeed_mps": 0.06369566172361374}, "flight": {"mode": "STABILIZE", "armed": false}, "ekf": {"attitude": {"roll": 0.05180045962333679, "pitch": -0.007343102712184191, "yaw": -2.0158865451812744}, "local_position": {"x": -0.8455332517623901, "y": 1.858747124671936, "z": 2.2601239681243896}, "status": {"flags": 33599, "velocity_variance": 0.10527227818965912, "pos_horiz_variance": 0.018162837252020836, "pos_vert_variance": 0.023753300309181213}}, "errors": ["PreArm: Hardware safety switch", "PreArm: Compasses inconsistent", "PreArm: Hardware safety switch", "PreArm: Compasses inconsistent"]}
{"timestamp": "2026-01-15T12:39:34.989753Z", "telemetry": {"lat": 28.7530844, "lon": 77.1179099, "satellites": 10, "altitude_gps_m": 210.1699981689453, "groundspeed_mps": 0.05251545459032059}, "flight": {"mode": "STABILIZE", "armed": false}, "ekf": {"attitude": {"roll": 0.05255245417356491, "pitch": -0.007362979929894209, "yaw": -2.0160460472106934}, "local_position": {"x": -0.7418413758277893, "y": 1.935770034790039, "z": 2.149822235107422}, "status": {"flags": 33599, "velocity_variance": 0.06407207995653152, "pos_horiz_variance": 0.01580299437046051, "pos_vert_variance": 0.06092327833175659}}, "errors": ["PreArm: Hardware safety switch", "PreArm: Compasses inconsistent", "PreArm: Hardware safety switch", "PreArm: Compasses inconsistent"]}
{"timestamp": "2026-01-15T12:39:35.991421Z", "telemetry": {"lat": 28.7530843, "lon": 77.1179113, "satellites": 10, "altitude_gps_m": 210.1699981689453, "groundspeed_mps": 0.026984792202711105}, "flight": {"mode": "STABILIZE", "armed": false}, "ekf": {"attitude": {"roll": 0.05180674046278, "pitch": -0.0067543708719313145, "yaw": -2.015956401824951}, "local_position": {"x": -0.7291604280471802, "y": 2.080026388168335, "z": 2.155195474624634}, "status": {"flags": 33599, "velocity_variance": 0.0625273734331131, "pos_horiz_variance": 0.015282739885151386, "pos_vert_variance": 0.02566354162991047}}, "errors": ["PreArm: Hardware safety switch", "PreArm: Compasses inconsistent", "PreArm: Hardware safety switch", "PreArm: Compasses inconsistent"]}
{"timestamp": "2026-01-15T12:39:36.991048Z", "telemetry": {"lat": 28.7530826, "lon": 77.1179178, "satellites": 10, "altitude_gps_m": 210.13999938964844, "groundspeed_mps": 0.07612128555774689}, "flight": {"mode": "STABILIZE", "armed": false}, "ekf": {"attitude": {"roll": 0.05075071007013321, "pitch": -0.0063321772031486034, "yaw": -2.0158209800720215}, "local_position": {"x": -0.8441760540008545, "y": 2.425493001937866, "z": 2.1853394508361816}, "status": {"flags": 33599, "velocity_variance": 0.10275913774967194, "pos_horiz_variance": 0.024661840870976448, "pos_vert_variance": 0.021964317187666893}}, "errors": ["PreArm: Hardware safety switch", "PreArm: Compasses inconsistent", "PreArm: Hardware safety switch", "PreArm: Compasses inconsistent"]}
{"timestamp": "2026-01-15T12:39:37.997061Z", "telemetry": {"lat": 28.7530838, "lon": 77.1179202, "satellites": 10, "altitude_gps_m": 210.22999572753906, "groundspeed_mps": 0.09602271765470505}, "flight": {"mode": "STABILIZE", "armed": false}, "ekf": {"attitude": {"roll": 0.050936952233314514, "pitch": -0.005978412460535765, "yaw": -2.0156586170196533}, "local_position": {"x": -0.8254915475845337, "y": 2.685533285140991, "z": 2.098789691925049}, "status": {"flags": 33599, "velocity_variance": 0.13834573328495026, "pos_horiz_variance": 0.025016169995069504, "pos_vert_variance": 0.013996275141835213}}, "errors": ["PreArm: Hardware safety switch", "PreArm: Compasses inconsistent", "PreArm: Hardware safety switch", "PreArm: Compasses inconsistent"]}
{"timestamp": "2026-01-15T12:39:38.995518Z", "telemetry": {"lat": 28.7530887, "lon": 77.1179144, "satellites": 10, "altitude_gps_m": 210.26998901367188, "groundspeed_mps": 0.03227720037102699}, "flight": {"mode": "STABILIZE", "armed": false}, "ekf": {"attitude": {"roll": 0.05279708653688431, "pitch": -0.006818752270191908, "yaw": -2.0156636238098145}, "local_position": {"x": -0.586699903011322, "y": 2.655383348464966, "z": 2.0609920024871826}, "status": {"flags": 33599, "velocity_variance": 0.16368910670280457, "pos_horiz_variance": 0.01728660613298416, "pos_vert_variance": 0.052789706736803055}}, "errors": ["PreArm: Hardware safety switch", "PreArm: Compasses inconsistent", "PreArm: Hardware safety switch", "PreArm: Compasses inconsistent"]}
{"timestamp": "2026-01-15T12:39:40.022259Z", "telemetry": {"lat": 28.7530904, "lon": 77.1179192, "satellites": 9, "altitude_gps_m": 210.25, "groundspeed_mps": 0.09095124900341034}, "flight": {"mode": "STABILIZE", "armed": false}, "ekf": {"attitude": {"roll": 0.0523737296462059, "pitch": -0.005730917211622, "yaw": -2.0157089233398438}, "local_position": {"x": -0.3715856671333313, "y": 2.8842172622680664, "z": 2.07389235496521}, "status": {"flags": 33599, "velocity_variance": 0.11325198411941528, "pos_horiz_variance": 0.02113509178161621, "pos_vert_variance": 0.07722388952970505}}, "errors": ["PreArm: Hardware safety switch", "PreArm: Compasses inconsistent", "PreArm: Hardware safety switch", "PreArm: Compasses inconsistent"]}
{"timestamp": "2026-01-15T12:39:40.993783Z", "telemetry": {"lat": 28.7530911, "lon": 77.1179197, "satellites": 9, "altitude_gps_m": 210.22000122070312, "groundspeed_mps": 0.10313743352890015}, "flight": {"mode": "STABILIZE", "armed": false}, "ekf": {"attitude": {"roll": 0.05244055762887001, "pitch": -0.0060291714034974575, "yaw": -2.0159101486206055}, "local_position": {"x": -0.21258603036403656, "y": 3.03930926322937, "z": 2.0998730659484863}, "status": {"flags": 33599, "velocity_variance": 0.11151790618896484, "pos_horiz_variance": 0.01725088059902191, "pos_vert_variance": 0.07596681267023087}}, "errors": ["PreArm: Hardware safety switch", "PreArm: Compasses inconsistent", "PreArm: Hardware safety switch", "PreArm: Compasses inconsistent"]}
{"timestamp": "2026-01-15T12:39:41.969700Z", "telemetry": {"lat": 28.7530897, "lon": 77.1179222, "satellites": 9, "altitude_gps_m": 210.3300018310547, "groundspeed_mps": 0.10987619310617447}, "flight": {"mode": "STABILIZE", "armed": false}, "ekf": {"attitude": {"roll": 0.05218658968806267, "pitch": -0.005900163669139147, "yaw": -2.015834331512451}, "local_position": {"x": -0.14793166518211365, "y": 3.2302775382995605, "z": 1.992179036140442}, "status": {"flags": 33599, "velocity_variance": 0.04053597152233124, "pos_horiz_variance": 0.014300530776381493, "pos_vert_variance": 0.03484908491373062}}, "errors": ["PreArm: Hardware safety switch", "PreArm: Compasses inconsistent", "PreArm: Hardware safety switch", "PreArm: Compasses inconsistent"]}
{"timestamp": "2026-01-15T12:39:42.976567Z", "telemetry": {"lat": 28.7530924, "lon": 77.1179179, "satellites": 9, "altitude_gps_m": 210.36000061035156, "groundspeed_mps": 0.10118088126182556}, "flight": {"mode": "STABILIZE", "armed": false}, "ekf": {"attitude": {"roll": 0.05277946963906288, "pitch": -0.006535446736961603, "yaw": -2.0157837867736816}, "local_position": {"x": 0.03668242692947388, "y": 3.2154645919799805, "z": 1.962620496749878}, "status": {"flags": 33599, "velocity_variance": 0.20524121820926666, "pos_horiz_variance": 0.010508550330996513, "pos_vert_variance": 0.018510162830352783}}, "errors": ["PreArm: Hardware safety switch", "PreArm: Compasses inconsistent", "PreArm: Hardware safety switch", "PreArm: Compasses inconsistent"]}
{"timestamp": "2026-01-15T12:39:43.972920Z", "telemetry": {"lat": 28.7530942, "lon": 77.1179179, "satellites": 9, "altitude_gps_m": 210.38999938964844, "groundspeed_mps": 0.09637343138456345}, "flight": {"mode": "STABILIZE", "armed": false}, "ekf": {"attitude": {"roll": 0.052941396832466125, "pitch": -0.006982168648391962, "yaw": -2.0157456398010254}, "local_position": {"x": 0.16777236759662628, "y": 3.223083257675171, "z": 1.939441442489624}, "status": {"flags": 33599, "velocity_variance": 0.20837226510047913, "pos_horiz_variance": 0.012463877908885479, "pos_vert_variance": 0.01992344669997692}}, "errors": ["PreArm: Hardware safety switch", "PreArm: Compasses inconsistent", "PreArm: Hardware safety switch", "PreArm: Compasses inconsistent"]}
{"timestamp": "2026-01-15T12:39:44.984994Z", "telemetry": {"lat": 28.7530966, "lon": 77.1179168, "satellites": 9, "altitude_gps_m": 210.3199920654297, "groundspeed_mps": 0.12223025411367416}, "flight": {"mode": "STABILIZE", "armed": false}, "ekf": {"attitude": {"roll": 0.05285185948014259, "pitch": -0.007088241633027792, "yaw": -2.0158321857452393}, "local_position": {"x": 0.4043903648853302, "y": 3.143575668334961, "z": 2.0025179386138916}, "status": {"flags": 33599, "velocity_variance": 0.18158426880836487, "pos_horiz_variance": 0.012618510983884335, "pos_vert_variance": 0.06601487845182419}}, "errors": ["PreArm: Hardware safety switch", "PreArm: Compasses inconsistent", "PreArm: Hardware safety switch", "PreArm: Compasses inconsistent"]}
{"timestamp": "2026-01-15T12:39:45.994059Z", "telemetry": {"lat": 28.7530982, "lon": 77.1179161, "satellites": 9, "altitude_gps_m": 210.3699951171875, "groundspeed_mps": 0.16052880883216858}, "flight": {"mode": "STABILIZE", "armed": false}, "ekf": {"attitude": {"roll": 0.05328325554728508, "pitch": -0.007416429463773966, "yaw": -2.0157384872436523}, "local_position": {"x": 0.633535623550415, "y": 3.0254576206207275, "z": 1.949176549911499}, "status": {"flags": 33599, "velocity_variance": 0.047463152557611465, "pos_horiz_variance": 0.011800366453826427, "pos_vert_variance": 0.0263726357370615}}, "errors": ["PreArm: Hardware safety switch", "PreArm: Compasses inconsistent", "PreArm: Hardware safety switch", "PreArm: Compasses inconsistent"]}
{"timestamp": "2026-01-15T12:39:46.998633Z", "telemetry": {"lat": 28.7531007, "lon": 77.1179132, "satellites": 9, "altitude_gps_m": 210.44000244140625, "groundspeed_mps": 0.20209170877933502}, "flight": {"mode": "STABILIZE", "armed": false}, "ekf": {"attitude": {"roll": 0.053679268807172775, "pitch": -0.007930628955364227, "yaw": -2.015803813934326}, "local_position": {"x": 0.8678144216537476, "y": 2.846637725830078, "z": 1.8828144073486328}, "status": {"flags": 33599, "velocity_variance": 0.09195699542760849, "pos_horiz_variance": 0.013712442480027676, "pos_vert_variance": 0.06944776326417923}}, "errors": ["PreArm: Hardware safety switch", "PreArm: Compasses inconsistent", "PreArm: Hardware safety switch", "PreArm: Compasses inconsistent"]}
{"timestamp": "2026-01-15T12:39:48.002755Z", "telemetry": {"lat": 28.7531027, "lon": 77.1179123, "satellites": 9, "altitude_gps_m": 210.3699951171875, "groundspeed_mps": 0.22109095752239227}, "flight": {"mode": "STABILIZE", "armed": false}, "ekf": {"attitude": {"roll": 0.05390111356973648, "pitch": -0.008048569783568382, "yaw": -2.015885353088379}, "local_position": {"x": 1.0773146152496338, "y": 2.718848466873169, "z": 1.9591262340545654}, "status": {"flags": 33599, "velocity_variance": 0.2117808610200882, "pos_horiz_variance": 0.01411737222224474, "pos_vert_variance": 0.03675321117043495}}, "errors": ["PreArm: Hardware safety switch", "PreArm: Compasses inconsistent", "PreArm: Hardware safety switch", "PreArm: Compasses inconsistent", "PreArm: Hardware safety switch", "PreArm: Compasses inconsistent"]}
{"timestamp": "2026-01-15T12:39:49.001775Z", "telemetry": {"lat": 28.7531017, "lon": 77.1179147, "satellites": 9, "altitude_gps_m": 210.3300018310547, "groundspeed_mps": 0.16830535233020782}, "flight": {"mode": "STABILIZE", "armed": false}, "ekf": {"attitude": {"roll": 0.05253327637910843, "pitch": -0.007443493697792292, "yaw": -2.0158815383911133}, "local_position": {"x": 1.154159665107727, "y": 2.776644229888916, "z": 1.9944326877593994}, "status": {"flags": 33599, "velocity_variance": 0.11424289643764496, "pos_horiz_variance": 0.007693305145949125, "pos_vert_variance": 0.002470847452059388}}, "errors": ["PreArm: Hardware safety switch", "PreArm: Compasses inconsistent", "PreArm: Hardware safety switch", "PreArm: Compasses inconsistent", "PreArm: Hardware safety switch", "PreArm: Compasses inconsistent"]}
{"timestamp": "2026-01-15T12:39:49.999000Z", "telemetry": {"lat": 28.7531042, "lon": 77.1179119, "satellites": 9, "altitude_gps_m": 210.25, "groundspeed_mps": 0.16667155921459198}, "flight": {"mode": "STABILIZE", "armed": false}, "ekf": {"attitude": {"roll": 0.05244600772857666, "pitch": -0.007676322478801012, "yaw": -2.0160865783691406}, "local_position": {"x": 1.2998682260513306, "y": 2.7153215408325195, "z": 2.077712059020996}, "status": {"flags": 33599, "velocity_variance": 0.09513213485479355, "pos_horiz_variance": 0.011590170674026012, "pos_vert_variance": 0.06812181323766708}}, "errors": ["PreArm: Hardware safety switch", "PreArm: Compasses inconsistent", "PreArm: Hardware safety switch", "PreArm: Compasses inconsistent", "PreArm: Hardware safety switch", "PreArm: Compasses inconsistent"]}
{"timestamp": "2026-01-15T12:39:50.995105Z", "telemetry": {"lat": 28.753104, "lon": 77.1179129, "satellites": 9, "altitude_gps_m": 210.20999145507812, "groundspeed_mps": 0.12984485924243927}, "flight": {"mode": "STABILIZE", "armed": false}, "ekf": {"attitude": {"roll": 0.051316484808921814, "pitch": -0.007318821270018816, "yaw": -2.0161499977111816}, "local_position": {"x": 1.3510628938674927, "y": 2.6835389137268066, "z": 2.120063304901123}, "status": {"flags": 33599, "velocity_variance": 0.11669070273637772, "pos_horiz_variance": 0.009225646033883095, "pos_vert_variance": 0.003919842652976513}}, "errors": ["PreArm: Hardware safety switch", "PreArm: Compasses inconsistent", "PreArm: Hardware safety switch", "PreArm: Compasses inconsistent", "PreArm: Hardware safety switch", "PreArm: Compasses inconsistent"]}
{"timestamp": "2026-01-15T12:39:51.996872Z", "telemetry": {"lat": 28.7531068, "lon": 77.1179121, "satellites": 9, "altitude_gps_m": 210.0800018310547, "groundspeed_mps": 0.138906329870224}, "flight": {"mode": "STABILIZE", "armed": false}, "ekf": {"attitude": {"roll": 0.05161546915769577, "pitch": -0.007162578869611025, "yaw": -2.0162205696105957}, "local_position": {"x": 1.5407072305679321, "y": 2.625746726989746, "z": 2.2424449920654297}, "status": {"flags": 33599, "velocity_variance": 0.19761033356189728, "pos_horiz_variance": 0.012718246318399906, "pos_vert_variance": 0.013297023251652718}}, "errors": ["PreArm: Hardware safety switch", "PreArm: Compasses inconsistent", "PreArm: Hardware safety switch", "PreArm: Compasses inconsistent", "PreArm: Hardware safety switch", "PreArm: Compasses inconsistent"]}
{"timestamp": "2026-01-15T12:39:52.998489Z", "telemetry": {"lat": 28.7531091, "lon": 77.1179103, "satellites": 9, "altitude_gps_m": 210.05999755859375, "groundspeed_mps": 0.1614733189344406}, "flight": {"mode": "STABILIZE", "armed": false}, "ekf": {"attitude": {"roll": 0.051636382937431335, "pitch": -0.007178026717156172, "yaw": -2.0161561965942383}, "local_position": {"x": 1.7845134735107422, "y": 2.4972898960113525, "z": 2.2655649185180664}, "status": {"flags": 33599, "velocity_variance": 0.0698709562420845, "pos_horiz_variance": 0.01338524091988802, "pos_vert_variance": 0.06605494022369385}}, "errors": ["PreArm: Hardware safety switch", "PreArm: Compasses inconsistent", "PreArm: Hardware safety switch", "PreArm: Compasses inconsistent", "PreArm: Hardware safety switch", "PreArm: Compasses inconsistent"]}
{"timestamp": "2026-01-15T12:39:54.002580Z", "telemetry": {"lat": 28.7531113, "lon": 77.1179087, "satellites": 9, "altitude_gps_m": 210.17999267578125, "groundspeed_mps": 0.14909975230693817}, "flight": {"mode": "STABILIZE", "armed": false}, "ekf": {"attitude": {"roll": 0.05114810913801193, "pitch": -0.006978492718189955, "yaw": -2.016155242919922}, "local_position": {"x": 1.9555110931396484, "y": 2.426191806793213, "z": 2.1473002433776855}, "status": {"flags": 33599, "velocity_variance": 0.07912454009056091, "pos_horiz_variance": 0.016033517196774483, "pos_vert_variance": 0.04102277383208275}}, "errors": ["PreArm: Hardware safety switch", "PreArm: Compasses inconsistent", "PreArm: Hardware safety switch", "PreArm: Compasses inconsistent", "PreArm: Hardware safety switch", "PreArm: Compasses inconsistent"]}
{"timestamp": "2026-01-15T12:39:55.000549Z", "telemetry": {"lat": 28.7531118, "lon": 77.1179056, "satellites": 9, "altitude_gps_m": 210.22999572753906, "groundspeed_mps": 0.17308956384658813}, "flight": {"mode": "STABILIZE", "armed": false}, "ekf": {"attitude": {"roll": 0.05085264518857002, "pitch": -0.007521586958318949, "yaw": -2.016130208969116}, "local_position": {"x": 2.0685036182403564, "y": 2.145176410675049, "z": 2.0988833904266357}, "status": {"flags": 33599, "velocity_variance": 0.06339613348245621, "pos_horiz_variance": 0.014841136522591114, "pos_vert_variance": 0.015728577971458435}}, "errors": ["PreArm: Hardware safety switch", "PreArm: Compasses inconsistent", "PreArm: Hardware safety switch", "PreArm: Compasses inconsistent", "PreArm: Hardware safety switch", "PreArm: Compasses inconsistent"]}
{"timestamp": "2026-01-15T12:39:56.000949Z", "telemetry": {"lat": 28.7531129, "lon": 77.1179032, "satellites": 10, "altitude_gps_m": 210.17999267578125, "groundspeed_mps": 0.1965358406305313}, "flight": {"mode": "STABILIZE", "armed": false}, "ekf": {"attitude": {"roll": 0.05075766146183014, "pitch": -0.007826138287782669, "yaw": -2.016082763671875}, "local_position": {"x": 2.2259554862976074, "y": 1.9056347608566284, "z": 2.1498255729675293}, "status": {"flags": 33599, "velocity_variance": 0.3489992916584015, "pos_horiz_variance": 0.012966803275048733, "pos_vert_variance": 0.007049438077956438}}, "errors": ["PreArm: Hardware safety switch", "PreArm: Compasses inconsistent", "PreArm: Hardware safety switch", "PreArm: Compasses inconsistent", "PreArm: Hardware safety switch", "PreArm: Compasses inconsistent"]}
{"timestamp": "2026-01-15T12:39:56.976812Z", "telemetry": {"lat": 28.7531109, "lon": 77.1179056, "satellites": 10, "altitude_gps_m": 210.12998962402344, "groundspeed_mps": 0.1188775971531868}, "flight": {"mode": "STABILIZE", "armed": false}, "ekf": {"attitude": {"roll": 0.04935453459620476, "pitch": -0.007062701042741537, "yaw": -2.016171932220459}, "local_position": {"x": 2.1708924770355225, "y": 1.9616026878356934, "z": 2.1922645568847656}, "status": {"flags": 33599, "velocity_variance": 0.24281689524650574, "pos_horiz_variance": 0.006280066911131144, "pos_vert_variance": 0.022884709760546684}}, "errors": ["PreArm: Hardware safety switch", "PreArm: Compasses inconsistent", "PreArm: Hardware safety switch", "PreArm: Compasses inconsistent", "PreArm: Hardware safety switch", "PreArm: Compasses inconsistent"]}
{"timestamp": "2026-01-15T12:39:57.969787Z", "telemetry": {"lat": 28.7531098, "lon": 77.1179089, "satellites": 10, "altitude_gps_m": 210.09999084472656, "groundspeed_mps": 0.05896545946598053}, "flight": {"mode": "STABILIZE", "armed": false}, "ekf": {"attitude": {"roll": 0.0487193800508976, "pitch": -0.006203791592270136, "yaw": -2.0162911415100098}, "local_position": {"x": 2.1450095176696777, "y": 2.103288412094116, "z": 2.2201526165008545}, "status": {"flags": 33599, "velocity_variance": 0.2116902470588684, "pos_horiz_variance": 0.006907112430781126, "pos_vert_variance": 0.03625737130641937}}, "errors": ["PreArm: Hardware safety switch", "PreArm: Compasses inconsistent", "PreArm: Hardware safety switch", "PreArm: Compasses inconsistent", "PreArm: Hardware safety switch", "PreArm: Compasses inconsistent"]}
{"timestamp": "2026-01-15T12:39:58.980067Z", "telemetry": {"lat": 28.7531131, "lon": 77.1179042, "satellites": 10, "altitude_gps_m": 210.1199951171875, "groundspeed_mps": 0.0706087052822113}, "flight": {"mode": "STABILIZE", "armed": false}, "ekf": {"attitude": {"roll": 0.04989254102110863, "pitch": -0.0065011619590222836, "yaw": -2.0162196159362793}, "local_position": {"x": 2.3028759956359863, "y": 1.9656622409820557, "z": 2.2099053859710693}, "status": {"flags": 33599, "velocity_variance": 0.2627168297767639, "pos_horiz_variance": 0.010836380533874035, "pos_vert_variance": 0.025079842656850815}}, "errors": ["PreArm: Hardware safety switch", "PreArm: Compasses inconsistent", "PreArm: Hardware safety switch", "PreArm: Compasses inconsistent", "PreArm: Hardware safety switch", "PreArm: Compasses inconsistent"]}
{"timestamp": "2026-01-15T12:39:59.974328Z", "telemetry": {"lat": 28.7531168, "lon": 77.1179011, "satellites": 10, "altitude_gps_m": 210.1199951171875, "groundspeed_mps": 0.12422937154769897}, "flight": {"mode": "STABILIZE", "armed": false}, "ekf": {"attitude": {"roll": 0.05084219574928284, "pitch": -0.006384584587067366, "yaw": -2.01628041267395}, "local_position": {"x": 2.5890390872955322, "y": 1.7225638628005981, "z": 2.2051146030426025}, "status": {"flags": 33599, "velocity_variance": 0.15355104207992554, "pos_horiz_variance": 0.015879707410931587, "pos_vert_variance": 0.12421362102031708}}, "errors": ["PreArm: Hardware safety switch", "PreArm: Compasses inconsistent", "PreArm: Hardware safety switch", "PreArm: Compasses inconsistent", "PreArm: Hardware safety switch", "PreArm: Compasses inconsistent"]}
{"timestamp": "2026-01-15T12:40:01.006590Z", "telemetry": {"lat": 28.7531201, "lon": 77.1178951, "satellites": 10, "altitude_gps_m": 210.239990234375, "groundspeed_mps": 0.224688321352005}, "flight": {"mode": "STABILIZE", "armed": false}, "ekf": {"attitude": {"roll": 0.052121005952358246, "pitch": -0.006998011376708746, "yaw": -2.016335964202881}, "local_position": {"x": 2.892193078994751, "y": 1.407440423965454, "z": 2.1407320499420166}, "status": {"flags": 33599, "velocity_variance": 0.10655967146158218, "pos_horiz_variance": 0.022140858694911003, "pos_vert_variance": 0.06475124508142471}}, "errors": ["PreArm: Hardware safety switch", "PreArm: Compasses inconsistent", "PreArm: Hardware safety switch", "PreArm: Compasses inconsistent", "PreArm: Hardware safety switch", "PreArm: Compasses inconsistent"]}
{"timestamp": "2026-01-15T12:40:02.007693Z", "telemetry": {"lat": 28.7531215, "lon": 77.1178951, "satellites": 10, "altitude_gps_m": 210.2899932861328, "groundspeed_mps": 0.21303565800189972}, "flight": {"mode": "STABILIZE", "armed": false}, "ekf": {"attitude": {"roll": 0.05169014632701874, "pitch": -0.006379471626132727, "yaw": -2.0163376331329346}, "local_position": {"x": 3.1579227447509766, "y": 1.1805402040481567, "z": 2.03691029548645}, "status": {"flags": 33599, "velocity_variance": 0.13588771224021912, "pos_horiz_variance": 0.01609843224287033, "pos_vert_variance": 0.02090638130903244}}, "errors": ["PreArm: Hardware safety switch", "PreArm: Compasses inconsistent", "PreArm: Hardware safety switch", "PreArm: Compasses inconsistent", "PreArm: Hardware safety switch", "PreArm: Compasses inconsistent"]}
{"timestamp": "2026-01-15T12:40:03.010928Z", "telemetry": {"lat": 28.7531222, "lon": 77.117897, "satellites": 10, "altitude_gps_m": 210.2899932861328, "groundspeed_mps": 0.13397452235221863}, "flight": {"mode": "STABILIZE", "armed": false}, "ekf": {"attitude": {"roll": 0.05069611221551895, "pitch": -0.005283380392938852, "yaw": -2.016359329223633}, "local_position": {"x": 3.2873353958129883, "y": 1.3108187913894653, "z": 2.0400612354278564}, "status": {"flags": 33599, "velocity_variance": 0.1551796793937683, "pos_horiz_variance": 0.014086293056607246, "pos_vert_variance": 0.02589975669980049}}, "errors": ["PreArm: Hardware safety switch", "PreArm: Compasses inconsistent", "PreArm: Hardware safety switch", "PreArm: Compasses inconsistent", "PreArm: Hardware safety switch", "PreArm: Compasses inconsistent"]}
{"timestamp": "2026-01-15T12:40:04.010871Z", "telemetry": {"lat": 28.7531276, "lon": 77.1178888, "satellites": 10, "altitude_gps_m": 210.3300018310547, "groundspeed_mps": 0.2835525572299957}, "flight": {"mode": "STABILIZE", "armed": false}, "ekf": {"attitude": {"roll": 0.05305008962750435, "pitch": -0.006218999158591032, "yaw": -2.016286849975586}, "local_position": {"x": 3.665116310119629, "y": 0.8831691741943359, "z": 2.023348808288574}, "status": {"flags": 33599, "velocity_variance": 0.4073415696620941, "pos_horiz_variance": 0.025763679295778275, "pos_vert_variance": 0.011824516579508781}}, "errors": ["PreArm: Hardware safety switch", "PreArm: Compasses inconsistent", "PreArm: Hardware safety switch", "PreArm: Compasses inconsistent", "PreArm: Hardware safety switch", "PreArm: Compasses inconsistent"]}
{"timestamp": "2026-01-15T12:40:04.984050Z", "telemetry": {"lat": 28.7531314, "lon": 77.1178874, "satellites": 10, "altitude_gps_m": 210.3699951171875, "groundspeed_mps": 0.32228001952171326}, "flight": {"mode": "STABILIZE", "armed": false}, "ekf": {"attitude": {"roll": 0.05280883237719536, "pitch": -0.0059142387472093105, "yaw": -2.0163328647613525}, "local_position": {"x": 4.175503253936768, "y": 0.5214915871620178, "z": 1.958626627922058}, "status": {"flags": 33599, "velocity_variance": 0.3238510489463806, "pos_horiz_variance": 0.019866550341248512, "pos_vert_variance": 0.04294155165553093}}, "errors": ["PreArm: Hardware safety switch", "PreArm: Compasses inconsistent", "PreArm: Hardware safety switch", "PreArm: Compasses inconsistent", "PreArm: Hardware safety switch", "PreArm: Compasses inconsistent"]}
{"timestamp": "2026-01-15T12:40:05.986402Z", "telemetry": {"lat": 28.7531317, "lon": 77.1178858, "satellites": 10, "altitude_gps_m": 210.4099884033203, "groundspeed_mps": 0.29413339495658875}, "flight": {"mode": "STABILIZE", "armed": false}, "ekf": {"attitude": {"roll": 0.05185256898403168, "pitch": -0.005285185296088457, "yaw": -2.016265869140625}, "local_position": {"x": 4.443652153015137, "y": 0.4036146402359009, "z": 1.915317177772522}, "status": {"flags": 33599, "velocity_variance": 0.19432197511196136, "pos_horiz_variance": 0.01561049185693264, "pos_vert_variance": 0.03916485607624054}}, "errors": ["PreArm: Hardware safety switch", "PreArm: Compasses inconsistent", "PreArm: Hardware safety switch", "PreArm: Compasses inconsistent", "PreArm: Hardware safety switch", "PreArm: Compasses inconsistent"]}
{"timestamp": "2026-01-15T12:40:06.993248Z", "telemetry": {"lat": 28.7531316, "lon": 77.1178871, "satellites": 10, "altitude_gps_m": 210.25, "groundspeed_mps": 0.19790220260620117}, "flight": {"mode": "STABILIZE", "armed": false}, "ekf": {"attitude": {"roll": 0.05022463947534561, "pitch": -0.004548428114503622, "yaw": -2.0163416862487793}, "local_position": {"x": 4.559197425842285, "y": 0.43320852518081665, "z": 2.045806407928467}, "status": {"flags": 33599, "velocity_variance": 0.08070482313632965, "pos_horiz_variance": 0.010214830748736858, "pos_vert_variance": 0.0682944804430008}}, "errors": ["PreArm: Hardware safety switch", "PreArm: Compasses inconsistent", "PreArm: Hardware safety switch", "PreArm: Compasses inconsistent", "PreArm: Hardware safety switch", "PreArm: Compasses inconsistent"]}
{"timestamp": "2026-01-15T12:40:07.989480Z", "telemetry": {"lat": 28.753134, "lon": 77.1178826, "satellites": 10, "altitude_gps_m": 210.25, "groundspeed_mps": 0.18841485679149628}, "flight": {"mode": "STABILIZE", "armed": false}, "ekf": {"attitude": {"roll": 0.05019107460975647, "pitch": -0.005135566461831331, "yaw": -2.016205310821533}, "local_position": {"x": 4.691471576690674, "y": 0.26163551211357117, "z": 2.078878164291382}, "status": {"flags": 33599, "velocity_variance": 0.11551611125469208, "pos_horiz_variance": 0.018075482919812202, "pos_vert_variance": 0.0193677619099617}}, "errors": ["PreArm: Hardware safety switch", "PreArm: Compasses inconsistent", "PreArm: Hardware safety switch", "PreArm: Compasses inconsistent", "PreArm: Hardware safety switch", "PreArm: Compasses inconsistent"]}
