{"timestamp": "2025-12-28T11:00:54.733665Z", "telemetry": {"lat": null, "lon": null, "satellites": null, "altitude_gps_m": null, "groundspeed_mps": null}, "flight": {"mode": "LOITER", "armed": false}, "ekf": {"attitude": {"roll": null, "pitch": null, "yaw": null}, "local_position": {"x": null, "y": null, "z": null}, "status": {"flags": null, "velocity_variance": null, "pos_horiz_variance": null, "pos_vert_variance": null}}, "errors": []}
{"timestamp": "2025-12-28T11:00:55.783114Z", "telemetry": {"lat": 28.7532773, "lon": 77.1176981, "satellites": 10, "altitude_gps_m": 213.9199981689453, "groundspeed_mps": 0.31774386763572693}, "flight": {"mode": "LOITER", "armed": false}, "ekf": {"attitude": {"roll": -0.0350058488547802, "pitch": -0.010623887181282043, "yaw": 3.04777455329895}, "local_position": {"x": 22.787071228027344, "y": -17.866113662719727, "z": -4.996843338012695}, "status": {"flags": 33599, "velocity_variance": 0.13687025010585785, "pos_horiz_variance": 0.012134813703596592, "pos_vert_variance": 0.060280971229076385}}, "errors": []}
{"timestamp": "2025-12-28T11:00:56.833100Z", "telemetry": {"lat": 28.7532755, "lon": 77.1177008, "satellites": 10, "altitude_gps_m": 213.9499969482422, "groundspeed_mps": 0.34943458437919617}, "flight": {"mode": "LOITER", "armed": false}, "ekf": {"attitude": {"roll": -0.03473489359021187, "pitch": -0.010212218388915062, "yaw": 3.0478644371032715}, "local_position": {"x": 22.59540367126465, "y": -17.64133071899414, "z": -5.022243022918701}, "status": {"flags": 33599, "velocity_variance": 0.1132834181189537, "pos_horiz_variance": 0.013864217326045036, "pos_vert_variance": 0.014510718174278736}}, "errors": []}
{"timestamp": "2025-12-28T11:00:57.868416Z", "telemetry": {"lat": 28.7532699, "lon": 77.1177066, "satellites": 10, "altitude_gps_m": 213.97000122070312, "groundspeed_mps": 0.3927271068096161}, "flight": {"mode": "LOITER", "armed": false}, "ekf": {"attitude": {"roll": -0.034872088581323624, "pitch": -0.010048193857073784, "yaw": 3.047983407974243}, "local_position": {"x": 22.352582931518555, "y": -17.321212768554688, "z": -5.050222873687744}, "status": {"flags": 33599, "velocity_variance": 0.07936355471611023, "pos_horiz_variance": 0.022220542654395103, "pos_vert_variance": 0.10874844342470169}}, "errors": []}
{"timestamp": "2025-12-28T11:00:58.868805Z", "telemetry": {"lat": 28.75327, "lon": 77.1177079, "satellites": 10, "altitude_gps_m": 213.88999938964844, "groundspeed_mps": 0.4381045699119568}, "flight": {"mode": "LOITER", "armed": false}, "ekf": {"attitude": {"roll": -0.03457489237189293, "pitch": -0.00958290696144104, "yaw": 3.0480332374572754}, "local_position": {"x": 22.127052307128906, "y": -17.019569396972656, "z": -5.01343297958374}, "status": {"flags": 33599, "velocity_variance": 0.23596997559070587, "pos_horiz_variance": 0.016640039160847664, "pos_vert_variance": 0.08819270879030228}}, "errors": []}
{"timestamp": "2025-12-28T11:00:59.867910Z", "telemetry": {"lat": 28.7532652, "lon": 77.1177121, "satellites": 10, "altitude_gps_m": 213.87998962402344, "groundspeed_mps": 0.4730849266052246}, "flight": {"mode": "LOITER", "armed": false}, "ekf": {"attitude": {"roll": -0.034451987594366074, "pitch": -0.009413819760084152, "yaw": 3.047935962677002}, "local_position": {"x": 21.508541107177734, "y": -16.487688064575195, "z": -4.949278831481934}, "status": {"flags": 33599, "velocity_variance": 0.2486838400363922, "pos_horiz_variance": 0.013891658745706081, "pos_vert_variance": 0.04654702916741371}}, "errors": []}
{"timestamp": "2025-12-28T11:01:00.867893Z", "telemetry": {"lat": 28.7532659, "lon": 77.1177118, "satellites": 10, "altitude_gps_m": 213.9199981689453, "groundspeed_mps": 0.3895372748374939}, "flight": {"mode": "LOITER", "armed": false}, "ekf": {"attitude": {"roll": -0.03284166380763054, "pitch": -0.007237462792545557, "yaw": 3.047940731048584}, "local_position": {"x": 21.408227920532227, "y": -16.330490112304688, "z": -4.992333889007568}, "status": {"flags": 33599, "velocity_variance": 0.26999104022979736, "pos_horiz_variance": 0.009576975367963314, "pos_vert_variance": 0.04145614430308342}}, "errors": []}
{"timestamp": "2025-12-28T11:01:01.867856Z", "telemetry": {"lat": 28.7532594, "lon": 77.1177148, "satellites": 10, "altitude_gps_m": 213.92999267578125, "groundspeed_mps": 0.36242982745170593}, "flight": {"mode": "LOITER", "armed": false}, "ekf": {"attitude": {"roll": -0.032518308609724045, "pitch": -0.007397876586765051, "yaw": 3.047861099243164}, "local_position": {"x": 21.15538215637207, "y": -16.199399948120117, "z": -5.008706092834473}, "status": {"flags": 33599, "velocity_variance": 0.1705601066350937, "pos_horiz_variance": 0.018316688016057014, "pos_vert_variance": 0.008917785249650478}}, "errors": []}
{"timestamp": "2025-12-28T11:01:02.868836Z", "telemetry": {"lat": 28.7532548, "lon": 77.1177173, "satellites": 10, "altitude_gps_m": 213.9199981689453, "groundspeed_mps": 0.3754127323627472}, "flight": {"mode": "LOITER", "armed": false}, "ekf": {"attitude": {"roll": -0.03185124322772026, "pitch": -0.007207497488707304, "yaw": 3.0478806495666504}, "local_position": {"x": 20.799264907836914, "y": -16.034019470214844, "z": -4.9972124099731445}, "status": {"flags": 33599, "velocity_variance": 0.04923340678215027, "pos_horiz_variance": 0.02139502950012684, "pos_vert_variance": 0.04098564013838768}}, "errors": []}
{"timestamp": "2025-12-28T11:01:03.868428Z", "telemetry": {"lat": 28.7532481, "lon": 77.1177204, "satellites": 10, "altitude_gps_m": 213.97000122070312, "groundspeed_mps": 0.4056393504142761}, "flight": {"mode": "LOITER", "armed": false}, "ekf": {"attitude": {"roll": -0.03158734366297722, "pitch": -0.007287258747965097, "yaw": 3.0479323863983154}, "local_position": {"x": 20.175806045532227, "y": -15.76990032196045, "z": -5.0437164306640625}, "status": {"flags": 33599, "velocity_variance": 0.04797663167119026, "pos_horiz_variance": 0.025600500404834747, "pos_vert_variance": 0.06407686322927475}}, "errors": ["PreArm: Hardware safety switch", "PreArm: GPS glitching", "PreArm: Internal errors 0x100000 l:66 flow_of_ctrl"]}
{"timestamp": "2025-12-28T11:01:04.868239Z", "telemetry": {"lat": 28.7532423, "lon": 77.1177232, "satellites": 10, "altitude_gps_m": 213.84999084472656, "groundspeed_mps": 0.43459415435791016}, "flight": {"mode": "LOITER", "armed": false}, "ekf": {"attitude": {"roll": -0.03147165849804878, "pitch": -0.006890370976179838, "yaw": 3.047866106033325}, "local_position": {"x": 19.55739974975586, "y": -15.473381996154785, "z": -4.923951148986816}, "status": {"flags": 33599, "velocity_variance": 0.13609471917152405, "pos_horiz_variance": 0.02537088841199875, "pos_vert_variance": 0.01837579347193241}}, "errors": ["PreArm: Hardware safety switch", "PreArm: GPS glitching", "PreArm: Internal errors 0x100000 l:66 flow_of_ctrl"]}
{"timestamp": "2025-12-28T11:01:05.871426Z", "telemetry": {"lat": 28.7532408, "lon": 77.1177228, "satellites": 10, "altitude_gps_m": 213.9099884033203, "groundspeed_mps": 0.3812078535556793}, "flight": {"mode": "LOITER", "armed": false}, "ekf": {"attitude": {"roll": -0.030284781008958817, "pitch": -0.005955759901553392, "yaw": 3.0477852821350098}, "local_position": {"x": 19.263883590698242, "y": -15.428067207336426, "z": -4.983384609222412}, "status": {"flags": 33599, "velocity_variance": 0.11165262013673782, "pos_horiz_variance": 0.02253168262541294, "pos_vert_variance": 0.015315333381295204}}, "errors": ["PreArm: Hardware safety switch", "PreArm: GPS glitching", "PreArm: Internal errors 0x100000 l:66 flow_of_ctrl"]}
{"timestamp": "2025-12-28T11:01:06.868166Z", "telemetry": {"lat": 28.753242, "lon": 77.1177241, "satellites": 10, "altitude_gps_m": 213.8699951171875, "groundspeed_mps": 0.330005019903183}, "flight": {"mode": "LOITER", "armed": false}, "ekf": {"attitude": {"roll": -0.030374158173799515, "pitch": -0.004645885434001684, "yaw": 3.0478579998016357}, "local_position": {"x": 18.924640655517578, "y": -15.216963768005371, "z": -4.947883605957031}, "status": {"flags": 33599, "velocity_variance": 0.2516675591468811, "pos_horiz_variance": 0.01352024171501398, "pos_vert_variance": 0.01197334099560976}}, "errors": ["PreArm: Hardware safety switch", "PreArm: GPS glitching", "PreArm: Internal errors 0x100000 l:66 flow_of_ctrl"]}
{"timestamp": "2025-12-28T11:01:07.868526Z", "telemetry": {"lat": 28.7532386, "lon": 77.117727, "satellites": 10, "altitude_gps_m": 213.86000061035156, "groundspeed_mps": 0.2733149826526642}, "flight": {"mode": "LOITER", "armed": false}, "ekf": {"attitude": {"roll": -0.030217047780752182, "pitch": -0.003981699701398611, "yaw": 3.047715187072754}, "local_position": {"x": 18.726896286010742, "y": -15.045613288879395, "z": -4.938174247741699}, "status": {"flags": 33599, "velocity_variance": 0.17255359888076782, "pos_horiz_variance": 0.017775168642401695, "pos_vert_variance": 0.036568012088537216}}, "errors": ["PreArm: Hardware safety switch", "PreArm: GPS glitching", "PreArm: Internal errors 0x100000 l:66 flow_of_ctrl"]}
{"timestamp": "2025-12-28T11:01:08.871725Z", "telemetry": {"lat": 28.7532359, "lon": 77.1177287, "satellites": 10, "altitude_gps_m": 213.9499969482422, "groundspeed_mps": 0.2335822731256485}, "flight": {"mode": "LOITER", "armed": false}, "ekf": {"attitude": {"roll": -0.029800716787576675, "pitch": -0.0034502684138715267, "yaw": 3.04772686958313}, "local_position": {"x": 18.52674102783203, "y": -14.90557861328125, "z": -5.000734329223633}, "status": {"flags": 33599, "velocity_variance": 0.2316049486398697, "pos_horiz_variance": 0.019017182290554047, "pos_vert_variance": 0.023314720019698143}}, "errors": ["PreArm: Hardware safety switch", "PreArm: GPS glitching", "PreArm: Internal errors 0x100000 l:66 flow_of_ctrl"]}
{"timestamp": "2025-12-28T11:01:09.867982Z", "telemetry": {"lat": 28.7532374, "lon": 77.1177296, "satellites": 10, "altitude_gps_m": 213.88999938964844, "groundspeed_mps": 0.2051602452993393}, "flight": {"mode": "LOITER", "armed": false}, "ekf": {"attitude": {"roll": -0.029893677681684494, "pitch": -0.0030495612882077694, "yaw": 3.0475165843963623}, "local_position": {"x": 18.290197372436523, "y": -14.736011505126953, "z": -4.997570514678955}, "status": {"flags": 33599, "velocity_variance": 0.09017590433359146, "pos_horiz_variance": 0.012593407183885574, "pos_vert_variance": 0.052445411682128906}}, "errors": ["PreArm: Hardware safety switch", "PreArm: GPS glitching", "PreArm: Internal errors 0x100000 l:66 flow_of_ctrl"]}
{"timestamp": "2025-12-28T11:01:10.868621Z", "telemetry": {"lat": 28.7532365, "lon": 77.1177314, "satellites": 10, "altitude_gps_m": 213.84999084472656, "groundspeed_mps": 0.1770053207874298}, "flight": {"mode": "LOITER", "armed": false}, "ekf": {"attitude": {"roll": -0.030062135308980942, "pitch": -0.0027830000035464764, "yaw": 3.0475566387176514}, "local_position": {"x": 18.05368423461914, "y": -14.515312194824219, "z": -4.921195030212402}, "status": {"flags": 33599, "velocity_variance": 0.32881149649620056, "pos_horiz_variance": 0.010639091022312641, "pos_vert_variance": 0.007364639546722174}}, "errors": ["PreArm: Hardware safety switch", "PreArm: GPS glitching", "PreArm: Internal errors 0x100000 l:66 flow_of_ctrl"]}
{"timestamp": "2025-12-28T11:01:11.869491Z", "telemetry": {"lat": 28.7532302, "lon": 77.117735, "satellites": 10, "altitude_gps_m": 213.8300018310547, "groundspeed_mps": 0.1983523964881897}, "flight": {"mode": "LOITER", "armed": false}, "ekf": {"attitude": {"roll": -0.030252505093812943, "pitch": -0.0030154534615576267, "yaw": 3.047426462173462}, "local_position": {"x": 17.802169799804688, "y": -14.303906440734863, "z": -4.908268928527832}, "status": {"flags": 33599, "velocity_variance": 0.15473723411560059, "pos_horiz_variance": 0.017644651234149933, "pos_vert_variance": 0.020124375820159912}}, "errors": ["PreArm: Hardware safety switch", "PreArm: GPS glitching", "PreArm: Internal errors 0x100000 l:66 flow_of_ctrl"]}
{"timestamp": "2025-12-28T11:01:12.868346Z", "telemetry": {"lat": 28.7532351, "lon": 77.1177332, "satellites": 10, "altitude_gps_m": 213.9099884033203, "groundspeed_mps": 0.035061195492744446}, "flight": {"mode": "LOITER", "armed": false}, "ekf": {"attitude": {"roll": -0.029091205447912216, "pitch": -0.0007467130199074745, "yaw": 3.047361135482788}, "local_position": {"x": 17.853925704956055, "y": -14.250447273254395, "z": -4.954558372497559}, "status": {"flags": 33599, "velocity_variance": 0.3692418038845062, "pos_horiz_variance": 0.008477244526147842, "pos_vert_variance": 0.11864876747131348}}, "errors": ["PreArm: Hardware safety switch", "PreArm: GPS glitching", "PreArm: Internal errors 0x100000 l:66 flow_of_ctrl"]}
{"timestamp": "2025-12-28T11:01:13.867991Z", "telemetry": {"lat": 28.753236, "lon": 77.1177341, "satellites": 9, "altitude_gps_m": 213.94000244140625, "groundspeed_mps": 0.05617397278547287}, "flight": {"mode": "LOITER", "armed": false}, "ekf": {"attitude": {"roll": -0.029011521488428116, "pitch": 2.459157258272171e-06, "yaw": 3.0472054481506348}, "local_position": {"x": 18.050514221191406, "y": -14.227200508117676, "z": -5.015623569488525}, "status": {"flags": 33599, "velocity_variance": 0.11301341652870178, "pos_horiz_variance": 0.009598830714821815, "pos_vert_variance": 0.01211079116910696}}, "errors": ["PreArm: Hardware safety switch", "PreArm: GPS glitching", "PreArm: Internal errors 0x100000 l:66 flow_of_ctrl"]}
{"timestamp": "2025-12-28T11:01:14.869151Z", "telemetry": {"lat": 28.7532354, "lon": 77.117734, "satellites": 10, "altitude_gps_m": 213.88999938964844, "groundspeed_mps": 0.13017576932907104}, "flight": {"mode": "LOITER", "armed": false}, "ekf": {"attitude": {"roll": -0.028778668493032455, "pitch": 0.0004616756923496723, "yaw": 3.0470845699310303}, "local_position": {"x": 18.147602081298828, "y": -14.224447250366211, "z": -4.961888313293457}, "status": {"flags": 33599, "velocity_variance": 0.08491615951061249, "pos_horiz_variance": 0.010971084237098694, "pos_vert_variance": 0.12258495390415192}}, "errors": ["PreArm: Hardware safety switch", "PreArm: GPS glitching", "PreArm: Internal errors 0x100000 l:66 flow_of_ctrl"]}
{"timestamp": "2025-12-28T11:01:15.868290Z", "telemetry": {"lat": 28.7532328, "lon": 77.1177339, "satellites": 9, "altitude_gps_m": 213.97000122070312, "groundspeed_mps": 0.15370897948741913}, "flight": {"mode": "LOITER", "armed": false}, "ekf": {"attitude": {"roll": -0.028396625071763992, "pitch": 2.5345012545585632e-05, "yaw": 3.0468900203704834}, "local_position": {"x": 18.104393005371094, "y": -14.280607223510742, "z": -5.033088684082031}, "status": {"flags": 33599, "velocity_variance": 0.18038640916347504, "pos_horiz_variance": 0.015215995721518993, "pos_vert_variance": 0.02050846256315708}}, "errors": ["PreArm: Hardware safety switch", "PreArm: GPS glitching", "PreArm: Internal errors 0x100000 l:66 flow_of_ctrl"]}
{"timestamp": "2025-12-28T11:01:16.868758Z", "telemetry": {"lat": 28.7532296, "lon": 77.1177341, "satellites": 9, "altitude_gps_m": 213.97000122070312, "groundspeed_mps": 0.15298676490783691}, "flight": {"mode": "LOITER", "armed": false}, "ekf": {"attitude": {"roll": -0.028241243213415146, "pitch": -0.0005698925815522671, "yaw": 3.046708106994629}, "local_position": {"x": 17.846237182617188, "y": -14.2789945602417, "z": -5.044253826141357}, "status": {"flags": 33599, "velocity_variance": 0.12858058512210846, "pos_horiz_variance": 0.01736493408679962, "pos_vert_variance": 0.021460529416799545}}, "errors": ["PreArm: Hardware safety switch", "PreArm: GPS glitching", "PreArm: Internal errors 0x100000 l:66 flow_of_ctrl"]}
{"timestamp": "2025-12-28T11:01:17.868610Z", "telemetry": {"lat": 28.7532247, "lon": 77.1177379, "satellites": 9, "altitude_gps_m": 213.9499969482422, "groundspeed_mps": 0.08186613023281097}, "flight": {"mode": "LOITER", "armed": false}, "ekf": {"attitude": {"roll": -0.029181893914937973, "pitch": -0.0018021948635578156, "yaw": 3.046504020690918}, "local_position": {"x": 17.52080535888672, "y": -14.120339393615723, "z": -5.043122291564941}, "status": {"flags": 33599, "velocity_variance": 0.17902524769306183, "pos_horiz_variance": 0.021272888407111168, "pos_vert_variance": 0.032148782163858414}}, "errors": ["PreArm: Hardware safety switch", "PreArm: GPS glitching", "PreArm: Internal errors 0x100000 l:66 flow_of_ctrl"]}
{"timestamp": "2025-12-28T11:01:18.867923Z", "telemetry": {"lat": 28.7532219, "lon": 77.1177397, "satellites": 9, "altitude_gps_m": 213.97000122070312, "groundspeed_mps": 0.06896143406629562}, "flight": {"mode": "LOITER", "armed": false}, "ekf": {"attitude": {"roll": -0.029256146401166916, "pitch": -0.001927667297422886, "yaw": 3.0463316440582275}, "local_position": {"x": 17.199045181274414, "y": -13.926669120788574, "z": -5.036694526672363}, "status": {"flags": 33599, "velocity_variance": 0.19020713865756989, "pos_horiz_variance": 0.023322612047195435, "pos_vert_variance": 0.10309820622205734}}, "errors": ["PreArm: Hardware safety switch", "PreArm: GPS glitching", "PreArm: Internal errors 0x100000 l:66 flow_of_ctrl"]}
{"timestamp": "2025-12-28T11:01:19.868058Z", "telemetry": {"lat": 28.7532217, "lon": 77.1177394, "satellites": 10, "altitude_gps_m": 213.9199981689453, "groundspeed_mps": 0.06803085654973984}, "flight": {"mode": "LOITER", "armed": false}, "ekf": {"attitude": {"roll": -0.02963956817984581, "pitch": -0.002346397377550602, "yaw": 3.046262502670288}, "local_position": {"x": 16.978933334350586, "y": -13.847442626953125, "z": -4.995444297790527}, "status": {"flags": 33599, "velocity_variance": 0.058559659868478775, "pos_horiz_variance": 0.019060326740145683, "pos_vert_variance": 0.005158829968422651}}, "errors": ["PreArm: Hardware safety switch", "PreArm: GPS glitching", "PreArm: Internal errors 0x100000 l:66 flow_of_ctrl"]}
{"timestamp": "2025-12-28T11:01:20.868253Z", "telemetry": {"lat": 28.7532279, "lon": 77.1177362, "satellites": 11, "altitude_gps_m": 213.92999267578125, "groundspeed_mps": 0.1063753217458725}, "flight": {"mode": "LOITER", "armed": false}, "ekf": {"attitude": {"roll": -0.02936895564198494, "pitch": -0.001285090111196041, "yaw": 3.046337127685547}, "local_position": {"x": 17.03151512145996, "y": -13.87471866607666, "z": -5.009609699249268}, "status": {"flags": 33599, "velocity_variance": 0.15015669167041779, "pos_horiz_variance": 0.006277529057115316, "pos_vert_variance": 0.014158705249428749}}, "errors": ["PreArm: Hardware safety switch", "PreArm: GPS glitching", "PreArm: Internal errors 0x100000 l:66 flow_of_ctrl"]}
{"timestamp": "2025-12-28T11:01:21.868024Z", "telemetry": {"lat": 28.7532296, "lon": 77.1177371, "satellites": 11, "altitude_gps_m": 213.87998962402344, "groundspeed_mps": 0.10277151316404343}, "flight": {"mode": "LOITER", "armed": false}, "ekf": {"attitude": {"roll": -0.030438397079706192, "pitch": -0.0014150803908705711, "yaw": 3.046255111694336}, "local_position": {"x": 17.109451293945312, "y": -13.803579330444336, "z": -4.974912643432617}, "status": {"flags": 33599, "velocity_variance": 0.4144882261753082, "pos_horiz_variance": 0.005943473894149065, "pos_vert_variance": 0.040178947150707245}}, "errors": ["PreArm: Hardware safety switch", "PreArm: GPS glitching", "PreArm: Internal errors 0x100000 l:66 flow_of_ctrl"]}
{"timestamp": "2025-12-28T11:01:22.868722Z", "telemetry": {"lat": 28.7532287, "lon": 77.1177392, "satellites": 11, "altitude_gps_m": 213.83999633789062, "groundspeed_mps": 0.10814256966114044}, "flight": {"mode": "LOITER", "armed": false}, "ekf": {"attitude": {"roll": -0.031054142862558365, "pitch": -0.0011587785556912422, "yaw": 3.046187162399292}, "local_position": {"x": 17.117321014404297, "y": -13.646061897277832, "z": -4.905050754547119}, "status": {"flags": 33599, "velocity_variance": 0.08599942177534103, "pos_horiz_variance": 0.007558911573141813, "pos_vert_variance": 0.026124438270926476}}, "errors": ["PreArm: Hardware safety switch", "PreArm: GPS glitching", "PreArm: Internal errors 0x100000 l:66 flow_of_ctrl"]}
{"timestamp": "2025-12-28T11:01:23.868150Z", "telemetry": {"lat": 28.7532255, "lon": 77.1177418, "satellites": 11, "altitude_gps_m": 213.80999755859375, "groundspeed_mps": 0.12236817181110382}, "flight": {"mode": "LOITER", "armed": false}, "ekf": {"attitude": {"roll": -0.031688835471868515, "pitch": -0.0013352385722100735, "yaw": 3.046323537826538}, "local_position": {"x": 17.190528869628906, "y": -13.512114524841309, "z": -4.879583358764648}, "status": {"flags": 33599, "velocity_variance": 0.30425357818603516, "pos_horiz_variance": 0.014742346480488777, "pos_vert_variance": 0.081712506711483}}, "errors": ["PreArm: Hardware safety switch", "PreArm: GPS glitching", "PreArm: Internal errors 0x100000 l:66 flow_of_ctrl"]}
{"timestamp": "2025-12-28T11:01:24.868509Z", "telemetry": {"lat": 28.7532241, "lon": 77.1177407, "satellites": 11, "altitude_gps_m": 213.8300018310547, "groundspeed_mps": 0.13370320200920105}, "flight": {"mode": "LOITER", "armed": false}, "ekf": {"attitude": {"roll": -0.03117925301194191, "pitch": -0.0012686518020927906, "yaw": 3.046349287033081}, "local_position": {"x": 17.16431427001953, "y": -13.507560729980469, "z": -4.879748821258545}, "status": {"flags": 33599, "velocity_variance": 0.1394263207912445, "pos_horiz_variance": 0.015629582107067108, "pos_vert_variance": 0.0708872452378273}}, "errors": ["PreArm: Hardware safety switch", "PreArm: GPS glitching", "PreArm: Internal errors 0x100000 l:66 flow_of_ctrl"]}
{"timestamp": "2025-12-28T11:01:25.868374Z", "telemetry": {"lat": 28.7532196, "lon": 77.1177419, "satellites": 11, "altitude_gps_m": 213.88999938964844, "groundspeed_mps": 0.0905192419886589}, "flight": {"mode": "STABILIZE", "armed": false}, "ekf": {"attitude": {"roll": -0.03141031041741371, "pitch": -0.002077179029583931, "yaw": 3.0463180541992188}, "local_position": {"x": 16.97136688232422, "y": -13.436827659606934, "z": -4.932136535644531}, "status": {"flags": 33599, "velocity_variance": 0.10804612189531326, "pos_horiz_variance": 0.022036295384168625, "pos_vert_variance": 0.016938956454396248}}, "errors": ["PreArm: Hardware safety switch", "PreArm: GPS glitching", "PreArm: Internal errors 0x100000 l:66 flow_of_ctrl"]}
{"timestamp": "2025-12-28T11:01:26.868709Z", "telemetry": {"lat": 28.7532205, "lon": 77.1177389, "satellites": 11, "altitude_gps_m": 214.01998901367188, "groundspeed_mps": 0.12011394649744034}, "flight": {"mode": "STABILIZE", "armed": false}, "ekf": {"attitude": {"roll": -0.030802350491285324, "pitch": -0.0016487669199705124, "yaw": 3.0463852882385254}, "local_position": {"x": 16.833393096923828, "y": -13.444522857666016, "z": -5.08251428604126}, "status": {"flags": 33599, "velocity_variance": 0.47824662923812866, "pos_horiz_variance": 0.015335755422711372, "pos_vert_variance": 0.05193830654025078}}, "errors": ["PreArm: Hardware safety switch", "PreArm: GPS glitching", "PreArm: Internal errors 0x100000 l:66 flow_of_ctrl"]}
{"timestamp": "2025-12-28T11:01:27.868372Z", "telemetry": {"lat": 28.753224, "lon": 77.117736, "satellites": 11, "altitude_gps_m": 213.97999572753906, "groundspeed_mps": 0.1604919284582138}, "flight": {"mode": "STABILIZE", "armed": false}, "ekf": {"attitude": {"roll": -0.030985970050096512, "pitch": -0.001648232340812683, "yaw": 3.0463356971740723}, "local_position": {"x": 16.936325073242188, "y": -13.611701011657715, "z": -5.0664472579956055}, "status": {"flags": 33599, "velocity_variance": 0.029067736119031906, "pos_horiz_variance": 0.009357541799545288, "pos_vert_variance": 0.01326807215809822}}, "errors": ["PreArm: Hardware safety switch", "PreArm: GPS glitching", "PreArm: Internal errors 0x100000 l:66 flow_of_ctrl"]}
{"timestamp": "2025-12-28T11:01:28.868619Z", "telemetry": {"lat": 28.7532227, "lon": 77.1177367, "satellites": 11, "altitude_gps_m": 213.989990234375, "groundspeed_mps": 0.10117635875940323}, "flight": {"mode": "STABILIZE", "armed": false}, "ekf": {"attitude": {"roll": -0.031580809503793716, "pitch": -0.0026397868059575558, "yaw": 3.046319007873535}, "local_position": {"x": 16.834949493408203, "y": -13.563125610351562, "z": -5.069637775421143}, "status": {"flags": 33599, "velocity_variance": 0.14004148542881012, "pos_horiz_variance": 0.009821652434766293, "pos_vert_variance": 0.028337325900793076}}, "errors": ["PreArm: Hardware safety switch", "PreArm: GPS glitching", "PreArm: Internal errors 0x100000 l:66 flow_of_ctrl"]}
{"timestamp": "2025-12-28T11:01:29.868812Z", "telemetry": {"lat": 28.7532201, "lon": 77.1177381, "satellites": 11, "altitude_gps_m": 213.9099884033203, "groundspeed_mps": 0.020970191806554794}, "flight": {"mode": "STABILIZE", "armed": false}, "ekf": {"attitude": {"roll": -0.0325188972055912, "pitch": -0.003930035512894392, "yaw": 3.0463569164276123}, "local_position": {"x": 16.489797592163086, "y": -13.402151107788086, "z": -4.9810872077941895}, "status": {"flags": 33599, "velocity_variance": 0.3007151484489441, "pos_horiz_variance": 0.00969357043504715, "pos_vert_variance": 0.06664066761732101}}, "errors": ["PreArm: Hardware safety switch", "PreArm: GPS glitching", "PreArm: Internal errors 0x100000 l:66 flow_of_ctrl"]}
{"timestamp": "2025-12-28T11:01:30.868367Z", "telemetry": {"lat": 28.7532195, "lon": 77.1177387, "satellites": 11, "altitude_gps_m": 213.84999084472656, "groundspeed_mps": 0.07934039831161499}, "flight": {"mode": "STABILIZE", "armed": false}, "ekf": {"attitude": {"roll": -0.032809067517519, "pitch": -0.004661534447222948, "yaw": 3.0463716983795166}, "local_position": {"x": 16.234920501708984, "y": -13.266340255737305, "z": -4.924005508422852}, "status": {"flags": 33599, "velocity_variance": 0.019900470972061157, "pos_horiz_variance": 0.006134555675089359, "pos_vert_variance": 0.00376691110432148}}, "errors": ["PreArm: Hardware safety switch", "PreArm: GPS glitching", "PreArm: Internal errors 0x100000 l:66 flow_of_ctrl"]}
{"timestamp": "2025-12-28T11:01:31.868536Z", "telemetry": {"lat": 28.7532212, "lon": 77.117739, "satellites": 11, "altitude_gps_m": 213.86000061035156, "groundspeed_mps": 0.08810631185770035}, "flight": {"mode": "STABILIZE", "armed": false}, "ekf": {"attitude": {"roll": -0.03293514624238014, "pitch": -0.004684107843786478, "yaw": 3.0463740825653076}, "local_position": {"x": 16.184524536132812, "y": -13.19753646850586, "z": -4.933666706085205}, "status": {"flags": 33599, "velocity_variance": 0.08670493960380554, "pos_horiz_variance": 0.0021200627088546753, "pos_vert_variance": 0.01416864711791277}}, "errors": ["PreArm: Hardware safety switch", "PreArm: GPS glitching", "PreArm: Internal errors 0x100000 l:66 flow_of_ctrl"]}
{"timestamp": "2025-12-28T11:01:32.868754Z", "telemetry": {"lat": 28.7532211, "lon": 77.11774, "satellites": 10, "altitude_gps_m": 213.8300018310547, "groundspeed_mps": 0.10651014745235443}, "flight": {"mode": "STABILIZE", "armed": false}, "ekf": {"attitude": {"roll": -0.03324870392680168, "pitch": -0.004761068616062403, "yaw": 3.0464329719543457}, "local_position": {"x": 16.132328033447266, "y": -13.07841682434082, "z": -4.903182029724121}, "status": {"flags": 33599, "velocity_variance": 0.0714770257472992, "pos_horiz_variance": 0.002734491601586342, "pos_vert_variance": 0.031010136008262634}}, "errors": ["PreArm: Hardware safety switch", "PreArm: GPS glitching", "PreArm: Internal errors 0x100000 l:66 flow_of_ctrl"]}
{"timestamp": "2025-12-28T11:01:33.868852Z", "telemetry": {"lat": 28.7532198, "lon": 77.117742, "satellites": 8, "altitude_gps_m": 213.77999877929688, "groundspeed_mps": 0.12796558439731598}, "flight": {"mode": "STABILIZE", "armed": false}, "ekf": {"attitude": {"roll": -0.03349636122584343, "pitch": -0.004762649070471525, "yaw": 3.046457290649414}, "local_position": {"x": 16.083635330200195, "y": -12.97529411315918, "z": -4.858513355255127}, "status": {"flags": 33599, "velocity_variance": 0.14080578088760376, "pos_horiz_variance": 0.0016596622299402952, "pos_vert_variance": 0.010066474787890911}}, "errors": ["PreArm: Hardware safety switch", "PreArm: GPS glitching", "PreArm: Internal errors 0x100000 l:66 flow_of_ctrl", "PreArm: Hardware safety switch", "PreArm: Internal errors 0x100000 l:66 flow_of_ctrl"]}
{"timestamp": "2025-12-28T11:01:34.868205Z", "telemetry": {"lat": 28.7532194, "lon": 77.1177431, "satellites": 8, "altitude_gps_m": 213.76998901367188, "groundspeed_mps": 0.09355122596025467}, "flight": {"mode": "STABILIZE", "armed": false}, "ekf": {"attitude": {"roll": -0.03292088583111763, "pitch": -0.003926822450011969, "yaw": 3.0464494228363037}, "local_position": {"x": 16.14728355407715, "y": -12.940267562866211, "z": -4.851775646209717}, "status": {"flags": 33599, "velocity_variance": 0.35624435544013977, "pos_horiz_variance": 0.0035933766048401594, "pos_vert_variance": 0.06469392776489258}}, "errors": ["PreArm: Hardware safety switch", "PreArm: GPS glitching", "PreArm: Internal errors 0x100000 l:66 flow_of_ctrl", "PreArm: Hardware safety switch", "PreArm: Internal errors 0x100000 l:66 flow_of_ctrl"]}
{"timestamp": "2025-12-28T11:01:35.867897Z", "telemetry": {"lat": 28.7532174, "lon": 77.1177438, "satellites": 8, "altitude_gps_m": 213.79998779296875, "groundspeed_mps": 0.07655475288629532}, "flight": {"mode": "STABILIZE", "armed": false}, "ekf": {"attitude": {"roll": -0.032375406473875046, "pitch": -0.0034598871134221554, "yaw": 3.0463645458221436}, "local_position": {"x": 16.274757385253906, "y": -13.011632919311523, "z": -4.873781681060791}, "status": {"flags": 33599, "velocity_variance": 0.2092508226633072, "pos_horiz_variance": 0.010415718890726566, "pos_vert_variance": 0.016011139377951622}}, "errors": ["PreArm: Hardware safety switch", "PreArm: GPS glitching", "PreArm: Internal errors 0x100000 l:66 flow_of_ctrl", "PreArm: Hardware safety switch", "PreArm: Internal errors 0x100000 l:66 flow_of_ctrl"]}
{"timestamp": "2025-12-28T11:01:36.868202Z", "telemetry": {"lat": 28.7532135, "lon": 77.1177466, "satellites": 8, "altitude_gps_m": 213.84999084472656, "groundspeed_mps": 0.06784763187170029}, "flight": {"mode": "STABILIZE", "armed": false}, "ekf": {"attitude": {"roll": -0.03234369680285454, "pitch": -0.004147075582295656, "yaw": 3.046410083770752}, "local_position": {"x": 16.172039031982422, "y": -12.963132858276367, "z": -4.899046897888184}, "status": {"flags": 33599, "velocity_variance": 0.12235073000192642, "pos_horiz_variance": 0.018028073012828827, "pos_vert_variance": 0.046382416039705276}}, "errors": ["PreArm: Hardware safety switch", "PreArm: GPS glitching", "PreArm: Internal errors 0x100000 l:66 flow_of_ctrl", "PreArm: Hardware safety switch", "PreArm: Internal errors 0x100000 l:66 flow_of_ctrl"]}
{"timestamp": "2025-12-28T11:01:37.868698Z", "telemetry": {"lat": 28.7532114, "lon": 77.1177494, "satellites": 8, "altitude_gps_m": 213.80999755859375, "groundspeed_mps": 0.11251810193061829}, "flight": {"mode": "STABILIZE", "armed": false}, "ekf": {"attitude": {"roll": -0.03283585235476494, "pitch": -0.004678795579820871, "yaw": 3.046454906463623}, "local_position": {"x": 15.895040512084961, "y": -12.722454071044922, "z": -4.913699626922607}, "status": {"flags": 33599, "velocity_variance": 0.17852096259593964, "pos_horiz_variance": 0.018339162692427635, "pos_vert_variance": 0.05111417919397354}}, "errors": ["PreArm: Hardware safety switch", "PreArm: GPS glitching", "PreArm: Internal errors 0x100000 l:66 flow_of_ctrl", "PreArm: Hardware safety switch", "PreArm: Internal errors 0x100000 l:66 flow_of_ctrl"]}
{"timestamp": "2025-12-28T11:01:38.867831Z", "telemetry": {"lat": 28.7532073, "lon": 77.1177533, "satellites": 8, "altitude_gps_m": 213.77999877929688, "groundspeed_mps": 0.2067805379629135}, "flight": {"mode": "STABILIZE", "armed": false}, "ekf": {"attitude": {"roll": -0.03332517668604851, "pitch": -0.005776088219136, "yaw": 3.0464906692504883}, "local_position": {"x": 15.361501693725586, "y": -12.293451309204102, "z": -4.8587260246276855}, "status": {"flags": 33599, "velocity_variance": 0.09080841392278671, "pos_horiz_variance": 0.0173769760876894, "pos_vert_variance": 0.030635936185717583}}, "errors": ["PreArm: Hardware safety switch", "PreArm: GPS glitching", "PreArm: Internal errors 0x100000 l:66 flow_of_ctrl", "PreArm: Hardware safety switch", "PreArm: Internal errors 0x100000 l:66 flow_of_ctrl"]}
{"timestamp": "2025-12-28T11:01:39.868654Z", "telemetry": {"lat": 28.7532044, "lon": 77.1177548, "satellites": 10, "altitude_gps_m": 213.72999572753906, "groundspeed_mps": 0.2561701834201813}, "flight": {"mode": "STABILIZE", "armed": false}, "ekf": {"attitude": {"roll": -0.03362656012177467, "pitch": -0.006308881100267172, "yaw": 3.046400547027588}, "local_position": {"x": 15.140652656555176, "y": -12.134289741516113, "z": -4.815464496612549}, "status": {"flags": 33599, "velocity_variance": 0.2327263057231903, "pos_horiz_variance": 0.016123613342642784, "pos_vert_variance": 0.014579923823475838}}, "errors": ["PreArm: Hardware safety switch", "PreArm: GPS glitching", "PreArm: Internal errors 0x100000 l:66 flow_of_ctrl", "PreArm: Hardware safety switch", "PreArm: Internal errors 0x100000 l:66 flow_of_ctrl"]}
{"timestamp": "2025-12-28T11:01:40.868762Z", "telemetry": {"lat": 28.7532057, "lon": 77.1177522, "satellites": 10, "altitude_gps_m": 213.79998779296875, "groundspeed_mps": 0.25795042514801025}, "flight": {"mode": "STABILIZE", "armed": false}, "ekf": {"attitude": {"roll": -0.03288434073328972, "pitch": -0.006042723078280687, "yaw": 3.0464134216308594}, "local_position": {"x": 14.784078598022461, "y": -11.89459228515625, "z": -4.854080677032471}, "status": {"flags": 33599, "velocity_variance": 0.21134626865386963, "pos_horiz_variance": 0.00786532461643219, "pos_vert_variance": 0.06941597908735275}}, "errors": ["PreArm: Hardware safety switch", "PreArm: GPS glitching", "PreArm: Internal errors 0x100000 l:66 flow_of_ctrl", "PreArm: Hardware safety switch", "PreArm: Internal errors 0x100000 l:66 flow_of_ctrl"]}
{"timestamp": "2025-12-28T11:01:41.868017Z", "telemetry": {"lat": 28.7532055, "lon": 77.1177509, "satellites": 10, "altitude_gps_m": 213.77999877929688, "groundspeed_mps": 0.2598942518234253}, "flight": {"mode": "STABILIZE", "armed": false}, "ekf": {"attitude": {"roll": -0.03276645019650459, "pitch": -0.006139557342976332, "yaw": 3.046405076980591}, "local_position": {"x": 14.584451675415039, "y": -11.791531562805176, "z": -4.855709552764893}, "status": {"flags": 33599, "velocity_variance": 0.09852366894483566, "pos_horiz_variance": 0.0073763541877269745, "pos_vert_variance": 0.0616932213306427}}, "errors": ["PreArm: Hardware safety switch", "PreArm: GPS glitching", "PreArm: Internal errors 0x100000 l:66 flow_of_ctrl", "PreArm: Hardware safety switch", "PreArm: Internal errors 0x100000 l:66 flow_of_ctrl"]}
{"timestamp": "2025-12-28T11:01:42.872071Z", "telemetry": {"lat": 28.7532056, "lon": 77.1177526, "satellites": 10, "altitude_gps_m": 213.79998779296875, "groundspeed_mps": 0.28491610288619995}, "flight": {"mode": "STABILIZE", "armed": false}, "ekf": {"attitude": {"roll": -0.032990481704473495, "pitch": -0.006185444537550211, "yaw": 3.046349287033081}, "local_position": {"x": 14.398643493652344, "y": -11.606748580932617, "z": -4.853672981262207}, "status": {"flags": 33599, "velocity_variance": 0.339417427778244, "pos_horiz_variance": 0.007573158014565706, "pos_vert_variance": 0.04338174685835838}}, "errors": ["PreArm: Hardware safety switch", "PreArm: GPS glitching", "PreArm: Internal errors 0x100000 l:66 flow_of_ctrl", "PreArm: Hardware safety switch", "PreArm: Internal errors 0x100000 l:66 flow_of_ctrl"]}
{"timestamp": "2025-12-28T11:01:43.868437Z", "telemetry": {"lat": 28.753214, "lon": 77.1177453, "satellites": 10, "altitude_gps_m": 213.87998962402344, "groundspeed_mps": 0.13998140394687653}, "flight": {"mode": "STABILIZE", "armed": false}, "ekf": {"attitude": {"roll": -0.031485918909311295, "pitch": -0.004621258471161127, "yaw": 3.0463016033172607}, "local_position": {"x": 14.657011985778809, "y": -11.823600769042969, "z": -4.955842018127441}, "status": {"flags": 33599, "velocity_variance": 0.27268099784851074, "pos_horiz_variance": 0.022062944248318672, "pos_vert_variance": 0.021243780851364136}}, "errors": ["PreArm: Hardware safety switch", "PreArm: GPS glitching", "PreArm: Internal errors 0x100000 l:66 flow_of_ctrl", "PreArm: Hardware safety switch", "PreArm: Internal errors 0x100000 l:66 flow_of_ctrl"]}
{"timestamp": "2025-12-28T11:01:44.868044Z", "telemetry": {"lat": 28.7532203, "lon": 77.1177408, "satellites": 10, "altitude_gps_m": 213.83999633789062, "groundspeed_mps": 0.020920557901263237}, "flight": {"mode": "STABILIZE", "armed": false}, "ekf": {"attitude": {"roll": -0.030983243137598038, "pitch": -0.0036621480248868465, "yaw": 3.046333074569702}, "local_position": {"x": 14.971905708312988, "y": -12.144867897033691, "z": -4.918619632720947}, "status": {"flags": 33599, "velocity_variance": 0.05193541198968887, "pos_horiz_variance": 0.030703186988830566, "pos_vert_variance": 0.04657312110066414}}, "errors": ["PreArm: Hardware safety switch", "PreArm: GPS glitching", "PreArm: Internal errors 0x100000 l:66 flow_of_ctrl", "PreArm: Hardware safety switch", "PreArm: Internal errors 0x100000 l:66 flow_of_ctrl"]}
{"timestamp": "2025-12-28T11:01:45.872140Z", "telemetry": {"lat": 28.7532267, "lon": 77.1177361, "satellites": 9, "altitude_gps_m": 213.75999450683594, "groundspeed_mps": 0.11206381767988205}, "flight": {"mode": "STABILIZE", "armed": false}, "ekf": {"attitude": {"roll": -0.030559908598661423, "pitch": -0.002503383904695511, "yaw": 3.046236991882324}, "local_position": {"x": 15.3538179397583, "y": -12.428790092468262, "z": -4.860169887542725}, "status": {"flags": 33599, "velocity_variance": 0.294476181268692, "pos_horiz_variance": 0.03584812581539154, "pos_vert_variance": 0.07122039794921875}}, "errors": ["PreArm: Hardware safety switch", "PreArm: GPS glitching", "PreArm: Internal errors 0x100000 l:66 flow_of_ctrl", "PreArm: Hardware safety switch", "PreArm: Internal errors 0x100000 l:66 flow_of_ctrl"]}
{"timestamp": "2025-12-28T11:01:46.868763Z", "telemetry": {"lat": 28.7532339, "lon": 77.1177296, "satellites": 9, "altitude_gps_m": 213.72000122070312, "groundspeed_mps": 0.2514527440071106}, "flight": {"mode": "STABILIZE", "armed": false}, "ekf": {"attitude": {"roll": -0.029920686036348343, "pitch": -0.0013495362363755703, "yaw": 3.0462002754211426}, "local_position": {"x": 16.04660415649414, "y": -12.980121612548828, "z": -4.793776512145996}, "status": {"flags": 33599, "velocity_variance": 0.18446797132492065, "pos_horiz_variance": 0.0424138680100441, "pos_vert_variance": 0.01630745828151703}}, "errors": ["PreArm: Hardware safety switch", "PreArm: GPS glitching", "PreArm: Internal errors 0x100000 l:66 flow_of_ctrl", "PreArm: Hardware safety switch", "PreArm: Internal errors 0x100000 l:66 flow_of_ctrl"]}
{"timestamp": "2025-12-28T11:01:47.867917Z", "telemetry": {"lat": 28.7532406, "lon": 77.117723, "satellites": 9, "altitude_gps_m": 213.739990234375, "groundspeed_mps": 0.41440194845199585}, "flight": {"mode": "STABILIZE", "armed": false}, "ekf": {"attitude": {"roll": -0.02912731096148491, "pitch": -0.0002273358404636383, "yaw": 3.0461337566375732}, "local_position": {"x": 16.79528045654297, "y": -13.572525024414062, "z": -4.811802864074707}, "status": {"flags": 33599, "velocity_variance": 0.25571104884147644, "pos_horiz_variance": 0.04356187954545021, "pos_vert_variance": 0.02721421979367733}}, "errors": ["PreArm: Hardware safety switch", "PreArm: GPS glitching", "PreArm: Internal errors 0x100000 l:66 flow_of_ctrl", "PreArm: Hardware safety switch", "PreArm: Internal errors 0x100000 l:66 flow_of_ctrl"]}
{"timestamp": "2025-12-28T11:01:48.869772Z", "telemetry": {"lat": 28.7532452, "lon": 77.1177195, "satellites": 9, "altitude_gps_m": 213.64999389648438, "groundspeed_mps": 0.5225753784179688}, "flight": {"mode": "STABILIZE", "armed": false}, "ekf": {"attitude": {"roll": -0.029247861355543137, "pitch": 0.0003620292991399765, "yaw": 3.0460703372955322}, "local_position": {"x": 17.50676918029785, "y": -14.084184646606445, "z": -4.723930835723877}, "status": {"flags": 33599, "velocity_variance": 0.138582244515419, "pos_horiz_variance": 0.038354530930519104, "pos_vert_variance": 0.027247870340943336}}, "errors": ["PreArm: Hardware safety switch", "PreArm: GPS glitching", "PreArm: Internal errors 0x100000 l:66 flow_of_ctrl", "PreArm: Hardware safety switch", "PreArm: Internal errors 0x100000 l:66 flow_of_ctrl"]}
{"timestamp": "2025-12-28T11:01:49.868446Z", "telemetry": {"lat": 28.7532446, "lon": 77.1177193, "satellites": 9, "altitude_gps_m": 213.76998901367188, "groundspeed_mps": 0.5029899477958679}, "flight": {"mode": "STABILIZE", "armed": false}, "ekf": {"attitude": {"roll": -0.029754284769296646, "pitch": -0.0005697235465049744, "yaw": 3.0459303855895996}, "local_position": {"x": 17.835330963134766, "y": -14.275242805480957, "z": -4.821902751922607}, "status": {"flags": 33599, "velocity_variance": 0.29015496373176575, "pos_horiz_variance": 0.02977810986340046, "pos_vert_variance": 0.053552452474832535}}, "errors": ["PreArm: Hardware safety switch", "PreArm: GPS glitching", "PreArm: Internal errors 0x100000 l:66 flow_of_ctrl", "PreArm: Hardware safety switch", "PreArm: Internal errors 0x100000 l:66 flow_of_ctrl"]}
{"timestamp": "2025-12-28T11:01:50.868352Z", "telemetry": {"lat": 28.753247, "lon": 77.1177168, "satellites": 9, "altitude_gps_m": 213.67999267578125, "groundspeed_mps": 0.4898601472377777}, "flight": {"mode": "STABILIZE", "armed": false}, "ekf": {"attitude": {"roll": -0.030418317764997482, "pitch": -0.0009652269072830677, "yaw": 3.0457379817962646}, "local_position": {"x": 18.138608932495117, "y": -14.506698608398438, "z": -4.799061298370361}, "status": {"flags": 33599, "velocity_variance": 0.18739768862724304, "pos_horiz_variance": 0.02663522958755493, "pos_vert_variance": 0.0638333112001419}}, "errors": ["PreArm: Hardware safety switch", "PreArm: GPS glitching", "PreArm: Internal errors 0x100000 l:66 flow_of_ctrl", "PreArm: Hardware safety switch", "PreArm: Internal errors 0x100000 l:66 flow_of_ctrl"]}
{"timestamp": "2025-12-28T11:01:51.868598Z", "telemetry": {"lat": 28.7532576, "lon": 77.1177142, "satellites": 10, "altitude_gps_m": 213.61000061035156, "groundspeed_mps": 0.539382815361023}, "flight": {"mode": "STABILIZE", "armed": false}, "ekf": {"attitude": {"roll": -0.03092949464917183, "pitch": -0.0010023219510912895, "yaw": 3.045659303665161}, "local_position": {"x": 18.861021041870117, "y": -14.924454689025879, "z": -4.683745861053467}, "status": {"flags": 33599, "velocity_variance": 0.22192633152008057, "pos_horiz_variance": 0.033438410609960556, "pos_vert_variance": 0.06957878172397614}}, "errors": ["PreArm: Hardware safety switch", "PreArm: GPS glitching", "PreArm: Internal errors 0x100000 l:66 flow_of_ctrl", "PreArm: Hardware safety switch", "PreArm: Internal errors 0x100000 l:66 flow_of_ctrl"]}
{"timestamp": "2025-12-28T11:01:52.868577Z", "telemetry": {"lat": 28.7532629, "lon": 77.1177137, "satellites": 10, "altitude_gps_m": 213.55999755859375, "groundspeed_mps": 0.5377698540687561}, "flight": {"mode": "STABILIZE", "armed": false}, "ekf": {"attitude": {"roll": -0.03165711835026741, "pitch": -0.0013474584557116032, "yaw": 3.045442581176758}, "local_position": {"x": 19.173572540283203, "y": -15.017132759094238, "z": -4.668505668640137}, "status": {"flags": 33599, "velocity_variance": 0.3947865962982178, "pos_horiz_variance": 0.03641791641712189, "pos_vert_variance": 0.059509508311748505}}, "errors": ["PreArm: Hardware safety switch", "PreArm: GPS glitching", "PreArm: Internal errors 0x100000 l:66 flow_of_ctrl", "PreArm: Hardware safety switch", "PreArm: Internal errors 0x100000 l:66 flow_of_ctrl"]}
{"timestamp": "2025-12-28T11:01:53.868776Z", "telemetry": {"lat": 28.7532629, "lon": 77.1177137, "satellites": 10, "altitude_gps_m": 213.55999755859375, "groundspeed_mps": 0.5377698540687561}, "flight": {"mode": "STABILIZE", "armed": false}, "ekf": {"attitude": {"roll": -0.03165711835026741, "pitch": -0.0013474584557116032, "yaw": 3.045442581176758}, "local_position": {"x": 19.173572540283203, "y": -15.017132759094238, "z": -4.668505668640137}, "status": {"flags": 33599, "velocity_variance": 0.3947865962982178, "pos_horiz_variance": 0.03641791641712189, "pos_vert_variance": 0.059509508311748505}}, "errors": ["PreArm: Hardware safety switch", "PreArm: GPS glitching", "PreArm: Internal errors 0x100000 l:66 flow_of_ctrl", "PreArm: Hardware safety switch", "PreArm: Internal errors 0x100000 l:66 flow_of_ctrl"]}
{"timestamp": "2025-12-28T11:01:54.869248Z", "telemetry": {"lat": 28.7532629, "lon": 77.1177137, "satellites": 10, "altitude_gps_m": 213.55999755859375, "groundspeed_mps": 0.5377698540687561}, "flight": {"mode": "STABILIZE", "armed": false}, "ekf": {"attitude": {"roll": -0.03165711835026741, "pitch": -0.0013474584557116032, "yaw": 3.045442581176758}, "local_position": {"x": 19.173572540283203, "y": -15.017132759094238, "z": -4.668505668640137}, "status": {"flags": 33599, "velocity_variance": 0.3947865962982178, "pos_horiz_variance": 0.03641791641712189, "pos_vert_variance": 0.059509508311748505}}, "errors": ["PreArm: Hardware safety switch", "PreArm: GPS glitching", "PreArm: Internal errors 0x100000 l:66 flow_of_ctrl", "PreArm: Hardware safety switch", "PreArm: Internal errors 0x100000 l:66 flow_of_ctrl"]}
{"timestamp": "2025-12-28T11:01:55.868630Z", "telemetry": {"lat": 28.7532629, "lon": 77.1177137, "satellites": 10, "altitude_gps_m": 213.55999755859375, "groundspeed_mps": 0.5377698540687561}, "flight": {"mode": "STABILIZE", "armed": false}, "ekf": {"attitude": {"roll": -0.03165711835026741, "pitch": -0.0013474584557116032, "yaw": 3.045442581176758}, "local_position": {"x": 19.173572540283203, "y": -15.017132759094238, "z": -4.668505668640137}, "status": {"flags": 33599, "velocity_variance": 0.3947865962982178, "pos_horiz_variance": 0.03641791641712189, "pos_vert_variance": 0.059509508311748505}}, "errors": ["PreArm: Hardware safety switch", "PreArm: GPS glitching", "PreArm: Internal errors 0x100000 l:66 flow_of_ctrl", "PreArm: Hardware safety switch", "PreArm: Internal errors 0x100000 l:66 flow_of_ctrl"]}
{"timestamp": "2025-12-28T11:01:56.868028Z", "telemetry": {"lat": 28.7532629, "lon": 77.1177137, "satellites": 10, "altitude_gps_m": 213.55999755859375, "groundspeed_mps": 0.5377698540687561}, "flight": {"mode": "STABILIZE", "armed": false}, "ekf": {"attitude": {"roll": -0.03165711835026741, "pitch": -0.0013474584557116032, "yaw": 3.045442581176758}, "local_position": {"x": 19.173572540283203, "y": -15.017132759094238, "z": -4.668505668640137}, "status": {"flags": 33599, "velocity_variance": 0.3947865962982178, "pos_horiz_variance": 0.03641791641712189, "pos_vert_variance": 0.059509508311748505}}, "errors": ["PreArm: Hardware safety switch", "PreArm: GPS glitching", "PreArm: Internal errors 0x100000 l:66 flow_of_ctrl", "PreArm: Hardware safety switch", "PreArm: Internal errors 0x100000 l:66 flow_of_ctrl"]}
{"timestamp": "2025-12-28T11:01:57.868597Z", "telemetry": {"lat": 28.7532629, "lon": 77.1177137, "satellites": 10, "altitude_gps_m": 213.55999755859375, "groundspeed_mps": 0.5377698540687561}, "flight": {"mode": "STABILIZE", "armed": false}, "ekf": {"attitude": {"roll": -0.03165711835026741, "pitch": -0.0013474584557116032, "yaw": 3.045442581176758}, "local_position": {"x": 19.173572540283203, "y": -15.017132759094238, "z": -4.668505668640137}, "status": {"flags": 33599, "velocity_variance": 0.3947865962982178, "pos_horiz_variance": 0.03641791641712189, "pos_vert_variance": 0.059509508311748505}}, "errors": ["PreArm: Hardware safety switch", "PreArm: GPS glitching", "PreArm: Internal errors 0x100000 l:66 flow_of_ctrl", "PreArm: Hardware safety switch", "PreArm: Internal errors 0x100000 l:66 flow_of_ctrl"]}
{"timestamp": "2025-12-28T11:01:58.868783Z", "telemetry": {"lat": 28.7532629, "lon": 77.1177137, "satellites": 10, "altitude_gps_m": 213.55999755859375, "groundspeed_mps": 0.5377698540687561}, "flight": {"mode": "STABILIZE", "armed": false}, "ekf": {"attitude": {"roll": -0.03165711835026741, "pitch": -0.0013474584557116032, "yaw": 3.045442581176758}, "local_position": {"x": 19.173572540283203, "y": -15.017132759094238, "z": -4.668505668640137}, "status": {"flags": 33599, "velocity_variance": 0.3947865962982178, "pos_horiz_variance": 0.03641791641712189, "pos_vert_variance": 0.059509508311748505}}, "errors": ["PreArm: Hardware safety switch", "PreArm: GPS glitching", "PreArm: Internal errors 0x100000 l:66 flow_of_ctrl", "PreArm: Hardware safety switch", "PreArm: Internal errors 0x100000 l:66 flow_of_ctrl"]}
{"timestamp": "2025-12-28T11:01:59.867920Z", "telemetry": {"lat": 28.7532629, "lon": 77.1177137, "satellites": 10, "altitude_gps_m": 213.55999755859375, "groundspeed_mps": 0.5377698540687561}, "flight": {"mode": "STABILIZE", "armed": false}, "ekf": {"attitude": {"roll": -0.03165711835026741, "pitch": -0.0013474584557116032, "yaw": 3.045442581176758}, "local_position": {"x": 19.173572540283203, "y": -15.017132759094238, "z": -4.668505668640137}, "status": {"flags": 33599, "velocity_variance": 0.3947865962982178, "pos_horiz_variance": 0.03641791641712189, "pos_vert_variance": 0.059509508311748505}}, "errors": ["PreArm: Hardware safety switch", "PreArm: GPS glitching", "PreArm: Internal errors 0x100000 l:66 flow_of_ctrl", "PreArm: Hardware safety switch", "PreArm: Internal errors 0x100000 l:66 flow_of_ctrl"]}
{"timestamp": "2025-12-28T11:02:00.870529Z", "telemetry": {"lat": 28.7532629, "lon": 77.1177137, "satellites": 10, "altitude_gps_m": 213.55999755859375, "groundspeed_mps": 0.5377698540687561}, "flight": {"mode": "STABILIZE", "armed": false}, "ekf": {"attitude": {"roll": -0.03165711835026741, "pitch": -0.0013474584557116032, "yaw": 3.045442581176758}, "local_position": {"x": 19.173572540283203, "y": -15.017132759094238, "z": -4.668505668640137}, "status": {"flags": 33599, "velocity_variance": 0.3947865962982178, "pos_horiz_variance": 0.03641791641712189, "pos_vert_variance": 0.059509508311748505}}, "errors": ["PreArm: Hardware safety switch", "PreArm: GPS glitching", "PreArm: Internal errors 0x100000 l:66 flow_of_ctrl", "PreArm: Hardware safety switch", "PreArm: Internal errors 0x100000 l:66 flow_of_ctrl"]}
{"timestamp": "2025-12-28T11:02:01.867881Z", "telemetry": {"lat": 28.7532629, "lon": 77.1177137, "satellites": 10, "altitude_gps_m": 213.55999755859375, "groundspeed_mps": 0.5377698540687561}, "flight": {"mode": "STABILIZE", "armed": false}, "ekf": {"attitude": {"roll": -0.03165711835026741, "pitch": -0.0013474584557116032, "yaw": 3.045442581176758}, "local_position": {"x": 19.173572540283203, "y": -15.017132759094238, "z": -4.668505668640137}, "status": {"flags": 33599, "velocity_variance": 0.3947865962982178, "pos_horiz_variance": 0.03641791641712189, "pos_vert_variance": 0.059509508311748505}}, "errors": ["PreArm: Hardware safety switch", "PreArm: GPS glitching", "PreArm: Internal errors 0x100000 l:66 flow_of_ctrl", "PreArm: Hardware safety switch", "PreArm: Internal errors 0x100000 l:66 flow_of_ctrl"]}
{"timestamp": "2025-12-28T11:02:02.868763Z", "telemetry": {"lat": 28.7532629, "lon": 77.1177137, "satellites": 10, "altitude_gps_m": 213.55999755859375, "groundspeed_mps": 0.5377698540687561}, "flight": {"mode": "STABILIZE", "armed": false}, "ekf": {"attitude": {"roll": -0.03165711835026741, "pitch": -0.0013474584557116032, "yaw": 3.045442581176758}, "local_position": {"x": 19.173572540283203, "y": -15.017132759094238, "z": -4.668505668640137}, "status": {"flags": 33599, "velocity_variance": 0.3947865962982178, "pos_horiz_variance": 0.03641791641712189, "pos_vert_variance": 0.059509508311748505}}, "errors": ["PreArm: Hardware safety switch", "PreArm: GPS glitching", "PreArm: Internal errors 0x100000 l:66 flow_of_ctrl", "PreArm: Hardware safety switch", "PreArm: Internal errors 0x100000 l:66 flow_of_ctrl"]}
{"timestamp": "2025-12-28T11:02:03.868397Z", "telemetry": {"lat": 28.7532629, "lon": 77.1177137, "satellites": 10, "altitude_gps_m": 213.55999755859375, "groundspeed_mps": 0.5377698540687561}, "flight": {"mode": "STABILIZE", "armed": false}, "ekf": {"attitude": {"roll": -0.03165711835026741, "pitch": -0.0013474584557116032, "yaw": 3.045442581176758}, "local_position": {"x": 19.173572540283203, "y": -15.017132759094238, "z": -4.668505668640137}, "status": {"flags": 33599, "velocity_variance": 0.3947865962982178, "pos_horiz_variance": 0.03641791641712189, "pos_vert_variance": 0.059509508311748505}}, "errors": ["PreArm: Hardware safety switch", "PreArm: GPS glitching", "PreArm: Internal errors 0x100000 l:66 flow_of_ctrl", "PreArm: Hardware safety switch", "PreArm: Internal errors 0x100000 l:66 flow_of_ctrl"]}
{"timestamp": "2025-12-28T11:02:04.868227Z", "telemetry": {"lat": 28.7532629, "lon": 77.1177137, "satellites": 10, "altitude_gps_m": 213.55999755859375, "groundspeed_mps": 0.5377698540687561}, "flight": {"mode": "STABILIZE", "armed": false}, "ekf": {"attitude": {"roll": -0.03165711835026741, "pitch": -0.0013474584557116032, "yaw": 3.045442581176758}, "local_position": {"x": 19.173572540283203, "y": -15.017132759094238, "z": -4.668505668640137}, "status": {"flags": 33599, "velocity_variance": 0.3947865962982178, "pos_horiz_variance": 0.03641791641712189, "pos_vert_variance": 0.059509508311748505}}, "errors": ["PreArm: Hardware safety switch", "PreArm: GPS glitching", "PreArm: Internal errors 0x100000 l:66 flow_of_ctrl", "PreArm: Hardware safety switch", "PreArm: Internal errors 0x100000 l:66 flow_of_ctrl"]}
{"timestamp": "2025-12-28T11:02:05.868825Z", "telemetry": {"lat": 28.7532629, "lon": 77.1177137, "satellites": 10, "altitude_gps_m": 213.55999755859375, "groundspeed_mps": 0.5377698540687561}, "flight": {"mode": "STABILIZE", "armed": false}, "ekf": {"attitude": {"roll": -0.03165711835026741, "pitch": -0.0013474584557116032, "yaw": 3.045442581176758}, "local_position": {"x": 19.173572540283203, "y": -15.017132759094238, "z": -4.668505668640137}, "status": {"flags": 33599, "velocity_variance": 0.3947865962982178, "pos_horiz_variance": 0.03641791641712189, "pos_vert_variance": 0.059509508311748505}}, "errors": ["PreArm: Hardware safety switch", "PreArm: GPS glitching", "PreArm: Internal errors 0x100000 l:66 flow_of_ctrl", "PreArm: Hardware safety switch", "PreArm: Internal errors 0x100000 l:66 flow_of_ctrl"]}
{"timestamp": "2025-12-28T11:02:06.868525Z", "telemetry": {"lat": 28.7532629, "lon": 77.1177137, "satellites": 10, "altitude_gps_m": 213.55999755859375, "groundspeed_mps": 0.5377698540687561}, "flight": {"mode": "STABILIZE", "armed": false}, "ekf": {"attitude": {"roll": -0.03165711835026741, "pitch": -0.0013474584557116032, "yaw": 3.045442581176758}, "local_position": {"x": 19.173572540283203, "y": -15.017132759094238, "z": -4.668505668640137}, "status": {"flags": 33599, "velocity_variance": 0.3947865962982178, "pos_horiz_variance": 0.03641791641712189, "pos_vert_variance": 0.059509508311748505}}, "errors": ["PreArm: Hardware safety switch", "PreArm: GPS glitching", "PreArm: Internal errors 0x100000 l:66 flow_of_ctrl", "PreArm: Hardware safety switch", "PreArm: Internal errors 0x100000 l:66 flow_of_ctrl"]}
{"timestamp": "2025-12-28T11:02:07.868742Z", "telemetry": {"lat": 28.7532629, "lon": 77.1177137, "satellites": 10, "altitude_gps_m": 213.55999755859375, "groundspeed_mps": 0.5377698540687561}, "flight": {"mode": "STABILIZE", "armed": false}, "ekf": {"attitude": {"roll": -0.03165711835026741, "pitch": -0.0013474584557116032, "yaw": 3.045442581176758}, "local_position": {"x": 19.173572540283203, "y": -15.017132759094238, "z": -4.668505668640137}, "status": {"flags": 33599, "velocity_variance": 0.3947865962982178, "pos_horiz_variance": 0.03641791641712189, "pos_vert_variance": 0.059509508311748505}}, "errors": ["PreArm: Hardware safety switch", "PreArm: GPS glitching", "PreArm: Internal errors 0x100000 l:66 flow_of_ctrl", "PreArm: Hardware safety switch", "PreArm: Internal errors 0x100000 l:66 flow_of_ctrl"]}
{"timestamp": "2025-12-28T11:02:08.868871Z", "telemetry": {"lat": 28.7532629, "lon": 77.1177137, "satellites": 10, "altitude_gps_m": 213.55999755859375, "groundspeed_mps": 0.5377698540687561}, "flight": {"mode": "STABILIZE", "armed": false}, "ekf": {"attitude": {"roll": -0.03165711835026741, "pitch": -0.0013474584557116032, "yaw": 3.045442581176758}, "local_position": {"x": 19.173572540283203, "y": -15.017132759094238, "z": -4.668505668640137}, "status": {"flags": 33599, "velocity_variance": 0.3947865962982178, "pos_horiz_variance": 0.03641791641712189, "pos_vert_variance": 0.059509508311748505}}, "errors": ["PreArm: Hardware safety switch", "PreArm: GPS glitching", "PreArm: Internal errors 0x100000 l:66 flow_of_ctrl", "PreArm: Hardware safety switch", "PreArm: Internal errors 0x100000 l:66 flow_of_ctrl"]}
{"timestamp": "2025-12-28T11:02:09.868669Z", "telemetry": {"lat": 28.7532629, "lon": 77.1177137, "satellites": 10, "altitude_gps_m": 213.55999755859375, "groundspeed_mps": 0.5377698540687561}, "flight": {"mode": "STABILIZE", "armed": false}, "ekf": {"attitude": {"roll": -0.03165711835026741, "pitch": -0.0013474584557116032, "yaw": 3.045442581176758}, "local_position": {"x": 19.173572540283203, "y": -15.017132759094238, "z": -4.668505668640137}, "status": {"flags": 33599, "velocity_variance": 0.3947865962982178, "pos_horiz_variance": 0.03641791641712189, "pos_vert_variance": 0.059509508311748505}}, "errors": ["PreArm: Hardware safety switch", "PreArm: GPS glitching", "PreArm: Internal errors 0x100000 l:66 flow_of_ctrl", "PreArm: Hardware safety switch", "PreArm: Internal errors 0x100000 l:66 flow_of_ctrl"]}
{"timestamp": "2025-12-28T11:02:10.868948Z", "telemetry": {"lat": 28.7532629, "lon": 77.1177137, "satellites": 10, "altitude_gps_m": 213.55999755859375, "groundspeed_mps": 0.5377698540687561}, "flight": {"mode": "STABILIZE", "armed": false}, "ekf": {"attitude": {"roll": -0.03165711835026741, "pitch": -0.0013474584557116032, "yaw": 3.045442581176758}, "local_position": {"x": 19.173572540283203, "y": -15.017132759094238, "z": -4.668505668640137}, "status": {"flags": 33599, "velocity_variance": 0.3947865962982178, "pos_horiz_variance": 0.03641791641712189, "pos_vert_variance": 0.059509508311748505}}, "errors": ["PreArm: Hardware safety switch", "PreArm: GPS glitching", "PreArm: Internal errors 0x100000 l:66 flow_of_ctrl", "PreArm: Hardware safety switch", "PreArm: Internal errors 0x100000 l:66 flow_of_ctrl"]}
{"timestamp": "2025-12-28T11:02:11.868404Z", "telemetry": {"lat": 28.7532629, "lon": 77.1177137, "satellites": 10, "altitude_gps_m": 213.55999755859375, "groundspeed_mps": 0.5377698540687561}, "flight": {"mode": "STABILIZE", "armed": false}, "ekf": {"attitude": {"roll": -0.03165711835026741, "pitch": -0.0013474584557116032, "yaw": 3.045442581176758}, "local_position": {"x": 19.173572540283203, "y": -15.017132759094238, "z": -4.668505668640137}, "status": {"flags": 33599, "velocity_variance": 0.3947865962982178, "pos_horiz_variance": 0.03641791641712189, "pos_vert_variance": 0.059509508311748505}}, "errors": ["PreArm: Hardware safety switch", "PreArm: GPS glitching", "PreArm: Internal errors 0x100000 l:66 flow_of_ctrl", "PreArm: Hardware safety switch", "PreArm: Internal errors 0x100000 l:66 flow_of_ctrl"]}
{"timestamp": "2025-12-28T11:02:12.868523Z", "telemetry": {"lat": 28.7532629, "lon": 77.1177137, "satellites": 10, "altitude_gps_m": 213.55999755859375, "groundspeed_mps": 0.5377698540687561}, "flight": {"mode": "STABILIZE", "armed": false}, "ekf": {"attitude": {"roll": -0.03165711835026741, "pitch": -0.0013474584557116032, "yaw": 3.045442581176758}, "local_position": {"x": 19.173572540283203, "y": -15.017132759094238, "z": -4.668505668640137}, "status": {"flags": 33599, "velocity_variance": 0.3947865962982178, "pos_horiz_variance": 0.03641791641712189, "pos_vert_variance": 0.059509508311748505}}, "errors": ["PreArm: Hardware safety switch", "PreArm: GPS glitching", "PreArm: Internal errors 0x100000 l:66 flow_of_ctrl", "PreArm: Hardware safety switch", "PreArm: Internal errors 0x100000 l:66 flow_of_ctrl"]}
