{"timestamp": "2025-12-28T08:55:04.516411Z", "telemetry": {"lat": 28.7531231, "lon": 77.1178337, "satellites": 8, "altitude_gps_m": 232.1599884033203, "groundspeed_mps": 0.009436309337615967}, "flight": {"mode": null, "armed": null}, "ekf": {"attitude": {"roll": 0.01795121282339096, "pitch": 0.03840135037899017, "yaw": 2.770779609680176}, "local_position": {"x": null, "y": null, "z": null}, "status": {"flags": 135, "velocity_variance": 0.0, "pos_horiz_variance": 0.0020373191218823195, "pos_vert_variance": 0.039169229567050934}}, "errors": []}
{"timestamp": "2025-12-28T08:55:05.459094Z", "telemetry": {"lat": 28.753114, "lon": 77.1178351, "satellites": 8, "altitude_gps_m": 232.1999969482422, "groundspeed_mps": 0.010153697803616524}, "flight": {"mode": "LOITER", "armed": false}, "ekf": {"attitude": {"roll": 0.01794559322297573, "pitch": 0.03846954554319382, "yaw": 2.7709059715270996}, "local_position": {"x": null, "y": null, "z": null}, "status": {"flags": 135, "velocity_variance": 0.0, "pos_horiz_variance": 0.002303011016920209, "pos_vert_variance": 0.01693948730826378}}, "errors": ["PreArm: Need Alt Estimate", "PreArm: Hardware safety switch", "PreArm: AHRS: waiting for home"]}
{"timestamp": "2025-12-28T08:55:06.410998Z", "telemetry": {"lat": 28.7531144, "lon": 77.1178345, "satellites": 8, "altitude_gps_m": 230.1699981689453, "groundspeed_mps": 0.011435587890446186}, "flight": {"mode": "LOITER", "armed": false}, "ekf": {"attitude": {"roll": 0.018078584223985672, "pitch": 0.038562625646591187, "yaw": 2.7712650299072266}, "local_position": {"x": null, "y": null, "z": null}, "status": {"flags": 135, "velocity_variance": 0.0, "pos_horiz_variance": 0.0025175788905471563, "pos_vert_variance": 0.08914858102798462}}, "errors": ["PreArm: Need Alt Estimate", "PreArm: Hardware safety switch", "PreArm: AHRS: waiting for home"]}
{"timestamp": "2025-12-28T08:55:07.374129Z", "telemetry": {"lat": 28.7531159, "lon": 77.1178276, "satellites": 8, "altitude_gps_m": 227.6599884033203, "groundspeed_mps": 0.011577955447137356}, "flight": {"mode": "LOITER", "armed": false}, "ekf": {"attitude": {"roll": 0.018030758947134018, "pitch": 0.03861622139811516, "yaw": 2.771315574645996}, "local_position": {"x": null, "y": null, "z": null}, "status": {"flags": 135, "velocity_variance": 0.0, "pos_horiz_variance": 0.0029192750807851553, "pos_vert_variance": 0.020450614392757416}}, "errors": ["PreArm: Need Alt Estimate", "PreArm: Hardware safety switch", "PreArm: AHRS: waiting for home"]}
{"timestamp": "2025-12-28T08:55:08.369574Z", "telemetry": {"lat": 28.7531133, "lon": 77.1178249, "satellites": 8, "altitude_gps_m": 226.14999389648438, "groundspeed_mps": 0.013577131554484367}, "flight": {"mode": "LOITER", "armed": false}, "ekf": {"attitude": {"roll": 0.01804429292678833, "pitch": 0.03870755061507225, "yaw": 2.7714874744415283}, "local_position": {"x": null, "y": null, "z": null}, "status": {"flags": 135, "velocity_variance": 0.0, "pos_horiz_variance": 0.003059002570807934, "pos_vert_variance": 0.033704034984111786}}, "errors": ["PreArm: Need Alt Estimate", "PreArm: Hardware safety switch", "PreArm: AHRS: waiting for home"]}
{"timestamp": "2025-12-28T08:55:09.368508Z", "telemetry": {"lat": 28.7531036, "lon": 77.1178134, "satellites": 8, "altitude_gps_m": 222.58999633789062, "groundspeed_mps": 0.014332778751850128}, "flight": {"mode": "LOITER", "armed": false}, "ekf": {"attitude": {"roll": 0.01813172735273838, "pitch": 0.03874357417225838, "yaw": 2.7716588973999023}, "local_position": {"x": null, "y": null, "z": null}, "status": {"flags": 135, "velocity_variance": 0.0, "pos_horiz_variance": 0.0035507846623659134, "pos_vert_variance": 0.03420152887701988}}, "errors": ["PreArm: Need Alt Estimate", "PreArm: Hardware safety switch", "PreArm: AHRS: waiting for home"]}
{"timestamp": "2025-12-28T08:55:10.370528Z", "telemetry": {"lat": 28.7531087, "lon": 77.1178091, "satellites": 8, "altitude_gps_m": 220.47999572753906, "groundspeed_mps": 0.015106718055903912}, "flight": {"mode": "LOITER", "armed": false}, "ekf": {"attitude": {"roll": 0.01806897483766079, "pitch": 0.038728270679712296, "yaw": 2.77168869972229}, "local_position": {"x": null, "y": null, "z": null}, "status": {"flags": 135, "velocity_variance": 0.0, "pos_horiz_variance": 0.0038074972108006477, "pos_vert_variance": 0.10824750363826752}}, "errors": ["PreArm: Need Alt Estimate", "PreArm: Hardware safety switch", "PreArm: AHRS: waiting for home"]}
{"timestamp": "2025-12-28T08:55:11.372252Z", "telemetry": {"lat": 28.7531058, "lon": 77.1178054, "satellites": 8, "altitude_gps_m": 217.8699951171875, "groundspeed_mps": 0.015666067600250244}, "flight": {"mode": "LOITER", "armed": false}, "ekf": {"attitude": {"roll": 0.01800634153187275, "pitch": 0.038575030863285065, "yaw": 2.7714130878448486}, "local_position": {"x": null, "y": null, "z": null}, "status": {"flags": 135, "velocity_variance": 0.0, "pos_horiz_variance": 0.004025266505777836, "pos_vert_variance": 0.015558697283267975}}, "errors": ["PreArm: Need Alt Estimate", "PreArm: Hardware safety switch", "PreArm: AHRS: waiting for home"]}
{"timestamp": "2025-12-28T08:55:12.368312Z", "telemetry": {"lat": 28.7530924, "lon": 77.117799, "satellites": 8, "altitude_gps_m": 215.1999969482422, "groundspeed_mps": 0.012819486670196056}, "flight": {"mode": "LOITER", "armed": false}, "ekf": {"attitude": {"roll": 0.017950039356946945, "pitch": 0.03846192732453346, "yaw": 2.771075963973999}, "local_position": {"x": null, "y": null, "z": null}, "status": {"flags": 135, "velocity_variance": 0.0, "pos_horiz_variance": 0.004153614863753319, "pos_vert_variance": 0.019463233649730682}}, "errors": ["PreArm: Need Alt Estimate", "PreArm: Hardware safety switch", "PreArm: AHRS: waiting for home"]}
{"timestamp": "2025-12-28T08:55:13.368155Z", "telemetry": {"lat": 28.7530913, "lon": 77.1177987, "satellites": 8, "altitude_gps_m": 214.14999389648438, "groundspeed_mps": 0.011909309774637222}, "flight": {"mode": "LOITER", "armed": false}, "ekf": {"attitude": {"roll": 0.01798255927860737, "pitch": 0.038366299122571945, "yaw": 2.7706170082092285}, "local_position": {"x": null, "y": null, "z": null}, "status": {"flags": 135, "velocity_variance": 0.0, "pos_horiz_variance": 0.003720078617334366, "pos_vert_variance": 0.013834177516400814}}, "errors": ["PreArm: Need Alt Estimate", "PreArm: Hardware safety switch", "PreArm: AHRS: waiting for home"]}
{"timestamp": "2025-12-28T08:55:14.368824Z", "telemetry": {"lat": 28.7530898, "lon": 77.1177995, "satellites": 8, "altitude_gps_m": 213.75, "groundspeed_mps": 0.011010444723069668}, "flight": {"mode": "LOITER", "armed": false}, "ekf": {"attitude": {"roll": 0.01791233755648136, "pitch": 0.03827371820807457, "yaw": 2.7702829837799072}, "local_position": {"x": null, "y": null, "z": null}, "status": {"flags": 135, "velocity_variance": 0.0, "pos_horiz_variance": 0.00351070542819798, "pos_vert_variance": 0.0612802729010582}}, "errors": ["PreArm: Need Alt Estimate", "PreArm: Hardware safety switch", "PreArm: AHRS: waiting for home"]}
{"timestamp": "2025-12-28T08:55:15.367950Z", "telemetry": {"lat": 28.7530857, "lon": 77.1177941, "satellites": 7, "altitude_gps_m": 211.5, "groundspeed_mps": 0.008147348649799824}, "flight": {"mode": "LOITER", "armed": false}, "ekf": {"attitude": {"roll": 0.017854640260338783, "pitch": 0.03813227266073227, "yaw": 2.7704310417175293}, "local_position": {"x": null, "y": null, "z": null}, "status": {"flags": 135, "velocity_variance": 0.0, "pos_horiz_variance": 0.0031895712018013, "pos_vert_variance": 0.0582696907222271}}, "errors": ["PreArm: Need Alt Estimate", "PreArm: Hardware safety switch", "PreArm: AHRS: waiting for home"]}
{"timestamp": "2025-12-28T08:55:16.368605Z", "telemetry": {"lat": 28.7530831, "lon": 77.1177954, "satellites": 7, "altitude_gps_m": 211.77999877929688, "groundspeed_mps": 0.005193339195102453}, "flight": {"mode": "LOITER", "armed": false}, "ekf": {"attitude": {"roll": 0.01791074499487877, "pitch": 0.03804056718945503, "yaw": 2.770406723022461}, "local_position": {"x": null, "y": null, "z": null}, "status": {"flags": 135, "velocity_variance": 0.0, "pos_horiz_variance": 0.0023972748313099146, "pos_vert_variance": 0.024686051532626152}}, "errors": ["PreArm: Need Alt Estimate", "PreArm: Hardware safety switch", "PreArm: AHRS: waiting for home"]}
{"timestamp": "2025-12-28T08:55:17.374712Z", "telemetry": {"lat": 28.7530768, "lon": 77.1177973, "satellites": 7, "altitude_gps_m": 212.09999084472656, "groundspeed_mps": 0.0062550329603254795}, "flight": {"mode": "LOITER", "armed": false}, "ekf": {"attitude": {"roll": 0.017855744808912277, "pitch": 0.03800942748785019, "yaw": 2.7703123092651367}, "local_position": {"x": null, "y": null, "z": null}, "status": {"flags": 135, "velocity_variance": 0.0, "pos_horiz_variance": 0.0017511231126263738, "pos_vert_variance": 0.00692589208483696}}, "errors": ["PreArm: Need Alt Estimate", "PreArm: Hardware safety switch", "PreArm: AHRS: waiting for home"]}
{"timestamp": "2025-12-28T08:55:18.373719Z", "telemetry": {"lat": 28.753072, "lon": 77.1177973, "satellites": 7, "altitude_gps_m": 211.27999877929688, "groundspeed_mps": 0.006310428958386183}, "flight": {"mode": "LOITER", "armed": false}, "ekf": {"attitude": {"roll": 0.01779644936323166, "pitch": 0.038061924278736115, "yaw": 2.7701315879821777}, "local_position": {"x": null, "y": null, "z": null}, "status": {"flags": 135, "velocity_variance": 0.0, "pos_horiz_variance": 0.001551071647554636, "pos_vert_variance": 0.06263786554336548}}, "errors": ["PreArm: Need Alt Estimate", "PreArm: Hardware safety switch", "PreArm: AHRS: waiting for home"]}
{"timestamp": "2025-12-28T08:55:19.371614Z", "telemetry": {"lat": 28.7530695, "lon": 77.117796, "satellites": 7, "altitude_gps_m": 210.9199981689453, "groundspeed_mps": 0.0067763132974505424}, "flight": {"mode": "LOITER", "armed": false}, "ekf": {"attitude": {"roll": 0.01766519621014595, "pitch": 0.038079436868429184, "yaw": 2.7699849605560303}, "local_position": {"x": null, "y": null, "z": null}, "status": {"flags": 135, "velocity_variance": 0.0, "pos_horiz_variance": 0.0013282709987834096, "pos_vert_variance": 0.061345942318439484}}, "errors": ["PreArm: Need Alt Estimate", "PreArm: Hardware safety switch", "PreArm: AHRS: waiting for home"]}
{"timestamp": "2025-12-28T08:55:20.367893Z", "telemetry": {"lat": 28.7530689, "lon": 77.1177934, "satellites": 7, "altitude_gps_m": 210.04998779296875, "groundspeed_mps": 0.005298422649502754}, "flight": {"mode": "LOITER", "armed": false}, "ekf": {"attitude": {"roll": 0.017723027616739273, "pitch": 0.03811586648225784, "yaw": 2.7698209285736084}, "local_position": {"x": null, "y": null, "z": null}, "status": {"flags": 135, "velocity_variance": 0.0, "pos_horiz_variance": 0.0013902127975597978, "pos_vert_variance": 0.0005292531568557024}}, "errors": ["PreArm: Need Alt Estimate", "PreArm: Hardware safety switch", "PreArm: AHRS: waiting for home"]}
{"timestamp": "2025-12-28T08:55:21.368725Z", "telemetry": {"lat": 28.7530677, "lon": 77.1177906, "satellites": 6, "altitude_gps_m": 209.5399932861328, "groundspeed_mps": 0.0019862186163663864}, "flight": {"mode": "LOITER", "armed": false}, "ekf": {"attitude": {"roll": 0.017686190083622932, "pitch": 0.03811074420809746, "yaw": 2.769591808319092}, "local_position": {"x": null, "y": null, "z": null}, "status": {"flags": 135, "velocity_variance": 0.0, "pos_horiz_variance": 0.0010922965593636036, "pos_vert_variance": 0.031863391399383545}}, "errors": ["PreArm: Need Alt Estimate", "PreArm: Hardware safety switch", "PreArm: AHRS: waiting for home"]}
{"timestamp": "2025-12-28T08:55:22.368265Z", "telemetry": {"lat": 28.7530668, "lon": 77.1177889, "satellites": 7, "altitude_gps_m": 209.70999145507812, "groundspeed_mps": 0.0028930604457855225}, "flight": {"mode": "LOITER", "armed": false}, "ekf": {"attitude": {"roll": 0.017659367993474007, "pitch": 0.03809778392314911, "yaw": 2.7693545818328857}, "local_position": {"x": null, "y": null, "z": null}, "status": {"flags": 135, "velocity_variance": 0.0, "pos_horiz_variance": 0.0009540652390569448, "pos_vert_variance": 0.027264492586255074}}, "errors": ["PreArm: Need Alt Estimate", "PreArm: Hardware safety switch", "PreArm: AHRS: waiting for home"]}
{"timestamp": "2025-12-28T08:55:23.368521Z", "telemetry": {"lat": 28.7530659, "lon": 77.1177842, "satellites": 7, "altitude_gps_m": 208.69000244140625, "groundspeed_mps": 0.0028529090341180563}, "flight": {"mode": "LOITER", "armed": false}, "ekf": {"attitude": {"roll": 0.017726553604006767, "pitch": 0.038080230355262756, "yaw": 2.7693350315093994}, "local_position": {"x": null, "y": null, "z": null}, "status": {"flags": 135, "velocity_variance": 0.0, "pos_horiz_variance": 0.0008577417465858161, "pos_vert_variance": 0.032713882625103}}, "errors": ["PreArm: Need Alt Estimate", "PreArm: Hardware safety switch", "PreArm: AHRS: waiting for home"]}
{"timestamp": "2025-12-28T08:55:24.367870Z", "telemetry": {"lat": 28.7530602, "lon": 77.117774, "satellites": 7, "altitude_gps_m": 205.47000122070312, "groundspeed_mps": 0.0017314343713223934}, "flight": {"mode": "LOITER", "armed": false}, "ekf": {"attitude": {"roll": 0.017717158421874046, "pitch": 0.037963997572660446, "yaw": 2.769458055496216}, "local_position": {"x": null, "y": null, "z": null}, "status": {"flags": 135, "velocity_variance": 0.0, "pos_horiz_variance": 0.0006630729767493904, "pos_vert_variance": 0.06843744963407516}}, "errors": ["PreArm: Need Alt Estimate", "PreArm: Hardware safety switch", "PreArm: AHRS: waiting for home"]}
{"timestamp": "2025-12-28T08:55:25.367895Z", "telemetry": {"lat": 28.7530527, "lon": 77.1177641, "satellites": 7, "altitude_gps_m": 201.8699951171875, "groundspeed_mps": 0.0029106326401233673}, "flight": {"mode": "LOITER", "armed": false}, "ekf": {"attitude": {"roll": 0.017767284065485, "pitch": 0.03785140439867973, "yaw": 2.769223690032959}, "local_position": {"x": null, "y": null, "z": null}, "status": {"flags": 135, "velocity_variance": 0.0, "pos_horiz_variance": 0.0004490774590522051, "pos_vert_variance": 0.042844656854867935}}, "errors": ["PreArm: Need Alt Estimate", "PreArm: Hardware safety switch", "PreArm: AHRS: waiting for home"]}
{"timestamp": "2025-12-28T08:55:26.368722Z", "telemetry": {"lat": 28.7530404, "lon": 77.1177519, "satellites": 6, "altitude_gps_m": 198.83999633789062, "groundspeed_mps": 0.0059638675302267075}, "flight": {"mode": "LOITER", "armed": false}, "ekf": {"attitude": {"roll": 0.017861170694231987, "pitch": 0.037786271423101425, "yaw": 2.769043207168579}, "local_position": {"x": null, "y": null, "z": null}, "status": {"flags": 135, "velocity_variance": 0.0, "pos_horiz_variance": 0.0007376436842605472, "pos_vert_variance": 0.05095919594168663}}, "errors": ["PreArm: Need Alt Estimate", "PreArm: Hardware safety switch", "PreArm: AHRS: waiting for home"]}
{"timestamp": "2025-12-28T08:55:27.368809Z", "telemetry": {"lat": 28.7530193, "lon": 77.1177407, "satellites": 6, "altitude_gps_m": 196.5, "groundspeed_mps": 0.007579104509204626}, "flight": {"mode": "LOITER", "armed": false}, "ekf": {"attitude": {"roll": 0.017808010801672935, "pitch": 0.037645772099494934, "yaw": 2.7690422534942627}, "local_position": {"x": null, "y": null, "z": null}, "status": {"flags": 135, "velocity_variance": 0.0, "pos_horiz_variance": 0.0012255217880010605, "pos_vert_variance": 0.07628956437110901}}, "errors": ["PreArm: Need Alt Estimate", "PreArm: Hardware safety switch", "PreArm: AHRS: waiting for home"]}
{"timestamp": "2025-12-28T08:55:28.375498Z", "telemetry": {"lat": 28.7530078, "lon": 77.1177326, "satellites": 6, "altitude_gps_m": 193.86000061035156, "groundspeed_mps": 0.010189194232225418}, "flight": {"mode": "LOITER", "armed": false}, "ekf": {"attitude": {"roll": 0.017798664048314095, "pitch": 0.03764870762825012, "yaw": 2.7687742710113525}, "local_position": {"x": null, "y": null, "z": null}, "status": {"flags": 135, "velocity_variance": 0.0, "pos_horiz_variance": 0.001981116132810712, "pos_vert_variance": 0.0783037468791008}}, "errors": ["PreArm: Need Alt Estimate", "PreArm: Hardware safety switch", "PreArm: AHRS: waiting for home"]}
{"timestamp": "2025-12-28T08:55:29.371506Z", "telemetry": {"lat": 28.7529959, "lon": 77.1177253, "satellites": 6, "altitude_gps_m": 192.47000122070312, "groundspeed_mps": 0.011153562925755978}, "flight": {"mode": "LOITER", "armed": false}, "ekf": {"attitude": {"roll": 0.017829889431595802, "pitch": 0.03767329454421997, "yaw": 2.7686779499053955}, "local_position": {"x": null, "y": null, "z": null}, "status": {"flags": 135, "velocity_variance": 0.0, "pos_horiz_variance": 0.002480302006006241, "pos_vert_variance": 0.14129504561424255}}, "errors": ["PreArm: Need Alt Estimate", "PreArm: Hardware safety switch", "PreArm: AHRS: waiting for home"]}
{"timestamp": "2025-12-28T08:55:30.368168Z", "telemetry": {"lat": 28.7529869, "lon": 77.1177185, "satellites": 6, "altitude_gps_m": 190.739990234375, "groundspeed_mps": 0.012165018357336521}, "flight": {"mode": "LOITER", "armed": false}, "ekf": {"attitude": {"roll": 0.01779882423579693, "pitch": 0.037739966064691544, "yaw": 2.7685036659240723}, "local_position": {"x": null, "y": null, "z": null}, "status": {"flags": 135, "velocity_variance": 0.0, "pos_horiz_variance": 0.002969498746097088, "pos_vert_variance": 0.01996028423309326}}, "errors": ["PreArm: Need Alt Estimate", "PreArm: Hardware safety switch", "PreArm: AHRS: waiting for home"]}
{"timestamp": "2025-12-28T08:55:31.368285Z", "telemetry": {"lat": 28.7529859, "lon": 77.1177164, "satellites": 7, "altitude_gps_m": 190.1599884033203, "groundspeed_mps": 0.011443142779171467}, "flight": {"mode": "LOITER", "armed": false}, "ekf": {"attitude": {"roll": 0.017819087952375412, "pitch": 0.03776952251791954, "yaw": 2.768376350402832}, "local_position": {"x": null, "y": null, "z": null}, "status": {"flags": 135, "velocity_variance": 0.0, "pos_horiz_variance": 0.0031742395367473364, "pos_vert_variance": 0.001390928402543068}}, "errors": ["PreArm: Need Alt Estimate", "PreArm: Hardware safety switch", "PreArm: AHRS: waiting for home"]}
{"timestamp": "2025-12-28T08:55:32.368294Z", "telemetry": {"lat": 28.7530023, "lon": 77.1177147, "satellites": 7, "altitude_gps_m": 189.62998962402344, "groundspeed_mps": 0.009726951830089092}, "flight": {"mode": "LOITER", "armed": false}, "ekf": {"attitude": {"roll": 0.017875971272587776, "pitch": 0.03777233138680458, "yaw": 2.7682013511657715}, "local_position": {"x": null, "y": null, "z": null}, "status": {"flags": 135, "velocity_variance": 0.0, "pos_horiz_variance": 0.003091955790296197, "pos_vert_variance": 0.03487232327461243}}, "errors": ["PreArm: Need Alt Estimate", "PreArm: Hardware safety switch", "PreArm: AHRS: waiting for home"]}
{"timestamp": "2025-12-28T08:55:33.368422Z", "telemetry": {"lat": 28.7530217, "lon": 77.1177151, "satellites": 7, "altitude_gps_m": 189.45999145507812, "groundspeed_mps": 0.009540298022329807}, "flight": {"mode": "LOITER", "armed": false}, "ekf": {"attitude": {"roll": 0.01797378435730934, "pitch": 0.03781219571828842, "yaw": 2.7679250240325928}, "local_position": {"x": null, "y": null, "z": null}, "status": {"flags": 135, "velocity_variance": 0.0, "pos_horiz_variance": 0.002855370519682765, "pos_vert_variance": 0.05838458612561226}}, "errors": ["PreArm: Need Alt Estimate", "PreArm: Hardware safety switch", "PreArm: AHRS: waiting for home"]}
{"timestamp": "2025-12-28T08:55:34.368807Z", "telemetry": {"lat": 28.753038, "lon": 77.1177158, "satellites": 7, "altitude_gps_m": 189.7899932861328, "groundspeed_mps": 0.010391500778496265}, "flight": {"mode": "LOITER", "armed": false}, "ekf": {"attitude": {"roll": 0.017970601096749306, "pitch": 0.03783869743347168, "yaw": 2.767671823501587}, "local_position": {"x": null, "y": null, "z": null}, "status": {"flags": 135, "velocity_variance": 0.0, "pos_horiz_variance": 0.002865142421796918, "pos_vert_variance": 0.015418200753629208}}, "errors": ["PreArm: Need Alt Estimate", "PreArm: Hardware safety switch", "PreArm: AHRS: waiting for home"]}
{"timestamp": "2025-12-28T08:55:35.368762Z", "telemetry": {"lat": 28.7530495, "lon": 77.1177173, "satellites": 7, "altitude_gps_m": 190.26998901367188, "groundspeed_mps": 0.010299569927155972}, "flight": {"mode": "LOITER", "armed": false}, "ekf": {"attitude": {"roll": 0.017961667850613594, "pitch": 0.03791690990328789, "yaw": 2.7674498558044434}, "local_position": {"x": null, "y": null, "z": null}, "status": {"flags": 135, "velocity_variance": 0.0, "pos_horiz_variance": 0.002798996167257428, "pos_vert_variance": 0.03573806956410408}}, "errors": ["PreArm: Need Alt Estimate", "PreArm: Hardware safety switch", "PreArm: AHRS: waiting for home"]}
{"timestamp": "2025-12-28T08:55:36.368841Z", "telemetry": {"lat": 28.7530628, "lon": 77.1177232, "satellites": 7, "altitude_gps_m": 192.09999084472656, "groundspeed_mps": 0.010755299590528011}, "flight": {"mode": "LOITER", "armed": false}, "ekf": {"attitude": {"roll": 0.017969870939850807, "pitch": 0.03787737712264061, "yaw": 2.767324924468994}, "local_position": {"x": null, "y": null, "z": null}, "status": {"flags": 135, "velocity_variance": 0.0, "pos_horiz_variance": 0.002826676005497575, "pos_vert_variance": 0.05068798363208771}}, "errors": ["PreArm: Need Alt Estimate", "PreArm: Hardware safety switch", "PreArm: AHRS: waiting for home", "PreArm: Need Alt Estimate", "PreArm: Hardware safety switch", "PreArm: AHRS: waiting for home"]}
{"timestamp": "2025-12-28T08:55:37.368429Z", "telemetry": {"lat": 28.753071, "lon": 77.1177238, "satellites": 8, "altitude_gps_m": 192.0699920654297, "groundspeed_mps": 0.008775530382990837}, "flight": {"mode": "LOITER", "armed": false}, "ekf": {"attitude": {"roll": 0.01783643290400505, "pitch": 0.0378728024661541, "yaw": 2.767068386077881}, "local_position": {"x": null, "y": null, "z": null}, "status": {"flags": 135, "velocity_variance": 0.0, "pos_horiz_variance": 0.0027135785203427076, "pos_vert_variance": 0.01013477984815836}}, "errors": ["PreArm: Need Alt Estimate", "PreArm: Hardware safety switch", "PreArm: AHRS: waiting for home", "PreArm: Need Alt Estimate", "PreArm: Hardware safety switch", "PreArm: AHRS: waiting for home"]}
{"timestamp": "2025-12-28T08:55:38.367948Z", "telemetry": {"lat": 28.7530809, "lon": 77.1177275, "satellites": 8, "altitude_gps_m": 192.5800018310547, "groundspeed_mps": 0.010153461247682571}, "flight": {"mode": "LOITER", "armed": false}, "ekf": {"attitude": {"roll": 0.01776058040559292, "pitch": 0.03792988136410713, "yaw": 2.767028331756592}, "local_position": {"x": null, "y": null, "z": null}, "status": {"flags": 135, "velocity_variance": 0.0, "pos_horiz_variance": 0.0026000267826020718, "pos_vert_variance": 0.027020642533898354}}, "errors": ["PreArm: Need Alt Estimate", "PreArm: Hardware safety switch", "PreArm: AHRS: waiting for home", "PreArm: Need Alt Estimate", "PreArm: Hardware safety switch", "PreArm: AHRS: waiting for home"]}
{"timestamp": "2025-12-28T08:55:39.373462Z", "telemetry": {"lat": 28.7530895, "lon": 77.1177324, "satellites": 8, "altitude_gps_m": 193.19000244140625, "groundspeed_mps": 0.009485282935202122}, "flight": {"mode": "LOITER", "armed": false}, "ekf": {"attitude": {"roll": 0.01774129457771778, "pitch": 0.03800704702734947, "yaw": 2.767148733139038}, "local_position": {"x": null, "y": null, "z": null}, "status": {"flags": 135, "velocity_variance": 0.0, "pos_horiz_variance": 0.0027935688849538565, "pos_vert_variance": 0.0041236900724470615}}, "errors": ["PreArm: Need Alt Estimate", "PreArm: Hardware safety switch", "PreArm: AHRS: waiting for home", "PreArm: Need Alt Estimate", "PreArm: Hardware safety switch", "PreArm: AHRS: waiting for home"]}
{"timestamp": "2025-12-28T08:55:40.371463Z", "telemetry": {"lat": 28.7530977, "lon": 77.117735, "satellites": 8, "altitude_gps_m": 192.9099884033203, "groundspeed_mps": 0.007864137180149555}, "flight": {"mode": "LOITER", "armed": false}, "ekf": {"attitude": {"roll": 0.017712261527776718, "pitch": 0.03802407905459404, "yaw": 2.766883373260498}, "local_position": {"x": null, "y": null, "z": null}, "status": {"flags": 135, "velocity_variance": 0.0, "pos_horiz_variance": 0.002559155225753784, "pos_vert_variance": 0.021635079756379128}}, "errors": ["PreArm: Need Alt Estimate", "PreArm: Hardware safety switch", "PreArm: AHRS: waiting for home", "PreArm: Need Alt Estimate", "PreArm: Hardware safety switch", "PreArm: AHRS: waiting for home"]}
{"timestamp": "2025-12-28T08:55:41.368891Z", "telemetry": {"lat": 28.7531046, "lon": 77.117742, "satellites": 8, "altitude_gps_m": 194.75999450683594, "groundspeed_mps": 0.008036733604967594}, "flight": {"mode": "LOITER", "armed": false}, "ekf": {"attitude": {"roll": 0.017713600769639015, "pitch": 0.03800560161471367, "yaw": 2.7668192386627197}, "local_position": {"x": null, "y": null, "z": null}, "status": {"flags": 135, "velocity_variance": 0.0, "pos_horiz_variance": 0.0022352307569235563, "pos_vert_variance": 0.04055491462349892}}, "errors": ["PreArm: Need Alt Estimate", "PreArm: Hardware safety switch", "PreArm: AHRS: waiting for home", "PreArm: Need Alt Estimate", "PreArm: Hardware safety switch", "PreArm: AHRS: waiting for home"]}
{"timestamp": "2025-12-28T08:55:42.372199Z", "telemetry": {"lat": 28.7531101, "lon": 77.1177473, "satellites": 8, "altitude_gps_m": 195.44000244140625, "groundspeed_mps": 0.005262044724076986}, "flight": {"mode": "LOITER", "armed": false}, "ekf": {"attitude": {"roll": 0.0177245382219553, "pitch": 0.037952713668346405, "yaw": 2.766836166381836}, "local_position": {"x": null, "y": null, "z": null}, "status": {"flags": 135, "velocity_variance": 0.0, "pos_horiz_variance": 0.0020993133075535297, "pos_vert_variance": 0.01620556227862835}}, "errors": ["PreArm: Need Alt Estimate", "PreArm: Hardware safety switch", "PreArm: AHRS: waiting for home", "PreArm: Need Alt Estimate", "PreArm: Hardware safety switch", "PreArm: AHRS: waiting for home"]}
{"timestamp": "2025-12-28T08:55:43.368759Z", "telemetry": {"lat": 28.7531144, "lon": 77.117752, "satellites": 8, "altitude_gps_m": 196.5800018310547, "groundspeed_mps": 0.0022495558951050043}, "flight": {"mode": "LOITER", "armed": false}, "ekf": {"attitude": {"roll": 0.017641130834817886, "pitch": 0.03809073939919472, "yaw": 2.7670207023620605}, "local_position": {"x": null, "y": null, "z": null}, "status": {"flags": 135, "velocity_variance": 0.0, "pos_horiz_variance": 0.0014369814889505506, "pos_vert_variance": 0.057952169328927994}}, "errors": ["PreArm: Need Alt Estimate", "PreArm: Hardware safety switch", "PreArm: AHRS: waiting for home", "PreArm: Need Alt Estimate", "PreArm: Hardware safety switch", "PreArm: AHRS: waiting for home"]}
{"timestamp": "2025-12-28T08:55:44.368675Z", "telemetry": {"lat": 28.7531188, "lon": 77.1177563, "satellites": 8, "altitude_gps_m": 196.94000244140625, "groundspeed_mps": 0.0007466830429621041}, "flight": {"mode": "LOITER", "armed": false}, "ekf": {"attitude": {"roll": 0.01777057535946369, "pitch": 0.03819578140974045, "yaw": 2.7670211791992188}, "local_position": {"x": null, "y": null, "z": null}, "status": {"flags": 135, "velocity_variance": 0.0, "pos_horiz_variance": 0.0008548086625523865, "pos_vert_variance": 0.02097749151289463}}, "errors": ["PreArm: Need Alt Estimate", "PreArm: Hardware safety switch", "PreArm: AHRS: waiting for home", "PreArm: Need Alt Estimate", "PreArm: Hardware safety switch", "PreArm: AHRS: waiting for home"]}
{"timestamp": "2025-12-28T08:55:45.368357Z", "telemetry": {"lat": 28.7531175, "lon": 77.1177551, "satellites": 8, "altitude_gps_m": 196.72999572753906, "groundspeed_mps": 0.0010715185198932886}, "flight": {"mode": "LOITER", "armed": false}, "ekf": {"attitude": {"roll": 0.017782442271709442, "pitch": 0.03822433203458786, "yaw": 2.766962766647339}, "local_position": {"x": null, "y": null, "z": null}, "status": {"flags": 135, "velocity_variance": 0.0, "pos_horiz_variance": 0.00030874161166138947, "pos_vert_variance": 0.0758763998746872}}, "errors": ["PreArm: Need Alt Estimate", "PreArm: Hardware safety switch", "PreArm: AHRS: waiting for home", "PreArm: Need Alt Estimate", "PreArm: Hardware safety switch", "PreArm: AHRS: waiting for home"]}
{"timestamp": "2025-12-28T08:55:46.368408Z", "telemetry": {"lat": 28.7531155, "lon": 77.1177543, "satellites": 8, "altitude_gps_m": 196.1999969482422, "groundspeed_mps": 0.004450331907719374}, "flight": {"mode": "LOITER", "armed": false}, "ekf": {"attitude": {"roll": 0.01765814796090126, "pitch": 0.038290925323963165, "yaw": 2.766998291015625}, "local_position": {"x": null, "y": null, "z": null}, "status": {"flags": 135, "velocity_variance": 0.0, "pos_horiz_variance": 0.00025105688837356865, "pos_vert_variance": 0.033720437437295914}}, "errors": ["PreArm: Need Alt Estimate", "PreArm: Hardware safety switch", "PreArm: AHRS: waiting for home", "PreArm: Need Alt Estimate", "PreArm: Hardware safety switch", "PreArm: AHRS: waiting for home"]}
{"timestamp": "2025-12-28T08:55:47.368910Z", "telemetry": {"lat": 28.7531155, "lon": 77.1177568, "satellites": 8, "altitude_gps_m": 196.34999084472656, "groundspeed_mps": 0.0043503581546247005}, "flight": {"mode": "LOITER", "armed": false}, "ekf": {"attitude": {"roll": 0.017787421122193336, "pitch": 0.0382307805120945, "yaw": 2.7670540809631348}, "local_position": {"x": null, "y": null, "z": null}, "status": {"flags": 135, "velocity_variance": 0.0, "pos_horiz_variance": 0.000693588808644563, "pos_vert_variance": 0.0506102629005909}}, "errors": ["PreArm: Need Alt Estimate", "PreArm: Hardware safety switch", "PreArm: AHRS: waiting for home", "PreArm: Need Alt Estimate", "PreArm: Hardware safety switch", "PreArm: AHRS: waiting for home"]}
{"timestamp": "2025-12-28T08:55:48.368747Z", "telemetry": {"lat": 28.7531159, "lon": 77.1177593, "satellites": 8, "altitude_gps_m": 196.0699920654297, "groundspeed_mps": 0.0031584843527525663}, "flight": {"mode": "LOITER", "armed": false}, "ekf": {"attitude": {"roll": 0.01779254339635372, "pitch": 0.038111936300992966, "yaw": 2.767021656036377}, "local_position": {"x": null, "y": null, "z": null}, "status": {"flags": 135, "velocity_variance": 0.0, "pos_horiz_variance": 0.0008553685620427132, "pos_vert_variance": 0.07725294679403305}}, "errors": ["PreArm: Need Alt Estimate", "PreArm: Hardware safety switch", "PreArm: AHRS: waiting for home", "PreArm: Need Alt Estimate", "PreArm: Hardware safety switch", "PreArm: AHRS: waiting for home"]}
{"timestamp": "2025-12-28T08:55:49.373050Z", "telemetry": {"lat": 28.7531172, "lon": 77.1177634, "satellites": 8, "altitude_gps_m": 196.6999969482422, "groundspeed_mps": 0.0016237397212535143}, "flight": {"mode": "LOITER", "armed": false}, "ekf": {"attitude": {"roll": 0.017817994579672813, "pitch": 0.038031503558158875, "yaw": 2.7671215534210205}, "local_position": {"x": null, "y": null, "z": null}, "status": {"flags": 135, "velocity_variance": 0.0, "pos_horiz_variance": 0.0006001995061524212, "pos_vert_variance": 0.059307169169187546}}, "errors": ["PreArm: Need Alt Estimate", "PreArm: Hardware safety switch", "PreArm: AHRS: waiting for home", "PreArm: Need Alt Estimate", "PreArm: Hardware safety switch", "PreArm: AHRS: waiting for home"]}
{"timestamp": "2025-12-28T08:55:50.371084Z", "telemetry": {"lat": 28.7531207, "lon": 77.1177689, "satellites": 8, "altitude_gps_m": 197.8000030517578, "groundspeed_mps": 0.0030427929013967514}, "flight": {"mode": "LOITER", "armed": false}, "ekf": {"attitude": {"roll": 0.017903326079249382, "pitch": 0.03791569545865059, "yaw": 2.7670671939849854}, "local_position": {"x": null, "y": null, "z": null}, "status": {"flags": 135, "velocity_variance": 0.0, "pos_horiz_variance": 0.00031898714951239526, "pos_vert_variance": 0.10885067284107208}}, "errors": ["PreArm: Need Alt Estimate", "PreArm: Hardware safety switch", "PreArm: AHRS: waiting for home", "PreArm: Need Alt Estimate", "PreArm: Hardware safety switch", "PreArm: AHRS: waiting for home"]}
{"timestamp": "2025-12-28T08:55:51.371469Z", "telemetry": {"lat": 28.7531201, "lon": 77.1177709, "satellites": 8, "altitude_gps_m": 197.5699920654297, "groundspeed_mps": 0.005739138927310705}, "flight": {"mode": "LOITER", "armed": false}, "ekf": {"attitude": {"roll": 0.01788982003927231, "pitch": 0.037942346185445786, "yaw": 2.766916513442993}, "local_position": {"x": null, "y": null, "z": null}, "status": {"flags": 135, "velocity_variance": 0.0, "pos_horiz_variance": 0.0006048035575076938, "pos_vert_variance": 0.03201000392436981}}, "errors": ["PreArm: Need Alt Estimate", "PreArm: Hardware safety switch", "PreArm: AHRS: waiting for home", "PreArm: Need Alt Estimate", "PreArm: Hardware safety switch", "PreArm: AHRS: waiting for home"]}
{"timestamp": "2025-12-28T08:55:52.372097Z", "telemetry": {"lat": 28.7531253, "lon": 77.1177754, "satellites": 8, "altitude_gps_m": 198.20999145507812, "groundspeed_mps": 0.007482385728508234}, "flight": {"mode": "LOITER", "armed": false}, "ekf": {"attitude": {"roll": 0.01792571134865284, "pitch": 0.03793995454907417, "yaw": 2.7669262886047363}, "local_position": {"x": null, "y": null, "z": null}, "status": {"flags": 135, "velocity_variance": 0.0, "pos_horiz_variance": 0.0011652651010081172, "pos_vert_variance": 0.03762095421552658}}, "errors": ["PreArm: Need Alt Estimate", "PreArm: Hardware safety switch", "PreArm: AHRS: waiting for home", "PreArm: Need Alt Estimate", "PreArm: Hardware safety switch", "PreArm: AHRS: waiting for home"]}
{"timestamp": "2025-12-28T08:55:53.368356Z", "telemetry": {"lat": 28.7531305, "lon": 77.1177822, "satellites": 8, "altitude_gps_m": 200.09999084472656, "groundspeed_mps": 0.007637388538569212}, "flight": {"mode": "LOITER", "armed": false}, "ekf": {"attitude": {"roll": 0.01793021522462368, "pitch": 0.03796172887086868, "yaw": 2.7669191360473633}, "local_position": {"x": null, "y": null, "z": null}, "status": {"flags": 135, "velocity_variance": 0.0, "pos_horiz_variance": 0.0016842883778735995, "pos_vert_variance": 0.09338605403900146}}, "errors": ["PreArm: Need Alt Estimate", "PreArm: Hardware safety switch", "PreArm: AHRS: waiting for home", "PreArm: Need Alt Estimate", "PreArm: Hardware safety switch", "PreArm: AHRS: waiting for home"]}
{"timestamp": "2025-12-28T08:55:54.367899Z", "telemetry": {"lat": 28.7531288, "lon": 77.1177847, "satellites": 8, "altitude_gps_m": 200.989990234375, "groundspeed_mps": 0.00655802246183157}, "flight": {"mode": "LOITER", "armed": false}, "ekf": {"attitude": {"roll": 0.017823731526732445, "pitch": 0.03799261525273323, "yaw": 2.7667558193206787}, "local_position": {"x": null, "y": null, "z": null}, "status": {"flags": 135, "velocity_variance": 0.0, "pos_horiz_variance": 0.001820664037950337, "pos_vert_variance": 0.12406917661428452}}, "errors": ["PreArm: Need Alt Estimate", "PreArm: Hardware safety switch", "PreArm: AHRS: waiting for home", "PreArm: Need Alt Estimate", "PreArm: Hardware safety switch", "PreArm: AHRS: waiting for home"]}
{"timestamp": "2025-12-28T08:55:55.368634Z", "telemetry": {"lat": 28.7531324, "lon": 77.1177908, "satellites": 8, "altitude_gps_m": 202.26998901367188, "groundspeed_mps": 0.006037674844264984}, "flight": {"mode": "LOITER", "armed": false}, "ekf": {"attitude": {"roll": 0.01781584694981575, "pitch": 0.0379943884909153, "yaw": 2.766839027404785}, "local_position": {"x": null, "y": null, "z": null}, "status": {"flags": 135, "velocity_variance": 0.0, "pos_horiz_variance": 0.0016397809376940131, "pos_vert_variance": 0.029393864795565605}}, "errors": ["PreArm: Need Alt Estimate", "PreArm: Hardware safety switch", "PreArm: AHRS: waiting for home", "PreArm: Need Alt Estimate", "PreArm: Hardware safety switch", "PreArm: AHRS: waiting for home"]}
{"timestamp": "2025-12-28T08:55:56.368186Z", "telemetry": {"lat": 28.7531388, "lon": 77.1177971, "satellites": 8, "altitude_gps_m": 204.01998901367188, "groundspeed_mps": 0.005093906540423632}, "flight": {"mode": "LOITER", "armed": false}, "ekf": {"attitude": {"roll": 0.01781979389488697, "pitch": 0.03813913092017174, "yaw": 2.7667715549468994}, "local_position": {"x": null, "y": null, "z": null}, "status": {"flags": 135, "velocity_variance": 0.0, "pos_horiz_variance": 0.001446217647753656, "pos_vert_variance": 0.0055686491541564465}}, "errors": ["PreArm: Need Alt Estimate", "PreArm: Hardware safety switch", "PreArm: AHRS: waiting for home", "PreArm: Need Alt Estimate", "PreArm: Hardware safety switch", "PreArm: AHRS: waiting for home"]}
{"timestamp": "2025-12-28T08:55:57.367973Z", "telemetry": {"lat": 28.7531465, "lon": 77.1177978, "satellites": 8, "altitude_gps_m": 204.09999084472656, "groundspeed_mps": 0.004404827486723661}, "flight": {"mode": "LOITER", "armed": false}, "ekf": {"attitude": {"roll": 0.01772206835448742, "pitch": 0.03817892074584961, "yaw": 2.7667856216430664}, "local_position": {"x": null, "y": null, "z": null}, "status": {"flags": 135, "velocity_variance": 0.0, "pos_horiz_variance": 0.0013151912717148662, "pos_vert_variance": 0.06446198374032974}}, "errors": ["PreArm: Need Alt Estimate", "PreArm: Hardware safety switch", "PreArm: AHRS: waiting for home", "PreArm: Need Alt Estimate", "PreArm: Hardware safety switch", "PreArm: AHRS: waiting for home"]}
{"timestamp": "2025-12-28T08:55:58.368809Z", "telemetry": {"lat": 28.7531527, "lon": 77.1178031, "satellites": 8, "altitude_gps_m": 205.97999572753906, "groundspeed_mps": 0.00645708991214633}, "flight": {"mode": "LOITER", "armed": false}, "ekf": {"attitude": {"roll": 0.017755983397364616, "pitch": 0.038230784237384796, "yaw": 2.766669750213623}, "local_position": {"x": null, "y": null, "z": null}, "status": {"flags": 135, "velocity_variance": 0.0, "pos_horiz_variance": 0.0012944017071276903, "pos_vert_variance": 0.0787360891699791}}, "errors": ["PreArm: Need Alt Estimate", "PreArm: Hardware safety switch", "PreArm: AHRS: waiting for home", "PreArm: Need Alt Estimate", "PreArm: Hardware safety switch", "PreArm: AHRS: waiting for home"]}
{"timestamp": "2025-12-28T08:55:59.368375Z", "telemetry": {"lat": 28.753162, "lon": 77.1178059, "satellites": 8, "altitude_gps_m": 207.239990234375, "groundspeed_mps": 0.0023447524290531874}, "flight": {"mode": "LOITER", "armed": false}, "ekf": {"attitude": {"roll": 0.017730627208948135, "pitch": 0.03810077905654907, "yaw": 2.7666985988616943}, "local_position": {"x": null, "y": null, "z": null}, "status": {"flags": 135, "velocity_variance": 0.0, "pos_horiz_variance": 0.001239562057889998, "pos_vert_variance": 0.008114486001431942}}, "errors": ["PreArm: Need Alt Estimate", "PreArm: Hardware safety switch", "PreArm: AHRS: waiting for home", "PreArm: Need Alt Estimate", "PreArm: Hardware safety switch", "PreArm: AHRS: waiting for home"]}
{"timestamp": "2025-12-28T08:56:00.373534Z", "telemetry": {"lat": 28.7531679, "lon": 77.117809, "satellites": 8, "altitude_gps_m": 208.11000061035156, "groundspeed_mps": 0.0023786986712366343}, "flight": {"mode": "LOITER", "armed": false}, "ekf": {"attitude": {"roll": 0.017734965309500694, "pitch": 0.03815833106637001, "yaw": 2.7667171955108643}, "local_position": {"x": null, "y": null, "z": null}, "status": {"flags": 135, "velocity_variance": 0.0, "pos_horiz_variance": 0.0005860481760464609, "pos_vert_variance": 0.030973590910434723}}, "errors": ["PreArm: Need Alt Estimate", "PreArm: Hardware safety switch", "PreArm: AHRS: waiting for home", "PreArm: Need Alt Estimate", "PreArm: Hardware safety switch", "PreArm: AHRS: waiting for home"]}
{"timestamp": "2025-12-28T08:56:01.371205Z", "telemetry": {"lat": 28.7531721, "lon": 77.1178084, "satellites": 9, "altitude_gps_m": 208.02999877929688, "groundspeed_mps": 0.004133314359933138}, "flight": {"mode": "LOITER", "armed": false}, "ekf": {"attitude": {"roll": 0.017820127308368683, "pitch": 0.03813277557492256, "yaw": 2.766678810119629}, "local_position": {"x": null, "y": null, "z": null}, "status": {"flags": 135, "velocity_variance": 0.0, "pos_horiz_variance": 0.000652189482934773, "pos_vert_variance": 0.07257799059152603}}, "errors": ["PreArm: Need Alt Estimate", "PreArm: Hardware safety switch", "PreArm: AHRS: waiting for home", "PreArm: Need Alt Estimate", "PreArm: Hardware safety switch", "PreArm: AHRS: waiting for home"]}
{"timestamp": "2025-12-28T08:56:02.367977Z", "telemetry": {"lat": 28.7531766, "lon": 77.1178092, "satellites": 9, "altitude_gps_m": 208.77999877929688, "groundspeed_mps": 0.0035680201835930347}, "flight": {"mode": "LOITER", "armed": false}, "ekf": {"attitude": {"roll": 0.0176597461104393, "pitch": 0.03798709809780121, "yaw": 2.766709804534912}, "local_position": {"x": null, "y": null, "z": null}, "status": {"flags": 135, "velocity_variance": 0.0, "pos_horiz_variance": 0.0006511204410344362, "pos_vert_variance": 0.006407266017049551}}, "errors": ["PreArm: Need Alt Estimate", "PreArm: Hardware safety switch", "PreArm: AHRS: waiting for home", "PreArm: Need Alt Estimate", "PreArm: Hardware safety switch", "PreArm: AHRS: waiting for home"]}
{"timestamp": "2025-12-28T08:56:03.372236Z", "telemetry": {"lat": 28.7531785, "lon": 77.1178088, "satellites": 9, "altitude_gps_m": 208.27999877929688, "groundspeed_mps": 0.003785238368436694}, "flight": {"mode": "LOITER", "armed": false}, "ekf": {"attitude": {"roll": 0.01760076731443405, "pitch": 0.037937041372060776, "yaw": 2.766677141189575}, "local_position": {"x": null, "y": null, "z": null}, "status": {"flags": 135, "velocity_variance": 0.0, "pos_horiz_variance": 0.0007775684352964163, "pos_vert_variance": 0.024442126974463463}}, "errors": ["PreArm: Need Alt Estimate", "PreArm: Hardware safety switch", "PreArm: AHRS: waiting for home", "PreArm: Need Alt Estimate", "PreArm: Hardware safety switch", "PreArm: AHRS: waiting for home"]}
{"timestamp": "2025-12-28T08:56:04.372116Z", "telemetry": {"lat": 28.7531839, "lon": 77.1178097, "satellites": 9, "altitude_gps_m": 208.5399932861328, "groundspeed_mps": 0.0023648501373827457}, "flight": {"mode": "LOITER", "armed": false}, "ekf": {"attitude": {"roll": 0.017562638968229294, "pitch": 0.03801167383790016, "yaw": 2.7666845321655273}, "local_position": {"x": null, "y": null, "z": null}, "status": {"flags": 135, "velocity_variance": 0.0, "pos_horiz_variance": 0.0006756693474017084, "pos_vert_variance": 0.0008065279689617455}}, "errors": ["PreArm: Need Alt Estimate", "PreArm: Hardware safety switch", "PreArm: AHRS: waiting for home", "PreArm: Need Alt Estimate", "PreArm: Hardware safety switch", "PreArm: AHRS: waiting for home"]}
{"timestamp": "2025-12-28T08:56:05.372175Z", "telemetry": {"lat": 28.7531894, "lon": 77.1178097, "satellites": 9, "altitude_gps_m": 210.4499969482422, "groundspeed_mps": 0.004264238756150007}, "flight": {"mode": "LOITER", "armed": false}, "ekf": {"attitude": {"roll": 0.01751244254410267, "pitch": 0.037836361676454544, "yaw": 2.766749858856201}, "local_position": {"x": null, "y": null, "z": null}, "status": {"flags": 135, "velocity_variance": 0.0, "pos_horiz_variance": 0.0007237748941406608, "pos_vert_variance": 0.10133352130651474}}, "errors": ["PreArm: Need Alt Estimate", "PreArm: Hardware safety switch", "PreArm: AHRS: waiting for home", "PreArm: Need Alt Estimate", "PreArm: Hardware safety switch", "PreArm: AHRS: waiting for home"]}
{"timestamp": "2025-12-28T08:56:06.368079Z", "telemetry": {"lat": 28.7531953, "lon": 77.1178102, "satellites": 9, "altitude_gps_m": 211.59999084472656, "groundspeed_mps": 0.004855170845985413}, "flight": {"mode": "LOITER", "armed": false}, "ekf": {"attitude": {"roll": 0.017611948773264885, "pitch": 0.03776983544230461, "yaw": 2.766801118850708}, "local_position": {"x": null, "y": null, "z": null}, "status": {"flags": 135, "velocity_variance": 0.0, "pos_horiz_variance": 0.0009685272816568613, "pos_vert_variance": 0.0002763131051324308}}, "errors": ["PreArm: Need Alt Estimate", "PreArm: Hardware safety switch", "PreArm: AHRS: waiting for home", "PreArm: Need Alt Estimate", "PreArm: Hardware safety switch", "PreArm: AHRS: waiting for home"]}
{"timestamp": "2025-12-28T08:56:07.368672Z", "telemetry": {"lat": 28.7531992, "lon": 77.1178098, "satellites": 9, "altitude_gps_m": 212.6999969482422, "groundspeed_mps": 0.006419110111892223}, "flight": {"mode": "LOITER", "armed": false}, "ekf": {"attitude": {"roll": 0.017581315711140633, "pitch": 0.03779488801956177, "yaw": 2.7668297290802}, "local_position": {"x": null, "y": null, "z": null}, "status": {"flags": 135, "velocity_variance": 0.0, "pos_horiz_variance": 0.00133930379524827, "pos_vert_variance": 0.007079829927533865}}, "errors": ["PreArm: Need Alt Estimate", "PreArm: Hardware safety switch", "PreArm: AHRS: waiting for home", "PreArm: Need Alt Estimate", "PreArm: Hardware safety switch", "PreArm: AHRS: waiting for home", "PreArm: Need Alt Estimate", "PreArm: Hardware safety switch", "PreArm: AHRS: waiting for home"]}
{"timestamp": "2025-12-28T08:56:08.368805Z", "telemetry": {"lat": 28.7532027, "lon": 77.1178097, "satellites": 9, "altitude_gps_m": 213.38999938964844, "groundspeed_mps": 0.006099186837673187}, "flight": {"mode": "LOITER", "armed": false}, "ekf": {"attitude": {"roll": 0.01760818250477314, "pitch": 0.03782644867897034, "yaw": 2.766697645187378}, "local_position": {"x": null, "y": null, "z": null}, "status": {"flags": 135, "velocity_variance": 0.0, "pos_horiz_variance": 0.0015444416785612702, "pos_vert_variance": 0.0025432852562516928}}, "errors": ["PreArm: Need Alt Estimate", "PreArm: Hardware safety switch", "PreArm: AHRS: waiting for home", "PreArm: Need Alt Estimate", "PreArm: Hardware safety switch", "PreArm: AHRS: waiting for home", "PreArm: Need Alt Estimate", "PreArm: Hardware safety switch", "PreArm: AHRS: waiting for home"]}
{"timestamp": "2025-12-28T08:56:09.368551Z", "telemetry": {"lat": 28.7532048, "lon": 77.1178108, "satellites": 9, "altitude_gps_m": 214.20999145507812, "groundspeed_mps": 0.11906524002552032}, "flight": {"mode": "LOITER", "armed": false}, "ekf": {"attitude": {"roll": 0.004888672381639481, "pitch": 0.036329567432403564, "yaw": 2.765328884124756}, "local_position": {"x": null, "y": null, "z": null}, "status": {"flags": 135, "velocity_variance": 0.0, "pos_horiz_variance": 0.0016514266608282924, "pos_vert_variance": 0.012250014580786228}}, "errors": ["PreArm: Need Alt Estimate", "PreArm: Hardware safety switch", "PreArm: AHRS: waiting for home", "PreArm: Need Alt Estimate", "PreArm: Hardware safety switch", "PreArm: AHRS: waiting for home", "PreArm: Need Alt Estimate", "PreArm: Hardware safety switch", "PreArm: AHRS: waiting for home"]}
{"timestamp": "2025-12-28T08:56:10.377558Z", "telemetry": {"lat": 28.7532082, "lon": 77.1178125, "satellites": 9, "altitude_gps_m": 214.86000061035156, "groundspeed_mps": 1.2973512411117554}, "flight": {"mode": "LOITER", "armed": false}, "ekf": {"attitude": {"roll": 0.07498502731323242, "pitch": -0.05977438762784004, "yaw": -2.7758395671844482}, "local_position": {"x": null, "y": null, "z": null}, "status": {"flags": 135, "velocity_variance": 0.0, "pos_horiz_variance": 0.21585100889205933, "pos_vert_variance": 0.034490130841732025}}, "errors": ["PreArm: Need Alt Estimate", "PreArm: Hardware safety switch", "PreArm: AHRS: waiting for home", "PreArm: Need Alt Estimate", "PreArm: Hardware safety switch", "PreArm: AHRS: waiting for home", "PreArm: Need Alt Estimate", "PreArm: Hardware safety switch", "PreArm: AHRS: waiting for home"]}
{"timestamp": "2025-12-28T08:56:11.373339Z", "telemetry": {"lat": 28.7532156, "lon": 77.1178104, "satellites": 9, "altitude_gps_m": 215.58999633789062, "groundspeed_mps": 0.8440953493118286}, "flight": {"mode": "LOITER", "armed": false}, "ekf": {"attitude": {"roll": -0.11754798889160156, "pitch": 0.06360330432653427, "yaw": -2.3962788581848145}, "local_position": {"x": null, "y": null, "z": null}, "status": {"flags": 135, "velocity_variance": 0.0, "pos_horiz_variance": 0.14673419296741486, "pos_vert_variance": 0.013286767527461052}}, "errors": ["PreArm: Need Alt Estimate", "PreArm: Hardware safety switch", "PreArm: AHRS: waiting for home", "PreArm: Need Alt Estimate", "PreArm: Hardware safety switch", "PreArm: AHRS: waiting for home", "PreArm: Need Alt Estimate", "PreArm: Hardware safety switch", "PreArm: AHRS: waiting for home"]}
{"timestamp": "2025-12-28T08:56:12.369604Z", "telemetry": {"lat": 28.7532168, "lon": 77.1178167, "satellites": 9, "altitude_gps_m": 215.77999877929688, "groundspeed_mps": 1.3707937002182007}, "flight": {"mode": "LOITER", "armed": false}, "ekf": {"attitude": {"roll": 0.08048872649669647, "pitch": 0.16605249047279358, "yaw": -3.0965933799743652}, "local_position": {"x": null, "y": null, "z": null}, "status": {"flags": 135, "velocity_variance": 0.0, "pos_horiz_variance": 0.20596341788768768, "pos_vert_variance": 0.07494423538446426}}, "errors": ["PreArm: Need Alt Estimate", "PreArm: Hardware safety switch", "PreArm: AHRS: waiting for home", "PreArm: Need Alt Estimate", "PreArm: Hardware safety switch", "PreArm: AHRS: waiting for home", "PreArm: Need Alt Estimate", "PreArm: Hardware safety switch", "PreArm: AHRS: waiting for home"]}
{"timestamp": "2025-12-28T08:56:13.372233Z", "telemetry": {"lat": 28.753212, "lon": 77.1178237, "satellites": 9, "altitude_gps_m": 217.13999938964844, "groundspeed_mps": 0.6908295750617981}, "flight": {"mode": "LOITER", "armed": false}, "ekf": {"attitude": {"roll": -0.018815841525793076, "pitch": -0.07080560177564621, "yaw": 2.682192087173462}, "local_position": {"x": null, "y": null, "z": null}, "status": {"flags": 135, "velocity_variance": 0.0, "pos_horiz_variance": 0.18716777861118317, "pos_vert_variance": 0.0313321016728878}}, "errors": ["PreArm: Need Alt Estimate", "PreArm: Hardware safety switch", "PreArm: AHRS: waiting for home", "PreArm: Need Alt Estimate", "PreArm: Hardware safety switch", "PreArm: AHRS: waiting for home", "PreArm: Need Alt Estimate", "PreArm: Hardware safety switch", "PreArm: AHRS: waiting for home"]}
{"timestamp": "2025-12-28T08:56:14.372256Z", "telemetry": {"lat": 28.7531822, "lon": 77.1178395, "satellites": 9, "altitude_gps_m": 220.72999572753906, "groundspeed_mps": 0.7401930093765259}, "flight": {"mode": "LOITER", "armed": false}, "ekf": {"attitude": {"roll": 0.006025180220603943, "pitch": 0.06590200215578079, "yaw": 2.6552486419677734}, "local_position": {"x": null, "y": null, "z": null}, "status": {"flags": 135, "velocity_variance": 0.0, "pos_horiz_variance": 0.14911825954914093, "pos_vert_variance": 0.046082425862550735}}, "errors": ["PreArm: Need Alt Estimate", "PreArm: Hardware safety switch", "PreArm: AHRS: waiting for home", "PreArm: Need Alt Estimate", "PreArm: Hardware safety switch", "PreArm: AHRS: waiting for home", "PreArm: Need Alt Estimate", "PreArm: Hardware safety switch", "PreArm: AHRS: waiting for home"]}
{"timestamp": "2025-12-28T08:56:15.368327Z", "telemetry": {"lat": 28.7531643, "lon": 77.1178478, "satellites": 9, "altitude_gps_m": 222.1599884033203, "groundspeed_mps": 0.5922582149505615}, "flight": {"mode": "LOITER", "armed": false}, "ekf": {"attitude": {"roll": 0.007397189736366272, "pitch": 0.06167013198137283, "yaw": 2.65571928024292}, "local_position": {"x": null, "y": null, "z": null}, "status": {"flags": 135, "velocity_variance": 0.0, "pos_horiz_variance": 0.15455535054206848, "pos_vert_variance": 0.02724708802998066}}, "errors": ["PreArm: Need Alt Estimate", "PreArm: Hardware safety switch", "PreArm: AHRS: waiting for home", "PreArm: Need Alt Estimate", "PreArm: Hardware safety switch", "PreArm: AHRS: waiting for home", "PreArm: Need Alt Estimate", "PreArm: Hardware safety switch", "PreArm: AHRS: waiting for home"]}
{"timestamp": "2025-12-28T08:56:16.368332Z", "telemetry": {"lat": 28.7531501, "lon": 77.1178541, "satellites": 9, "altitude_gps_m": 222.3699951171875, "groundspeed_mps": 0.4112657308578491}, "flight": {"mode": "LOITER", "armed": false}, "ekf": {"attitude": {"roll": -0.005897074937820435, "pitch": 0.04306909069418907, "yaw": 2.826857805252075}, "local_position": {"x": null, "y": null, "z": null}, "status": {"flags": 135, "velocity_variance": 0.0, "pos_horiz_variance": 0.1400110274553299, "pos_vert_variance": 0.05834497511386871}}, "errors": ["PreArm: Need Alt Estimate", "PreArm: Hardware safety switch", "PreArm: AHRS: waiting for home", "PreArm: Need Alt Estimate", "PreArm: Hardware safety switch", "PreArm: AHRS: waiting for home", "PreArm: Need Alt Estimate", "PreArm: Hardware safety switch", "PreArm: AHRS: waiting for home"]}
{"timestamp": "2025-12-28T08:56:17.368841Z", "telemetry": {"lat": 28.7531447, "lon": 77.117855, "satellites": 9, "altitude_gps_m": 222.239990234375, "groundspeed_mps": 0.17779433727264404}, "flight": {"mode": "LOITER", "armed": false}, "ekf": {"attitude": {"roll": 0.009810302406549454, "pitch": 0.049030691385269165, "yaw": 2.835562229156494}, "local_position": {"x": null, "y": null, "z": null}, "status": {"flags": 135, "velocity_variance": 0.0, "pos_horiz_variance": 0.10066626965999603, "pos_vert_variance": 0.03518690913915634}}, "errors": ["PreArm: Need Alt Estimate", "PreArm: Hardware safety switch", "PreArm: AHRS: waiting for home", "PreArm: Need Alt Estimate", "PreArm: Hardware safety switch", "PreArm: AHRS: waiting for home", "PreArm: Need Alt Estimate", "PreArm: Hardware safety switch", "PreArm: AHRS: waiting for home"]}
{"timestamp": "2025-12-28T08:56:18.368643Z", "telemetry": {"lat": 28.7531369, "lon": 77.1178551, "satellites": 9, "altitude_gps_m": 221.97999572753906, "groundspeed_mps": 0.05168750509619713}, "flight": {"mode": "LOITER", "armed": false}, "ekf": {"attitude": {"roll": 0.00951455906033516, "pitch": 0.04635255038738251, "yaw": 2.8363442420959473}, "local_position": {"x": null, "y": null, "z": null}, "status": {"flags": 135, "velocity_variance": 0.0, "pos_horiz_variance": 0.05553082376718521, "pos_vert_variance": 0.03650413826107979}}, "errors": ["PreArm: Need Alt Estimate", "PreArm: Hardware safety switch", "PreArm: AHRS: waiting for home", "PreArm: Need Alt Estimate", "PreArm: Hardware safety switch", "PreArm: AHRS: waiting for home", "PreArm: Need Alt Estimate", "PreArm: Hardware safety switch", "PreArm: AHRS: waiting for home"]}
{"timestamp": "2025-12-28T08:56:19.368452Z", "telemetry": {"lat": 28.7531285, "lon": 77.1178543, "satellites": 9, "altitude_gps_m": 220.6199951171875, "groundspeed_mps": 0.4324992895126343}, "flight": {"mode": "LOITER", "armed": false}, "ekf": {"attitude": {"roll": -0.025741208344697952, "pitch": 0.051825810223817825, "yaw": 2.717226982116699}, "local_position": {"x": null, "y": null, "z": null}, "status": {"flags": 135, "velocity_variance": 0.0, "pos_horiz_variance": 0.018729666247963905, "pos_vert_variance": 0.04050320014357567}}, "errors": ["PreArm: Need Alt Estimate", "PreArm: Hardware safety switch", "PreArm: AHRS: waiting for home", "PreArm: Need Alt Estimate", "PreArm: Hardware safety switch", "PreArm: AHRS: waiting for home", "PreArm: Need Alt Estimate", "PreArm: Hardware safety switch", "PreArm: AHRS: waiting for home"]}
{"timestamp": "2025-12-28T08:56:20.368492Z", "telemetry": {"lat": 28.7531217, "lon": 77.1178562, "satellites": 9, "altitude_gps_m": 220.34999084472656, "groundspeed_mps": 0.16673977673053741}, "flight": {"mode": "LOITER", "armed": false}, "ekf": {"attitude": {"roll": 0.01087098941206932, "pitch": 0.042256034910678864, "yaw": 2.5576720237731934}, "local_position": {"x": null, "y": null, "z": null}, "status": {"flags": 135, "velocity_variance": 0.0, "pos_horiz_variance": 0.03484978899359703, "pos_vert_variance": 0.0735943466424942}}, "errors": ["PreArm: Need Alt Estimate", "PreArm: Hardware safety switch", "PreArm: AHRS: waiting for home", "PreArm: Need Alt Estimate", "PreArm: Hardware safety switch", "PreArm: AHRS: waiting for home", "PreArm: Need Alt Estimate", "PreArm: Hardware safety switch", "PreArm: AHRS: waiting for home"]}
{"timestamp": "2025-12-28T08:56:21.380407Z", "telemetry": {"lat": 28.7531157, "lon": 77.1178563, "satellites": 8, "altitude_gps_m": 219.11000061035156, "groundspeed_mps": 0.16602858901023865}, "flight": {"mode": "LOITER", "armed": false}, "ekf": {"attitude": {"roll": 0.010553419589996338, "pitch": 0.041620269417762756, "yaw": 2.5595998764038086}, "local_position": {"x": null, "y": null, "z": null}, "status": {"flags": 135, "velocity_variance": 0.0, "pos_horiz_variance": 0.03307483345270157, "pos_vert_variance": 0.04026665538549423}}, "errors": ["PreArm: Need Alt Estimate", "PreArm: Hardware safety switch", "PreArm: AHRS: waiting for home", "PreArm: Need Alt Estimate", "PreArm: Hardware safety switch", "PreArm: AHRS: waiting for home", "PreArm: Need Alt Estimate", "PreArm: Hardware safety switch", "PreArm: AHRS: waiting for home"]}
{"timestamp": "2025-12-28T08:56:22.369584Z", "telemetry": {"lat": 28.7531111, "lon": 77.1178564, "satellites": 9, "altitude_gps_m": 218.97000122070312, "groundspeed_mps": 0.16542571783065796}, "flight": {"mode": "LOITER", "armed": false}, "ekf": {"attitude": {"roll": 0.010680411010980606, "pitch": 0.042964644730091095, "yaw": 2.560659885406494}, "local_position": {"x": null, "y": null, "z": null}, "status": {"flags": 135, "velocity_variance": 0.0, "pos_horiz_variance": 0.03682072088122368, "pos_vert_variance": 0.03420291095972061}}, "errors": ["PreArm: Need Alt Estimate", "PreArm: Hardware safety switch", "PreArm: AHRS: waiting for home", "PreArm: Need Alt Estimate", "PreArm: Hardware safety switch", "PreArm: AHRS: waiting for home", "PreArm: Need Alt Estimate", "PreArm: Hardware safety switch", "PreArm: AHRS: waiting for home"]}
{"timestamp": "2025-12-28T08:56:23.368165Z", "telemetry": {"lat": 28.7531101, "lon": 77.1178561, "satellites": 9, "altitude_gps_m": 218.5699920654297, "groundspeed_mps": 0.147915318608284}, "flight": {"mode": "LOITER", "armed": false}, "ekf": {"attitude": {"roll": 0.011054467409849167, "pitch": 0.043931905180215836, "yaw": 2.561954975128174}, "local_position": {"x": null, "y": null, "z": null}, "status": {"flags": 135, "velocity_variance": 0.0, "pos_horiz_variance": 0.03883323445916176, "pos_vert_variance": 0.02278960682451725}}, "errors": ["PreArm: Need Alt Estimate", "PreArm: Hardware safety switch", "PreArm: AHRS: waiting for home", "PreArm: Need Alt Estimate", "PreArm: Hardware safety switch", "PreArm: AHRS: waiting for home", "PreArm: Need Alt Estimate", "PreArm: Hardware safety switch", "PreArm: AHRS: waiting for home"]}
{"timestamp": "2025-12-28T08:56:24.370881Z", "telemetry": {"lat": 28.7531073, "lon": 77.1178559, "satellites": 9, "altitude_gps_m": 218.1599884033203, "groundspeed_mps": 0.11399754136800766}, "flight": {"mode": "LOITER", "armed": false}, "ekf": {"attitude": {"roll": 0.0116979219019413, "pitch": 0.045134227722883224, "yaw": 2.5632989406585693}, "local_position": {"x": null, "y": null, "z": null}, "status": {"flags": 135, "velocity_variance": 0.0, "pos_horiz_variance": 0.03703858330845833, "pos_vert_variance": 0.04594813287258148}}, "errors": ["PreArm: Need Alt Estimate", "PreArm: Hardware safety switch", "PreArm: AHRS: waiting for home", "PreArm: Need Alt Estimate", "PreArm: Hardware safety switch", "PreArm: AHRS: waiting for home", "PreArm: Need Alt Estimate", "PreArm: Hardware safety switch", "PreArm: AHRS: waiting for home"]}
{"timestamp": "2025-12-28T08:56:25.368776Z", "telemetry": {"lat": 28.7531013, "lon": 77.1178562, "satellites": 9, "altitude_gps_m": 217.3199920654297, "groundspeed_mps": 0.08834664523601532}, "flight": {"mode": "LOITER", "armed": false}, "ekf": {"attitude": {"roll": 0.012220341712236404, "pitch": 0.046015944331884384, "yaw": 2.5639429092407227}, "local_position": {"x": null, "y": null, "z": null}, "status": {"flags": 135, "velocity_variance": 0.0, "pos_horiz_variance": 0.031979333609342575, "pos_vert_variance": 0.005449889227747917}}, "errors": ["PreArm: Need Alt Estimate", "PreArm: Hardware safety switch", "PreArm: AHRS: waiting for home", "PreArm: Need Alt Estimate", "PreArm: Hardware safety switch", "PreArm: AHRS: waiting for home", "PreArm: Need Alt Estimate", "PreArm: Hardware safety switch", "PreArm: AHRS: waiting for home"]}
