{"timestamp": "2026-01-15T13:51:27.923728Z", "telemetry": {"lat": 28.7530059, "lon": 77.1179622, "satellites": 0, "altitude_gps_m": 0.28999999165534973, "groundspeed_mps": 0.021333208307623863}, "flight": {"mode": "STABILIZE", "armed": false}, "ekf": {"attitude": {"roll": 0.020856797695159912, "pitch": -0.0005876724608242512, "yaw": -0.5562077760696411}, "local_position": {"x": null, "y": null, "z": null}, "status": {"flags": 135, "velocity_variance": 0.0, "pos_horiz_variance": 0.005157769192010164, "pos_vert_variance": 0.0433940514922142}}, "errors": []}
{"timestamp": "2026-01-15T13:51:28.993503Z", "telemetry": {"lat": 28.7530059, "lon": 77.1179622, "satellites": 0, "altitude_gps_m": 0.28999999165534973, "groundspeed_mps": 0.022994834929704666}, "flight": {"mode": "STABILIZE", "armed": false}, "ekf": {"attitude": {"roll": 0.020861105993390083, "pitch": -0.000603976659476757, "yaw": -0.5561349987983704}, "local_position": {"x": null, "y": null, "z": null}, "status": {"flags": 135, "velocity_variance": 0.0, "pos_horiz_variance": 0.005257598124444485, "pos_vert_variance": 0.025940943509340286}}, "errors": []}
{"timestamp": "2026-01-15T13:51:30.023712Z", "telemetry": {"lat": 28.7530059, "lon": 77.1179622, "satellites": 0, "altitude_gps_m": 0.28999999165534973, "groundspeed_mps": 0.02280869521200657}, "flight": {"mode": "STABILIZE", "armed": false}, "ekf": {"attitude": {"roll": 0.020941492170095444, "pitch": -0.0005105887539684772, "yaw": -0.5561569929122925}, "local_position": {"x": null, "y": null, "z": null}, "status": {"flags": 135, "velocity_variance": 0.0, "pos_horiz_variance": 0.005494668614119291, "pos_vert_variance": 0.04810994490981102}}, "errors": []}
{"timestamp": "2026-01-15T13:51:30.991415Z", "telemetry": {"lat": 28.7530059, "lon": 77.1179622, "satellites": 0, "altitude_gps_m": 0.28999999165534973, "groundspeed_mps": 0.022469326853752136}, "flight": {"mode": "STABILIZE", "armed": false}, "ekf": {"attitude": {"roll": 0.020966293290257454, "pitch": -0.0005001761019229889, "yaw": -0.5562708377838135}, "local_position": {"x": null, "y": null, "z": null}, "status": {"flags": 135, "velocity_variance": 0.0, "pos_horiz_variance": 0.00548626808449626, "pos_vert_variance": 0.05680067464709282}}, "errors": []}
{"timestamp": "2026-01-15T13:51:31.998929Z", "telemetry": {"lat": 28.7530059, "lon": 77.1179622, "satellites": 0, "altitude_gps_m": 0.28999999165534973, "groundspeed_mps": 0.020282309502363205}, "flight": {"mode": "STABILIZE", "armed": false}, "ekf": {"attitude": {"roll": 0.020985255017876625, "pitch": -0.0007554991170763969, "yaw": -0.5560719966888428}, "local_position": {"x": null, "y": null, "z": null}, "status": {"flags": 135, "velocity_variance": 0.0, "pos_horiz_variance": 0.005224050022661686, "pos_vert_variance": 0.08366614580154419}}, "errors": []}
{"timestamp": "2026-01-15T13:51:32.991212Z", "telemetry": {"lat": 28.7530059, "lon": 77.1179622, "satellites": 0, "altitude_gps_m": 0.28999999165534973, "groundspeed_mps": 0.024585256353020668}, "flight": {"mode": "STABILIZE", "armed": false}, "ekf": {"attitude": {"roll": 0.020945537835359573, "pitch": -0.0007969005964696407, "yaw": -0.5559146404266357}, "local_position": {"x": null, "y": null, "z": null}, "status": {"flags": 135, "velocity_variance": 0.0, "pos_horiz_variance": 0.005362289492040873, "pos_vert_variance": 0.05681197717785835}}, "errors": []}
{"timestamp": "2026-01-15T13:51:34.003511Z", "telemetry": {"lat": 28.7530059, "lon": 77.1179622, "satellites": 0, "altitude_gps_m": 0.28999999165534973, "groundspeed_mps": 0.026369594037532806}, "flight": {"mode": "STABILIZE", "armed": false}, "ekf": {"attitude": {"roll": 0.021017272025346756, "pitch": -0.0007357904687523842, "yaw": -0.5559399724006653}, "local_position": {"x": null, "y": null, "z": null}, "status": {"flags": 135, "velocity_variance": 0.0, "pos_horiz_variance": 0.0058329445309937, "pos_vert_variance": 0.01009237952530384}}, "errors": []}
{"timestamp": "2026-01-15T13:51:34.995114Z", "telemetry": {"lat": 28.7530059, "lon": 77.1179622, "satellites": 0, "altitude_gps_m": 0.28999999165534973, "groundspeed_mps": 0.030014682561159134}, "flight": {"mode": "STABILIZE", "armed": false}, "ekf": {"attitude": {"roll": 0.02105274423956871, "pitch": -0.0007542860694229603, "yaw": -0.55569988489151}, "local_position": {"x": null, "y": null, "z": null}, "status": {"flags": 135, "velocity_variance": 0.0, "pos_horiz_variance": 0.006641458719968796, "pos_vert_variance": 0.01314540859311819}}, "errors": []}
{"timestamp": "2026-01-15T13:51:35.995384Z", "telemetry": {"lat": 28.7530059, "lon": 77.1179622, "satellites": 0, "altitude_gps_m": 0.28999999165534973, "groundspeed_mps": 0.030678750947117805}, "flight": {"mode": "STABILIZE", "armed": false}, "ekf": {"attitude": {"roll": 0.021152473986148834, "pitch": -0.0008553685620427132, "yaw": -0.5556703805923462}, "local_position": {"x": null, "y": null, "z": null}, "status": {"flags": 135, "velocity_variance": 0.0, "pos_horiz_variance": 0.007144589442759752, "pos_vert_variance": 0.08350972831249237}}, "errors": []}
{"timestamp": "2026-01-15T13:51:36.995165Z", "telemetry": {"lat": 28.7530059, "lon": 77.1179622, "satellites": 0, "altitude_gps_m": 0.28999999165534973, "groundspeed_mps": 0.029179735109210014}, "flight": {"mode": "STABILIZE", "armed": false}, "ekf": {"attitude": {"roll": 0.021146660670638084, "pitch": -0.0008636154234409332, "yaw": -0.555575430393219}, "local_position": {"x": null, "y": null, "z": null}, "status": {"flags": 135, "velocity_variance": 0.0, "pos_horiz_variance": 0.0071286167949438095, "pos_vert_variance": 0.10596604645252228}}, "errors": ["PreArm: Hardware safety switch"]}
{"timestamp": "2026-01-15T13:51:37.999238Z", "telemetry": {"lat": 28.7530059, "lon": 77.1179622, "satellites": 0, "altitude_gps_m": 0.28999999165534973, "groundspeed_mps": 0.03074445202946663}, "flight": {"mode": "STABILIZE", "armed": false}, "ekf": {"attitude": {"roll": 0.021176345646381378, "pitch": -0.0009033423848450184, "yaw": -0.5555931925773621}, "local_position": {"x": null, "y": null, "z": null}, "status": {"flags": 135, "velocity_variance": 0.0, "pos_horiz_variance": 0.0071411640383303165, "pos_vert_variance": 0.04759448021650314}}, "errors": ["PreArm: Hardware safety switch"]}
{"timestamp": "2026-01-15T13:51:38.999241Z", "telemetry": {"lat": 28.7530059, "lon": 77.1179622, "satellites": 0, "altitude_gps_m": 0.28999999165534973, "groundspeed_mps": 0.030751604586839676}, "flight": {"mode": "STABILIZE", "armed": false}, "ekf": {"attitude": {"roll": 0.021247901022434235, "pitch": -0.0008731777779757977, "yaw": -0.5555381178855896}, "local_position": {"x": null, "y": null, "z": null}, "status": {"flags": 135, "velocity_variance": 0.0, "pos_horiz_variance": 0.00730954110622406, "pos_vert_variance": 0.04344448074698448}}, "errors": ["PreArm: Hardware safety switch"]}
{"timestamp": "2026-01-15T13:51:39.974063Z", "telemetry": {"lat": 28.7530059, "lon": 77.1179622, "satellites": 0, "altitude_gps_m": 0.28999999165534973, "groundspeed_mps": 0.03145880997180939}, "flight": {"mode": "STABILIZE", "armed": false}, "ekf": {"attitude": {"roll": 0.021212641149759293, "pitch": -0.0009416588582098484, "yaw": -0.5555905103683472}, "local_position": {"x": null, "y": null, "z": null}, "status": {"flags": 135, "velocity_variance": 0.0, "pos_horiz_variance": 0.0074608223512768745, "pos_vert_variance": 0.006164852064102888}}, "errors": ["PreArm: Hardware safety switch"]}
{"timestamp": "2026-01-15T13:51:40.974090Z", "telemetry": {"lat": 28.7530059, "lon": 77.1179622, "satellites": 0, "altitude_gps_m": 0.28999999165534973, "groundspeed_mps": 0.030708003789186478}, "flight": {"mode": "STABILIZE", "armed": false}, "ekf": {"attitude": {"roll": 0.02117384783923626, "pitch": -0.0009997934103012085, "yaw": -0.555635392665863}, "local_position": {"x": null, "y": null, "z": null}, "status": {"flags": 135, "velocity_variance": 0.0, "pos_horiz_variance": 0.007575602270662785, "pos_vert_variance": 0.06213539466261864}}, "errors": ["PreArm: Hardware safety switch"]}
{"timestamp": "2026-01-15T13:51:42.003332Z", "telemetry": {"lat": 28.7530059, "lon": 77.1179622, "satellites": 0, "altitude_gps_m": 0.28999999165534973, "groundspeed_mps": 0.03138374164700508}, "flight": {"mode": "STABILIZE", "armed": false}, "ekf": {"attitude": {"roll": 0.02120518870651722, "pitch": -0.0008494914509356022, "yaw": -0.5555388927459717}, "local_position": {"x": null, "y": null, "z": null}, "status": {"flags": 135, "velocity_variance": 0.0, "pos_horiz_variance": 0.007474665064364672, "pos_vert_variance": 0.06990871578454971}}, "errors": ["PreArm: Hardware safety switch"]}
{"timestamp": "2026-01-15T13:51:43.002959Z", "telemetry": {"lat": 28.7530059, "lon": 77.1179622, "satellites": 0, "altitude_gps_m": 0.28999999165534973, "groundspeed_mps": 0.02933923341333866}, "flight": {"mode": "STABILIZE", "armed": false}, "ekf": {"attitude": {"roll": 0.02115742862224579, "pitch": -0.0008131419308483601, "yaw": -0.5556623935699463}, "local_position": {"x": null, "y": null, "z": null}, "status": {"flags": 135, "velocity_variance": 0.0, "pos_horiz_variance": 0.007511194795370102, "pos_vert_variance": 0.013098880648612976}}, "errors": ["PreArm: Hardware safety switch"]}
{"timestamp": "2026-01-15T13:51:44.002944Z", "telemetry": {"lat": 28.7530059, "lon": 77.1179622, "satellites": 0, "altitude_gps_m": 0.28999999165534973, "groundspeed_mps": 0.030174467712640762}, "flight": {"mode": "STABILIZE", "armed": false}, "ekf": {"attitude": {"roll": 0.02118564397096634, "pitch": -0.0007523014210164547, "yaw": -0.555591881275177}, "local_position": {"x": null, "y": null, "z": null}, "status": {"flags": 135, "velocity_variance": 0.0, "pos_horiz_variance": 0.007368400692939758, "pos_vert_variance": 0.10559901595115662}}, "errors": ["PreArm: Hardware safety switch"]}
{"timestamp": "2026-01-15T13:51:45.003175Z", "telemetry": {"lat": 28.7530059, "lon": 77.1179622, "satellites": 0, "altitude_gps_m": 0.28999999165534973, "groundspeed_mps": 0.027246179059147835}, "flight": {"mode": "STABILIZE", "armed": false}, "ekf": {"attitude": {"roll": 0.02127773128449917, "pitch": -0.0006866054609417915, "yaw": -0.5555803775787354}, "local_position": {"x": null, "y": null, "z": null}, "status": {"flags": 135, "velocity_variance": 0.0, "pos_horiz_variance": 0.007230444811284542, "pos_vert_variance": 0.005086169578135014}}, "errors": ["PreArm: Hardware safety switch"]}
{"timestamp": "2026-01-15T13:51:46.007407Z", "telemetry": {"lat": 28.7530059, "lon": 77.1179622, "satellites": 0, "altitude_gps_m": 0.28999999165534973, "groundspeed_mps": 0.023853009566664696}, "flight": {"mode": "STABILIZE", "armed": false}, "ekf": {"attitude": {"roll": 0.02122611738741398, "pitch": -0.0006554354913532734, "yaw": -0.5554791688919067}, "local_position": {"x": null, "y": null, "z": null}, "status": {"flags": 135, "velocity_variance": 0.0, "pos_horiz_variance": 0.0067567769438028336, "pos_vert_variance": 0.052285753190517426}}, "errors": ["PreArm: Hardware safety switch"]}
{"timestamp": "2026-01-15T13:51:46.981420Z", "telemetry": {"lat": 28.7530059, "lon": 77.1179622, "satellites": 0, "altitude_gps_m": 0.28999999165534973, "groundspeed_mps": 0.02142627164721489}, "flight": {"mode": "STABILIZE", "armed": false}, "ekf": {"attitude": {"roll": 0.021134141832590103, "pitch": -0.0005387808196246624, "yaw": -0.5554060935974121}, "local_position": {"x": null, "y": null, "z": null}, "status": {"flags": 135, "velocity_variance": 0.0, "pos_horiz_variance": 0.006061718799173832, "pos_vert_variance": 0.046595968306064606}}, "errors": ["PreArm: Hardware safety switch"]}
{"timestamp": "2026-01-15T13:51:47.980328Z", "telemetry": {"lat": 28.7530059, "lon": 77.1179622, "satellites": 0, "altitude_gps_m": 0.28999999165534973, "groundspeed_mps": 0.019852066412568092}, "flight": {"mode": "STABILIZE", "armed": false}, "ekf": {"attitude": {"roll": 0.021328411996364594, "pitch": -0.0005104141309857368, "yaw": -0.5553419589996338}, "local_position": {"x": null, "y": null, "z": null}, "status": {"flags": 135, "velocity_variance": 0.0, "pos_horiz_variance": 0.005516573786735535, "pos_vert_variance": 0.004760148003697395}}, "errors": ["PreArm: Hardware safety switch"]}
{"timestamp": "2026-01-15T13:51:48.983846Z", "telemetry": {"lat": 28.7530059, "lon": 77.1179622, "satellites": 0, "altitude_gps_m": 0.28999999165534973, "groundspeed_mps": 0.021912438794970512}, "flight": {"mode": "STABILIZE", "armed": false}, "ekf": {"attitude": {"roll": 0.021444309502840042, "pitch": -0.0004935921169817448, "yaw": -0.5553452968597412}, "local_position": {"x": null, "y": null, "z": null}, "status": {"flags": 135, "velocity_variance": 0.0, "pos_horiz_variance": 0.005368376616388559, "pos_vert_variance": 0.028712661936879158}}, "errors": ["PreArm: Hardware safety switch"]}
{"timestamp": "2026-01-15T13:51:49.985330Z", "telemetry": {"lat": 28.7530059, "lon": 77.1179622, "satellites": 0, "altitude_gps_m": 0.28999999165534973, "groundspeed_mps": 0.02333339862525463}, "flight": {"mode": "STABILIZE", "armed": false}, "ekf": {"attitude": {"roll": 0.021447056904435158, "pitch": -0.0005954303778707981, "yaw": -0.5551560521125793}, "local_position": {"x": null, "y": null, "z": null}, "status": {"flags": 135, "velocity_variance": 0.0, "pos_horiz_variance": 0.005561349913477898, "pos_vert_variance": 0.00753947114571929}}, "errors": ["PreArm: Hardware safety switch"]}
{"timestamp": "2026-01-15T13:51:50.985424Z", "telemetry": {"lat": 28.7530059, "lon": 77.1179622, "satellites": 0, "altitude_gps_m": 0.28999999165534973, "groundspeed_mps": 0.025655919685959816}, "flight": {"mode": "STABILIZE", "armed": false}, "ekf": {"attitude": {"roll": 0.021539030596613884, "pitch": -0.0005777571350336075, "yaw": -0.5550625324249268}, "local_position": {"x": null, "y": null, "z": null}, "status": {"flags": 135, "velocity_variance": 0.0, "pos_horiz_variance": 0.005991005338728428, "pos_vert_variance": 0.04867614433169365}}, "errors": ["PreArm: Hardware safety switch"]}
{"timestamp": "2026-01-15T13:51:52.010890Z", "telemetry": {"lat": 28.7530059, "lon": 77.1179622, "satellites": 0, "altitude_gps_m": 0.28999999165534973, "groundspeed_mps": 0.0229936596006155}, "flight": {"mode": "STABILIZE", "armed": false}, "ekf": {"attitude": {"roll": 0.021490197628736496, "pitch": -0.0005983971059322357, "yaw": -0.5549052357673645}, "local_position": {"x": null, "y": null, "z": null}, "status": {"flags": 135, "velocity_variance": 0.0, "pos_horiz_variance": 0.006027733441442251, "pos_vert_variance": 0.012345858849585056}}, "errors": ["PreArm: Hardware safety switch"]}
{"timestamp": "2026-01-15T13:51:53.011636Z", "telemetry": {"lat": 28.7530059, "lon": 77.1179622, "satellites": 0, "altitude_gps_m": 0.28999999165534973, "groundspeed_mps": 0.02070450223982334}, "flight": {"mode": "STABILIZE", "armed": false}, "ekf": {"attitude": {"roll": 0.02163894847035408, "pitch": -0.0006079231388866901, "yaw": -0.5548756122589111}, "local_position": {"x": null, "y": null, "z": null}, "status": {"flags": 135, "velocity_variance": 0.0, "pos_horiz_variance": 0.005592103116214275, "pos_vert_variance": 0.011155352927744389}}, "errors": ["PreArm: Hardware safety switch"]}
{"timestamp": "2026-01-15T13:51:53.984184Z", "telemetry": {"lat": 28.7530059, "lon": 77.1179622, "satellites": 0, "altitude_gps_m": 0.28999999165534973, "groundspeed_mps": 0.02113817073404789}, "flight": {"mode": "STABILIZE", "armed": false}, "ekf": {"attitude": {"roll": 0.02176447957754135, "pitch": -0.0006289989687502384, "yaw": -0.5548355579376221}, "local_position": {"x": null, "y": null, "z": null}, "status": {"flags": 135, "velocity_variance": 0.0, "pos_horiz_variance": 0.005308410152792931, "pos_vert_variance": 0.03304461017251015}}, "errors": ["PreArm: Hardware safety switch"]}
{"timestamp": "2026-01-15T13:51:54.989694Z", "telemetry": {"lat": 28.7530059, "lon": 77.1179622, "satellites": 0, "altitude_gps_m": 0.28999999165534973, "groundspeed_mps": 0.022560838609933853}, "flight": {"mode": "STABILIZE", "armed": false}, "ekf": {"attitude": {"roll": 0.021934496238827705, "pitch": -0.0004825969226658344, "yaw": -0.554724931716919}, "local_position": {"x": null, "y": null, "z": null}, "status": {"flags": 135, "velocity_variance": 0.0, "pos_horiz_variance": 0.005268959328532219, "pos_vert_variance": 0.028960328549146652}}, "errors": ["PreArm: Hardware safety switch"]}
{"timestamp": "2026-01-15T13:51:55.987679Z", "telemetry": {"lat": 28.7530059, "lon": 77.1179622, "satellites": 0, "altitude_gps_m": 0.28999999165534973, "groundspeed_mps": 0.02029360830783844}, "flight": {"mode": "STABILIZE", "armed": false}, "ekf": {"attitude": {"roll": 0.021894602105021477, "pitch": -0.0003609447740018368, "yaw": -0.5545993447303772}, "local_position": {"x": null, "y": null, "z": null}, "status": {"flags": 135, "velocity_variance": 0.0, "pos_horiz_variance": 0.005369753111153841, "pos_vert_variance": 0.07462503015995026}}, "errors": ["PreArm: Hardware safety switch"]}
{"timestamp": "2026-01-15T13:51:56.989136Z", "telemetry": {"lat": 28.7530059, "lon": 77.1179622, "satellites": 0, "altitude_gps_m": 0.28999999165534973, "groundspeed_mps": 0.02021283656358719}, "flight": {"mode": "STABILIZE", "armed": false}, "ekf": {"attitude": {"roll": 0.021923787891864777, "pitch": -0.000405212864279747, "yaw": -0.554522693157196}, "local_position": {"x": null, "y": null, "z": null}, "status": {"flags": 135, "velocity_variance": 0.0, "pos_horiz_variance": 0.005072953179478645, "pos_vert_variance": 0.056068629026412964}}, "errors": ["PreArm: Hardware safety switch"]}
{"timestamp": "2026-01-15T13:51:57.988146Z", "telemetry": {"lat": 28.7530059, "lon": 77.1179622, "satellites": 0, "altitude_gps_m": 0.28999999165534973, "groundspeed_mps": 0.02225612662732601}, "flight": {"mode": "STABILIZE", "armed": false}, "ekf": {"attitude": {"roll": 0.021898064762353897, "pitch": -0.0004103737883269787, "yaw": -0.5544946193695068}, "local_position": {"x": null, "y": null, "z": null}, "status": {"flags": 135, "velocity_variance": 0.0, "pos_horiz_variance": 0.005024134647101164, "pos_vert_variance": 0.05610151216387749}}, "errors": ["PreArm: Hardware safety switch"]}
{"timestamp": "2026-01-15T13:51:59.017366Z", "telemetry": {"lat": 28.7530059, "lon": 77.1179622, "satellites": 0, "altitude_gps_m": 0.28999999165534973, "groundspeed_mps": 0.02233738638460636}, "flight": {"mode": "STABILIZE", "armed": false}, "ekf": {"attitude": {"roll": 0.02194158546626568, "pitch": -0.0004138750955462456, "yaw": -0.5544368624687195}, "local_position": {"x": null, "y": null, "z": null}, "status": {"flags": 135, "velocity_variance": 0.0, "pos_horiz_variance": 0.005227902438491583, "pos_vert_variance": 0.0025136894546449184}}, "errors": ["PreArm: Hardware safety switch"]}
{"timestamp": "2026-01-15T13:52:00.018798Z", "telemetry": {"lat": 28.7530059, "lon": 77.1179622, "satellites": 0, "altitude_gps_m": 0.28999999165534973, "groundspeed_mps": 0.022230148315429688}, "flight": {"mode": "STABILIZE", "armed": false}, "ekf": {"attitude": {"roll": 0.0218771044164896, "pitch": -0.000423929188400507, "yaw": -0.5544515252113342}, "local_position": {"x": null, "y": null, "z": null}, "status": {"flags": 135, "velocity_variance": 0.0, "pos_horiz_variance": 0.005315068177878857, "pos_vert_variance": 0.03321584314107895}}, "errors": ["PreArm: Hardware safety switch"]}
