{"timestamp": "2025-12-28T09:51:55.303472Z", "telemetry": {"lat": 28.7531144, "lon": 77.1177839, "satellites": 11, "altitude_gps_m": 214.59999084472656, "groundspeed_mps": 0.24486316740512848}, "flight": {"mode": "STABILIZE", "armed": false}, "ekf": {"attitude": {"roll": 0.02565048076212406, "pitch": 0.03195805847644806, "yaw": 0.7266042828559875}, "local_position": {"x": 4.84687614440918, "y": -8.756010055541992, "z": -5.676253318786621}, "status": {"flags": 33599, "velocity_variance": 0.31520962715148926, "pos_horiz_variance": 0.017153387889266014, "pos_vert_variance": 0.011927537620067596}}, "errors": []}
{"timestamp": "2025-12-28T09:51:56.349903Z", "telemetry": {"lat": 28.7531194, "lon": 77.1177842, "satellites": 11, "altitude_gps_m": 214.6999969482422, "groundspeed_mps": 0.1550702601671219}, "flight": {"mode": "STABILIZE", "armed": false}, "ekf": {"attitude": {"roll": 0.02461712434887886, "pitch": 0.029810098931193352, "yaw": 0.7265921235084534}, "local_position": {"x": 4.967602729797363, "y": -8.888265609741211, "z": -5.754639148712158}, "status": {"flags": 33599, "velocity_variance": 0.30798906087875366, "pos_horiz_variance": 0.00525976438075304, "pos_vert_variance": 0.003689542878419161}}, "errors": []}
{"timestamp": "2025-12-28T09:51:57.368867Z", "telemetry": {"lat": 28.7531201, "lon": 77.1177848, "satellites": 11, "altitude_gps_m": 214.739990234375, "groundspeed_mps": 0.09931974858045578}, "flight": {"mode": "STABILIZE", "armed": false}, "ekf": {"attitude": {"roll": 0.024836767464876175, "pitch": 0.029241137206554413, "yaw": 0.7267587184906006}, "local_position": {"x": 5.08955717086792, "y": -8.801450729370117, "z": -5.8145432472229}, "status": {"flags": 33599, "velocity_variance": 0.1511257290840149, "pos_horiz_variance": 0.0046050893142819405, "pos_vert_variance": 0.050786036998033524}}, "errors": []}
{"timestamp": "2025-12-28T09:51:58.368008Z", "telemetry": {"lat": 28.7531188, "lon": 77.1177823, "satellites": 11, "altitude_gps_m": 214.77999877929688, "groundspeed_mps": 0.13346698880195618}, "flight": {"mode": "STABILIZE", "armed": false}, "ekf": {"attitude": {"roll": 0.02469116449356079, "pitch": 0.029705874621868134, "yaw": 0.7268048524856567}, "local_position": {"x": 4.9669694900512695, "y": -8.96236515045166, "z": -5.85921573638916}, "status": {"flags": 33599, "velocity_variance": 0.20446988940238953, "pos_horiz_variance": 0.005839105229824781, "pos_vert_variance": 0.12906420230865479}}, "errors": []}
{"timestamp": "2025-12-28T09:51:59.368843Z", "telemetry": {"lat": 28.75312, "lon": 77.1177818, "satellites": 11, "altitude_gps_m": 214.77999877929688, "groundspeed_mps": 0.11515665054321289}, "flight": {"mode": "STABILIZE", "armed": false}, "ekf": {"attitude": {"roll": 0.02434096485376358, "pitch": 0.028792841359972954, "yaw": 0.727024495601654}, "local_position": {"x": 4.932448387145996, "y": -9.095816612243652, "z": -5.859103679656982}, "status": {"flags": 33599, "velocity_variance": 0.22118374705314636, "pos_horiz_variance": 0.0029823381919413805, "pos_vert_variance": 0.01422112062573433}}, "errors": []}
{"timestamp": "2025-12-28T09:52:00.368343Z", "telemetry": {"lat": 28.7531189, "lon": 77.1177761, "satellites": 11, "altitude_gps_m": 214.80999755859375, "groundspeed_mps": 0.13817746937274933}, "flight": {"mode": "STABILIZE", "armed": false}, "ekf": {"attitude": {"roll": 0.023800553753972054, "pitch": 0.0290888249874115, "yaw": 0.7272631525993347}, "local_position": {"x": 4.95305061340332, "y": -9.266408920288086, "z": -5.878293514251709}, "status": {"flags": 33599, "velocity_variance": 0.11612584441900253, "pos_horiz_variance": 0.011219211854040623, "pos_vert_variance": 0.024335041642189026}}, "errors": []}
{"timestamp": "2025-12-28T09:52:01.371547Z", "telemetry": {"lat": 28.7531163, "lon": 77.1177737, "satellites": 11, "altitude_gps_m": 214.8199920654297, "groundspeed_mps": 0.1752626746892929}, "flight": {"mode": "STABILIZE", "armed": false}, "ekf": {"attitude": {"roll": 0.024118809029459953, "pitch": 0.029367821291089058, "yaw": 0.7273674011230469}, "local_position": {"x": 4.798678874969482, "y": -9.565142631530762, "z": -5.905050754547119}, "status": {"flags": 33599, "velocity_variance": 0.4409293830394745, "pos_horiz_variance": 0.012062969617545605, "pos_vert_variance": 0.022135978564620018}}, "errors": []}
{"timestamp": "2025-12-28T09:52:02.371404Z", "telemetry": {"lat": 28.753116, "lon": 77.1177704, "satellites": 11, "altitude_gps_m": 214.6999969482422, "groundspeed_mps": 0.20832355320453644}, "flight": {"mode": "STABILIZE", "armed": false}, "ekf": {"attitude": {"roll": 0.02369776926934719, "pitch": 0.029327809810638428, "yaw": 0.7272260189056396}, "local_position": {"x": 4.640369892120361, "y": -9.88811206817627, "z": -5.798479080200195}, "status": {"flags": 33599, "velocity_variance": 0.15421490371227264, "pos_horiz_variance": 0.011356044560670853, "pos_vert_variance": 0.037662822753190994}}, "errors": []}
{"timestamp": "2025-12-28T09:52:03.370090Z", "telemetry": {"lat": 28.7531167, "lon": 77.1177678, "satellites": 11, "altitude_gps_m": 214.6699981689453, "groundspeed_mps": 0.17338792979717255}, "flight": {"mode": "STABILIZE", "armed": false}, "ekf": {"attitude": {"roll": 0.02342202514410019, "pitch": 0.02858668938279152, "yaw": 0.727266788482666}, "local_position": {"x": 4.704767227172852, "y": -10.037602424621582, "z": -5.745450496673584}, "status": {"flags": 33599, "velocity_variance": 0.38588008284568787, "pos_horiz_variance": 0.014056021347641945, "pos_vert_variance": 0.007008491083979607}}, "errors": []}
{"timestamp": "2025-12-28T09:52:04.369471Z", "telemetry": {"lat": 28.7531135, "lon": 77.1177638, "satellites": 10, "altitude_gps_m": 214.67999267578125, "groundspeed_mps": 0.2168073058128357}, "flight": {"mode": "STABILIZE", "armed": false}, "ekf": {"attitude": {"roll": 0.023831425234675407, "pitch": 0.02909700758755207, "yaw": 0.7273500561714172}, "local_position": {"x": 4.493791580200195, "y": -10.35955810546875, "z": -5.756107807159424}, "status": {"flags": 33599, "velocity_variance": 0.22705647349357605, "pos_horiz_variance": 0.016667475923895836, "pos_vert_variance": 0.04417700320482254}}, "errors": []}
{"timestamp": "2025-12-28T09:52:05.369040Z", "telemetry": {"lat": 28.7531123, "lon": 77.117761, "satellites": 10, "altitude_gps_m": 214.64999389648438, "groundspeed_mps": 0.24956445395946503}, "flight": {"mode": "STABILIZE", "armed": false}, "ekf": {"attitude": {"roll": 0.024095293134450912, "pitch": 0.029438624158501625, "yaw": 0.7274177074432373}, "local_position": {"x": 4.211864471435547, "y": -10.634636878967285, "z": -5.725902080535889}, "status": {"flags": 33599, "velocity_variance": 0.27272701263427734, "pos_horiz_variance": 0.01431176345795393, "pos_vert_variance": 0.031194467097520828}}, "errors": []}
{"timestamp": "2025-12-28T09:52:06.368486Z", "telemetry": {"lat": 28.7531125, "lon": 77.1177584, "satellites": 10, "altitude_gps_m": 214.5699920654297, "groundspeed_mps": 0.24377590417861938}, "flight": {"mode": "STABILIZE", "armed": false}, "ekf": {"attitude": {"roll": 0.0239979550242424, "pitch": 0.02899625338613987, "yaw": 0.7275508046150208}, "local_position": {"x": 4.106489181518555, "y": -10.89303207397461, "z": -5.644345283508301}, "status": {"flags": 33599, "velocity_variance": 0.20819760859012604, "pos_horiz_variance": 0.014493240043520927, "pos_vert_variance": 0.049207206815481186}}, "errors": []}
{"timestamp": "2025-12-28T09:52:07.368545Z", "telemetry": {"lat": 28.7531159, "lon": 77.1177566, "satellites": 9, "altitude_gps_m": 214.70999145507812, "groundspeed_mps": 0.21785317361354828}, "flight": {"mode": "STABILIZE", "armed": false}, "ekf": {"attitude": {"roll": 0.023525314405560493, "pitch": 0.02823486737906933, "yaw": 0.7276131510734558}, "local_position": {"x": 4.189449310302734, "y": -11.130179405212402, "z": -5.70361328125}, "status": {"flags": 33599, "velocity_variance": 0.20584797859191895, "pos_horiz_variance": 0.01382150873541832, "pos_vert_variance": 0.05457867681980133}}, "errors": []}
{"timestamp": "2025-12-28T09:52:08.368872Z", "telemetry": {"lat": 28.7531152, "lon": 77.1177555, "satellites": 9, "altitude_gps_m": 214.80999755859375, "groundspeed_mps": 0.2028055340051651}, "flight": {"mode": "STABILIZE", "armed": false}, "ekf": {"attitude": {"roll": 0.024231987074017525, "pitch": 0.02821393869817257, "yaw": 0.7275866270065308}, "local_position": {"x": 4.047934532165527, "y": -11.29097843170166, "z": -5.885200023651123}, "status": {"flags": 33599, "velocity_variance": 0.15791045129299164, "pos_horiz_variance": 0.014721590094268322, "pos_vert_variance": 0.005470810923725367}}, "errors": []}
{"timestamp": "2025-12-28T09:52:09.368429Z", "telemetry": {"lat": 28.7531223, "lon": 77.1177549, "satellites": 9, "altitude_gps_m": 214.8199920654297, "groundspeed_mps": 0.14484769105911255}, "flight": {"mode": "STABILIZE", "armed": false}, "ekf": {"attitude": {"roll": 0.023140091449022293, "pitch": 0.026530016213655472, "yaw": 0.7276352047920227}, "local_position": {"x": 4.346855640411377, "y": -11.441463470458984, "z": -5.901511192321777}, "status": {"flags": 33599, "velocity_variance": 0.15624192357063293, "pos_horiz_variance": 0.021092800423502922, "pos_vert_variance": 0.01625817082822323}}, "errors": []}
{"timestamp": "2025-12-28T09:52:10.367957Z", "telemetry": {"lat": 28.7531238, "lon": 77.1177538, "satellites": 8, "altitude_gps_m": 214.7899932861328, "groundspeed_mps": 0.1489320993423462}, "flight": {"mode": "STABILIZE", "armed": false}, "ekf": {"attitude": {"roll": 0.02308332733809948, "pitch": 0.026354443281888962, "yaw": 0.7277968525886536}, "local_position": {"x": 4.5968241691589355, "y": -11.647988319396973, "z": -5.8800249099731445}, "status": {"flags": 33599, "velocity_variance": 0.16396057605743408, "pos_horiz_variance": 0.020682020112872124, "pos_vert_variance": 0.040984686464071274}}, "errors": []}
{"timestamp": "2025-12-28T09:52:11.372149Z", "telemetry": {"lat": 28.7531253, "lon": 77.1177561, "satellites": 8, "altitude_gps_m": 214.8300018310547, "groundspeed_mps": 0.11204212158918381}, "flight": {"mode": "STABILIZE", "armed": false}, "ekf": {"attitude": {"roll": 0.02359219826757908, "pitch": 0.02586006373167038, "yaw": 0.727889358997345}, "local_position": {"x": 4.77241849899292, "y": -11.710711479187012, "z": -5.9075775146484375}, "status": {"flags": 33599, "velocity_variance": 0.08990603685379028, "pos_horiz_variance": 0.018715687096118927, "pos_vert_variance": 0.0655750185251236}}, "errors": []}
{"timestamp": "2025-12-28T09:52:12.368829Z", "telemetry": {"lat": 28.7531312, "lon": 77.1177576, "satellites": 9, "altitude_gps_m": 214.79998779296875, "groundspeed_mps": 0.16789774596691132}, "flight": {"mode": "STABILIZE", "armed": false}, "ekf": {"attitude": {"roll": 0.023288851603865623, "pitch": 0.024333229288458824, "yaw": 0.7280867099761963}, "local_position": {"x": 5.258782863616943, "y": -11.640101432800293, "z": -5.872974872589111}, "status": {"flags": 33599, "velocity_variance": 0.3145591616630554, "pos_horiz_variance": 0.024608241394162178, "pos_vert_variance": 0.06598386913537979}}, "errors": []}
{"timestamp": "2025-12-28T09:52:13.368789Z", "telemetry": {"lat": 28.753137, "lon": 77.1177535, "satellites": 9, "altitude_gps_m": 214.86000061035156, "groundspeed_mps": 0.2918780744075775}, "flight": {"mode": "STABILIZE", "armed": false}, "ekf": {"attitude": {"roll": 0.021873444318771362, "pitch": 0.02406778372824192, "yaw": 0.7281275391578674}, "local_position": {"x": 5.879601001739502, "y": -11.86496639251709, "z": -5.931221961975098}, "status": {"flags": 33599, "velocity_variance": 0.3506847023963928, "pos_horiz_variance": 0.025721475481987, "pos_vert_variance": 0.004777714144438505}}, "errors": []}
{"timestamp": "2025-12-28T09:52:14.372402Z", "telemetry": {"lat": 28.7531457, "lon": 77.1177563, "satellites": 8, "altitude_gps_m": 214.80999755859375, "groundspeed_mps": 0.44169825315475464}, "flight": {"mode": "STABILIZE", "armed": false}, "ekf": {"attitude": {"roll": 0.021476350724697113, "pitch": 0.022293508052825928, "yaw": 0.7282454967498779}, "local_position": {"x": 6.729244232177734, "y": -11.761107444763184, "z": -5.883873462677002}, "status": {"flags": 33599, "velocity_variance": 0.2207840532064438, "pos_horiz_variance": 0.029422655701637268, "pos_vert_variance": 0.03568021580576897}}, "errors": []}
{"timestamp": "2025-12-28T09:52:15.368782Z", "telemetry": {"lat": 28.7531502, "lon": 77.1177572, "satellites": 8, "altitude_gps_m": 214.8699951171875, "groundspeed_mps": 0.5474045276641846}, "flight": {"mode": "STABILIZE", "armed": false}, "ekf": {"attitude": {"roll": 0.021550940349698067, "pitch": 0.021699504926800728, "yaw": 0.7284339070320129}, "local_position": {"x": 7.517157554626465, "y": -11.66219425201416, "z": -5.948276996612549}, "status": {"flags": 33599, "velocity_variance": 0.22961926460266113, "pos_horiz_variance": 0.023133384063839912, "pos_vert_variance": 0.07043790817260742}}, "errors": []}
{"timestamp": "2025-12-28T09:52:16.368629Z", "telemetry": {"lat": 28.753153, "lon": 77.1177566, "satellites": 8, "altitude_gps_m": 214.8199920654297, "groundspeed_mps": 0.5559415221214294}, "flight": {"mode": "STABILIZE", "armed": false}, "ekf": {"attitude": {"roll": 0.02181863784790039, "pitch": 0.022372165694832802, "yaw": 0.7286251187324524}, "local_position": {"x": 8.008302688598633, "y": -11.580431938171387, "z": -5.897041320800781}, "status": {"flags": 33599, "velocity_variance": 0.24746552109718323, "pos_horiz_variance": 0.01914490945637226, "pos_vert_variance": 0.0003269888402428478}}, "errors": ["PreArm: Hardware safety switch"]}
{"timestamp": "2025-12-28T09:52:17.368161Z", "telemetry": {"lat": 28.7531562, "lon": 77.1177586, "satellites": 8, "altitude_gps_m": 214.8699951171875, "groundspeed_mps": 0.5785221457481384}, "flight": {"mode": "STABILIZE", "armed": false}, "ekf": {"attitude": {"roll": 0.02252023294568062, "pitch": 0.02237517200410366, "yaw": 0.7289991974830627}, "local_position": {"x": 8.557774543762207, "y": -11.525062561035156, "z": -5.9453935623168945}, "status": {"flags": 33599, "velocity_variance": 0.19515909254550934, "pos_horiz_variance": 0.013666515238583088, "pos_vert_variance": 0.0016296547837555408}}, "errors": ["PreArm: Hardware safety switch"]}
{"timestamp": "2025-12-28T09:52:18.368493Z", "telemetry": {"lat": 28.7531566, "lon": 77.1177542, "satellites": 8, "altitude_gps_m": 214.89999389648438, "groundspeed_mps": 0.492118775844574}, "flight": {"mode": "STABILIZE", "armed": false}, "ekf": {"attitude": {"roll": 0.022437067702412605, "pitch": 0.02474447339773178, "yaw": 0.7290953993797302}, "local_position": {"x": 8.781989097595215, "y": -11.760772705078125, "z": -5.971737861633301}, "status": {"flags": 33599, "velocity_variance": 0.3121679127216339, "pos_horiz_variance": 0.00848362036049366, "pos_vert_variance": 0.07387255877256393}}, "errors": ["PreArm: Hardware safety switch"]}
{"timestamp": "2025-12-28T09:52:19.368305Z", "telemetry": {"lat": 28.7531607, "lon": 77.1177565, "satellites": 8, "altitude_gps_m": 214.87998962402344, "groundspeed_mps": 0.4741131365299225}, "flight": {"mode": "STABILIZE", "armed": false}, "ekf": {"attitude": {"roll": 0.0230751633644104, "pitch": 0.024738553911447525, "yaw": 0.7290817499160767}, "local_position": {"x": 9.163744926452637, "y": -11.787476539611816, "z": -5.959183692932129}, "status": {"flags": 33599, "velocity_variance": 0.3859628140926361, "pos_horiz_variance": 0.011793992482125759, "pos_vert_variance": 0.03515220806002617}}, "errors": ["PreArm: Hardware safety switch"]}
{"timestamp": "2025-12-28T09:52:20.374554Z", "telemetry": {"lat": 28.7531596, "lon": 77.1177557, "satellites": 8, "altitude_gps_m": 214.9099884033203, "groundspeed_mps": 0.37729379534721375}, "flight": {"mode": "STABILIZE", "armed": false}, "ekf": {"attitude": {"roll": 0.023975960910320282, "pitch": 0.026626382023096085, "yaw": 0.729296863079071}, "local_position": {"x": 9.287941932678223, "y": -11.80463981628418, "z": -5.987919330596924}, "status": {"flags": 33599, "velocity_variance": 0.1846647411584854, "pos_horiz_variance": 0.00491533474996686, "pos_vert_variance": 0.010826876387000084}}, "errors": ["PreArm: Hardware safety switch"]}
{"timestamp": "2025-12-28T09:52:21.368444Z", "telemetry": {"lat": 28.7531595, "lon": 77.1177565, "satellites": 8, "altitude_gps_m": 214.8300018310547, "groundspeed_mps": 0.2553410530090332}, "flight": {"mode": "STABILIZE", "armed": false}, "ekf": {"attitude": {"roll": 0.025181662291288376, "pitch": 0.027896661311388016, "yaw": 0.7294600009918213}, "local_position": {"x": 9.249924659729004, "y": -11.78323745727539, "z": -5.906481742858887}, "status": {"flags": 33599, "velocity_variance": 0.12707802653312683, "pos_horiz_variance": 0.004329621326178312, "pos_vert_variance": 0.043553099036216736}}, "errors": ["PreArm: Hardware safety switch"]}
{"timestamp": "2025-12-28T09:52:22.368183Z", "telemetry": {"lat": 28.7531654, "lon": 77.1177585, "satellites": 9, "altitude_gps_m": 214.79998779296875, "groundspeed_mps": 0.24385316669940948}, "flight": {"mode": "STABILIZE", "armed": false}, "ekf": {"attitude": {"roll": 0.025335019454360008, "pitch": 0.028134331107139587, "yaw": 0.7295331358909607}, "local_position": {"x": 9.531062126159668, "y": -11.686880111694336, "z": -5.869792938232422}, "status": {"flags": 33599, "velocity_variance": 0.030299989506602287, "pos_horiz_variance": 0.013484469614923, "pos_vert_variance": 0.00657842168584466}}, "errors": ["PreArm: Hardware safety switch"]}
{"timestamp": "2025-12-28T09:52:23.368261Z", "telemetry": {"lat": 28.7531733, "lon": 77.1177639, "satellites": 9, "altitude_gps_m": 214.84999084472656, "groundspeed_mps": 0.336264431476593}, "flight": {"mode": "STABILIZE", "armed": false}, "ekf": {"attitude": {"roll": 0.025421692058444023, "pitch": 0.026924051344394684, "yaw": 0.729782223701477}, "local_position": {"x": 10.015629768371582, "y": -11.424677848815918, "z": -5.937820911407471}, "status": {"flags": 33599, "velocity_variance": 0.121966153383255, "pos_horiz_variance": 0.024757569655776024, "pos_vert_variance": 0.04425106197595596}}, "errors": ["PreArm: Hardware safety switch"]}
{"timestamp": "2025-12-28T09:52:24.368760Z", "telemetry": {"lat": 28.7531769, "lon": 77.1177619, "satellites": 9, "altitude_gps_m": 214.80999755859375, "groundspeed_mps": 0.3000621795654297}, "flight": {"mode": "STABILIZE", "armed": false}, "ekf": {"attitude": {"roll": 0.024690108373761177, "pitch": 0.02843141369521618, "yaw": 0.729893684387207}, "local_position": {"x": 10.556221008300781, "y": -11.423788070678711, "z": -5.88640022277832}, "status": {"flags": 33599, "velocity_variance": 0.27877992391586304, "pos_horiz_variance": 0.02039644867181778, "pos_vert_variance": 0.06338723003864288}}, "errors": ["PreArm: Hardware safety switch"]}
{"timestamp": "2025-12-28T09:52:25.368545Z", "telemetry": {"lat": 28.7531773, "lon": 77.1177572, "satellites": 9, "altitude_gps_m": 214.84999084472656, "groundspeed_mps": 0.20686113834381104}, "flight": {"mode": "STABILIZE", "armed": false}, "ekf": {"attitude": {"roll": 0.02393636479973793, "pitch": 0.03141303360462189, "yaw": 0.7297165989875793}, "local_position": {"x": 10.646398544311523, "y": -11.85807991027832, "z": -5.9281792640686035}, "status": {"flags": 33599, "velocity_variance": 0.2995298504829407, "pos_horiz_variance": 0.01809106022119522, "pos_vert_variance": 0.08428379893302917}}, "errors": ["PreArm: Hardware safety switch"]}
{"timestamp": "2025-12-28T09:52:26.368551Z", "telemetry": {"lat": 28.7531822, "lon": 77.117761, "satellites": 9, "altitude_gps_m": 214.87998962402344, "groundspeed_mps": 0.19798462092876434}, "flight": {"mode": "STABILIZE", "armed": false}, "ekf": {"attitude": {"roll": 0.024418840184807777, "pitch": 0.030973117798566818, "yaw": 0.7296382188796997}, "local_position": {"x": 11.01183795928955, "y": -11.802698135375977, "z": -5.954970359802246}, "status": {"flags": 33599, "velocity_variance": 0.20871786773204803, "pos_horiz_variance": 0.025256702676415443, "pos_vert_variance": 0.07507714629173279}}, "errors": ["PreArm: Hardware safety switch"]}
{"timestamp": "2025-12-28T09:52:27.368881Z", "telemetry": {"lat": 28.7531844, "lon": 77.1177634, "satellites": 9, "altitude_gps_m": 214.92999267578125, "groundspeed_mps": 0.1502920687198639}, "flight": {"mode": "STABILIZE", "armed": false}, "ekf": {"attitude": {"roll": 0.024955077096819878, "pitch": 0.031403250992298126, "yaw": 0.7294126749038696}, "local_position": {"x": 11.25919246673584, "y": -11.69401741027832, "z": -6.000764846801758}, "status": {"flags": 33599, "velocity_variance": 0.035180095583200455, "pos_horiz_variance": 0.028604313731193542, "pos_vert_variance": 0.00045948027400299907}}, "errors": ["PreArm: Hardware safety switch"]}
{"timestamp": "2025-12-28T09:52:28.367852Z", "telemetry": {"lat": 28.7531869, "lon": 77.1177693, "satellites": 9, "altitude_gps_m": 214.84999084472656, "groundspeed_mps": 0.11628594994544983}, "flight": {"mode": "STABILIZE", "armed": false}, "ekf": {"attitude": {"roll": 0.026004733517766, "pitch": 0.030913449823856354, "yaw": 0.7293322682380676}, "local_position": {"x": 11.558158874511719, "y": -11.331802368164062, "z": -5.926056861877441}, "status": {"flags": 33599, "velocity_variance": 0.34252747893333435, "pos_horiz_variance": 0.031622786074876785, "pos_vert_variance": 0.05952088534832001}}, "errors": ["PreArm: Hardware safety switch"]}
{"timestamp": "2025-12-28T09:52:29.373720Z", "telemetry": {"lat": 28.7531856, "lon": 77.1177712, "satellites": 10, "altitude_gps_m": 214.72999572753906, "groundspeed_mps": 0.08677137643098831}, "flight": {"mode": "STABILIZE", "armed": false}, "ekf": {"attitude": {"roll": 0.026556430384516716, "pitch": 0.0312567837536335, "yaw": 0.7292830348014832}, "local_position": {"x": 11.669034004211426, "y": -11.090420722961426, "z": -5.819014549255371}, "status": {"flags": 33599, "velocity_variance": 0.0801825299859047, "pos_horiz_variance": 0.02738311141729355, "pos_vert_variance": 0.029966043308377266}}, "errors": ["PreArm: Hardware safety switch"]}
{"timestamp": "2025-12-28T09:52:30.373020Z", "telemetry": {"lat": 28.7531807, "lon": 77.1177723, "satellites": 10, "altitude_gps_m": 214.739990234375, "groundspeed_mps": 0.09158899635076523}, "flight": {"mode": "STABILIZE", "armed": false}, "ekf": {"attitude": {"roll": 0.02704891748726368, "pitch": 0.03153187409043312, "yaw": 0.7292652726173401}, "local_position": {"x": 11.718613624572754, "y": -10.78884220123291, "z": -5.812793731689453}, "status": {"flags": 33599, "velocity_variance": 0.2681957185268402, "pos_horiz_variance": 0.01914755254983902, "pos_vert_variance": 0.0022826839704066515}}, "errors": ["PreArm: Hardware safety switch"]}
{"timestamp": "2025-12-28T09:52:31.368533Z", "telemetry": {"lat": 28.753174, "lon": 77.1177698, "satellites": 10, "altitude_gps_m": 214.59999084472656, "groundspeed_mps": 0.16508165001869202}, "flight": {"mode": "STABILIZE", "armed": false}, "ekf": {"attitude": {"roll": 0.02746393531560898, "pitch": 0.03331836313009262, "yaw": 0.7293562293052673}, "local_position": {"x": 11.326254844665527, "y": -10.74184513092041, "z": -5.674197673797607}, "status": {"flags": 33599, "velocity_variance": 0.15570208430290222, "pos_horiz_variance": 0.015459409914910793, "pos_vert_variance": 0.021069766953587532}}, "errors": ["PreArm: Hardware safety switch"]}
{"timestamp": "2025-12-28T09:52:32.368340Z", "telemetry": {"lat": 28.753173, "lon": 77.1177709, "satellites": 10, "altitude_gps_m": 214.5800018310547, "groundspeed_mps": 0.19540993869304657}, "flight": {"mode": "STABILIZE", "armed": false}, "ekf": {"attitude": {"roll": 0.027440115809440613, "pitch": 0.033597227185964584, "yaw": 0.7293801307678223}, "local_position": {"x": 11.196310043334961, "y": -10.671252250671387, "z": -5.652228832244873}, "status": {"flags": 33599, "velocity_variance": 0.11617686599493027, "pos_horiz_variance": 0.016222894191741943, "pos_vert_variance": 0.0028957638423889875}}, "errors": ["PreArm: Hardware safety switch"]}
{"timestamp": "2025-12-28T09:52:33.373641Z", "telemetry": {"lat": 28.7531691, "lon": 77.117771, "satellites": 10, "altitude_gps_m": 214.63999938964844, "groundspeed_mps": 0.2865401804447174}, "flight": {"mode": "STABILIZE", "armed": false}, "ekf": {"attitude": {"roll": 0.02748265117406845, "pitch": 0.03357687219977379, "yaw": 0.7295334339141846}, "local_position": {"x": 10.854576110839844, "y": -10.590632438659668, "z": -5.667368412017822}, "status": {"flags": 33599, "velocity_variance": 0.14200003445148468, "pos_horiz_variance": 0.015099127776920795, "pos_vert_variance": 0.046314433217048645}}, "errors": ["PreArm: Hardware safety switch"]}
{"timestamp": "2025-12-28T09:52:34.367931Z", "telemetry": {"lat": 28.7531668, "lon": 77.1177727, "satellites": 10, "altitude_gps_m": 214.61000061035156, "groundspeed_mps": 0.3340674638748169}, "flight": {"mode": "STABILIZE", "armed": false}, "ekf": {"attitude": {"roll": 0.027455685660243034, "pitch": 0.033378347754478455, "yaw": 0.729601263999939}, "local_position": {"x": 10.476472854614258, "y": -10.418106079101562, "z": -5.689741611480713}, "status": {"flags": 33599, "velocity_variance": 0.11299170553684235, "pos_horiz_variance": 0.014968103729188442, "pos_vert_variance": 0.05216419696807861}}, "errors": ["PreArm: Hardware safety switch"]}
{"timestamp": "2025-12-28T09:52:35.368421Z", "telemetry": {"lat": 28.7531666, "lon": 77.1177732, "satellites": 10, "altitude_gps_m": 214.64999389648438, "groundspeed_mps": 0.3496946096420288}, "flight": {"mode": "STABILIZE", "armed": false}, "ekf": {"attitude": {"roll": 0.02698114886879921, "pitch": 0.03282986208796501, "yaw": 0.729597806930542}, "local_position": {"x": 10.242850303649902, "y": -10.31156063079834, "z": -5.690231800079346}, "status": {"flags": 33599, "velocity_variance": 0.4525633156299591, "pos_horiz_variance": 0.01017889566719532, "pos_vert_variance": 0.11824050545692444}}, "errors": ["PreArm: Hardware safety switch"]}
{"timestamp": "2025-12-28T09:52:36.368673Z", "telemetry": {"lat": 28.7531662, "lon": 77.1177767, "satellites": 10, "altitude_gps_m": 214.72000122070312, "groundspeed_mps": 0.36132290959358215}, "flight": {"mode": "STABILIZE", "armed": false}, "ekf": {"attitude": {"roll": 0.027023490518331528, "pitch": 0.03243882581591606, "yaw": 0.7296400666236877}, "local_position": {"x": 10.023534774780273, "y": -10.058052062988281, "z": -5.797738552093506}, "status": {"flags": 33599, "velocity_variance": 0.07071389257907867, "pos_horiz_variance": 0.011569474823772907, "pos_vert_variance": 0.0032357799354940653}}, "errors": ["PreArm: Hardware safety switch"]}
{"timestamp": "2025-12-28T09:52:37.368420Z", "telemetry": {"lat": 28.7531649, "lon": 77.1177771, "satellites": 9, "altitude_gps_m": 214.6999969482422, "groundspeed_mps": 0.399720162153244}, "flight": {"mode": "STABILIZE", "armed": false}, "ekf": {"attitude": {"roll": 0.02664836309850216, "pitch": 0.03273611143231392, "yaw": 0.7296981811523438}, "local_position": {"x": 9.70203971862793, "y": -9.970044136047363, "z": -5.77347993850708}, "status": {"flags": 33599, "velocity_variance": 0.22924137115478516, "pos_horiz_variance": 0.011427701450884342, "pos_vert_variance": 0.054537929594516754}}, "errors": ["PreArm: Hardware safety switch"]}
{"timestamp": "2025-12-28T09:52:38.368642Z", "telemetry": {"lat": 28.7531664, "lon": 77.1177796, "satellites": 9, "altitude_gps_m": 214.739990234375, "groundspeed_mps": 0.38662615418434143}, "flight": {"mode": "STABILIZE", "armed": false}, "ekf": {"attitude": {"roll": 0.026109609752893448, "pitch": 0.03200714662671089, "yaw": 0.7296717762947083}, "local_position": {"x": 9.571369171142578, "y": -9.848626136779785, "z": -5.794729232788086}, "status": {"flags": 33599, "velocity_variance": 0.1560424119234085, "pos_horiz_variance": 0.018172062933444977, "pos_vert_variance": 0.0027616764418780804}}, "errors": ["PreArm: Hardware safety switch"]}
{"timestamp": "2025-12-28T09:52:39.374012Z", "telemetry": {"lat": 28.7531644, "lon": 77.1177812, "satellites": 10, "altitude_gps_m": 214.6999969482422, "groundspeed_mps": 0.3666028678417206}, "flight": {"mode": "STABILIZE", "armed": false}, "ekf": {"attitude": {"roll": 0.02560603618621826, "pitch": 0.031338851898908615, "yaw": 0.7296067476272583}, "local_position": {"x": 9.456006050109863, "y": -9.603520393371582, "z": -5.771602630615234}, "status": {"flags": 33599, "velocity_variance": 0.2519057095050812, "pos_horiz_variance": 0.015383242629468441, "pos_vert_variance": 0.042731963098049164}}, "errors": ["PreArm: Hardware safety switch"]}
{"timestamp": "2025-12-28T09:52:40.370094Z", "telemetry": {"lat": 28.753164, "lon": 77.1177821, "satellites": 10, "altitude_gps_m": 214.77999877929688, "groundspeed_mps": 0.2965002655982971}, "flight": {"mode": "STABILIZE", "armed": false}, "ekf": {"attitude": {"roll": 0.024524180218577385, "pitch": 0.029812568798661232, "yaw": 0.7296909689903259}, "local_position": {"x": 9.483728408813477, "y": -9.43252182006836, "z": -5.859684467315674}, "status": {"flags": 33599, "velocity_variance": 0.33337870240211487, "pos_horiz_variance": 0.013028022833168507, "pos_vert_variance": 0.027988199144601822}}, "errors": ["PreArm: Hardware safety switch"]}
{"timestamp": "2025-12-28T09:52:41.368615Z", "telemetry": {"lat": 28.7531634, "lon": 77.1177836, "satellites": 10, "altitude_gps_m": 214.77999877929688, "groundspeed_mps": 0.24454061686992645}, "flight": {"mode": "STABILIZE", "armed": false}, "ekf": {"attitude": {"roll": 0.023998869583010674, "pitch": 0.028744326904416084, "yaw": 0.729732096195221}, "local_position": {"x": 9.550481796264648, "y": -9.15954303741455, "z": -5.852467060089111}, "status": {"flags": 33599, "velocity_variance": 0.15486754477024078, "pos_horiz_variance": 0.008376924321055412, "pos_vert_variance": 0.016967613250017166}}, "errors": ["PreArm: Hardware safety switch"]}
{"timestamp": "2025-12-28T09:52:42.368803Z", "telemetry": {"lat": 28.7531662, "lon": 77.1177858, "satellites": 10, "altitude_gps_m": 214.8300018310547, "groundspeed_mps": 0.17581802606582642}, "flight": {"mode": "STABILIZE", "armed": false}, "ekf": {"attitude": {"roll": 0.022967113181948662, "pitch": 0.027150003239512444, "yaw": 0.7296882271766663}, "local_position": {"x": 9.737919807434082, "y": -8.996099472045898, "z": -5.905759334564209}, "status": {"flags": 33599, "velocity_variance": 0.13703951239585876, "pos_horiz_variance": 0.011538632214069366, "pos_vert_variance": 0.04292875528335571}}, "errors": ["PreArm: Hardware safety switch"]}
{"timestamp": "2025-12-28T09:52:43.368772Z", "telemetry": {"lat": 28.7531667, "lon": 77.1177905, "satellites": 10, "altitude_gps_m": 214.79998779296875, "groundspeed_mps": 0.18592417240142822}, "flight": {"mode": "STABILIZE", "armed": false}, "ekf": {"attitude": {"roll": 0.02259049005806446, "pitch": 0.026268556714057922, "yaw": 0.729637086391449}, "local_position": {"x": 9.89216423034668, "y": -8.647191047668457, "z": -5.878119468688965}, "status": {"flags": 33599, "velocity_variance": 0.3869009017944336, "pos_horiz_variance": 0.013753019273281097, "pos_vert_variance": 0.021312415599822998}}, "errors": ["PreArm: Hardware safety switch"]}
{"timestamp": "2025-12-28T09:52:44.368276Z", "telemetry": {"lat": 28.7531679, "lon": 77.117796, "satellites": 10, "altitude_gps_m": 214.86000061035156, "groundspeed_mps": 0.2742226719856262}, "flight": {"mode": "STABILIZE", "armed": false}, "ekf": {"attitude": {"roll": 0.02241554670035839, "pitch": 0.024777669459581375, "yaw": 0.7296438217163086}, "local_position": {"x": 10.181679725646973, "y": -8.161988258361816, "z": -5.937587261199951}, "status": {"flags": 33599, "velocity_variance": 0.21502380073070526, "pos_horiz_variance": 0.013298914767801762, "pos_vert_variance": 0.0005550463101826608}}, "errors": ["PreArm: Hardware safety switch"]}
{"timestamp": "2025-12-28T09:52:45.368552Z", "telemetry": {"lat": 28.7531685, "lon": 77.1177977, "satellites": 10, "altitude_gps_m": 214.79998779296875, "groundspeed_mps": 0.3150128424167633}, "flight": {"mode": "STABILIZE", "armed": false}, "ekf": {"attitude": {"roll": 0.021842634305357933, "pitch": 0.024417361244559288, "yaw": 0.7296048402786255}, "local_position": {"x": 10.431105613708496, "y": -7.852879047393799, "z": -5.8727192878723145}, "status": {"flags": 33599, "velocity_variance": 0.0739268809556961, "pos_horiz_variance": 0.009655768983066082, "pos_vert_variance": 0.03164117783308029}}, "errors": ["PreArm: Hardware safety switch"]}
{"timestamp": "2025-12-28T09:52:46.368012Z", "telemetry": {"lat": 28.7531619, "lon": 77.1178015, "satellites": 10, "altitude_gps_m": 214.77999877929688, "groundspeed_mps": 0.2922714650630951}, "flight": {"mode": "STABILIZE", "armed": false}, "ekf": {"attitude": {"roll": 0.023045239970088005, "pitch": 0.02581368200480938, "yaw": 0.7296004891395569}, "local_position": {"x": 10.141840934753418, "y": -7.544599533081055, "z": -5.852697849273682}, "status": {"flags": 33599, "velocity_variance": 0.480097234249115, "pos_horiz_variance": 0.01694694347679615, "pos_vert_variance": 0.10081465542316437}}, "errors": ["PreArm: Hardware safety switch", "PreArm: Hardware safety switch"]}
{"timestamp": "2025-12-28T09:52:47.368646Z", "telemetry": {"lat": 28.7531637, "lon": 77.1178062, "satellites": 10, "altitude_gps_m": 214.80999755859375, "groundspeed_mps": 0.33246082067489624}, "flight": {"mode": "STABILIZE", "armed": false}, "ekf": {"attitude": {"roll": 0.02275961823761463, "pitch": 0.02505551092326641, "yaw": 0.7295982837677002}, "local_position": {"x": 10.11172103881836, "y": -7.225678443908691, "z": -5.859599590301514}, "status": {"flags": 33599, "velocity_variance": 0.1680629551410675, "pos_horiz_variance": 0.015717431902885437, "pos_vert_variance": 0.010706710629165173}}, "errors": ["PreArm: Hardware safety switch", "PreArm: Hardware safety switch"]}
{"timestamp": "2025-12-28T09:52:48.373585Z", "telemetry": {"lat": 28.75316, "lon": 77.1178049, "satellites": 10, "altitude_gps_m": 214.86000061035156, "groundspeed_mps": 0.2856277823448181}, "flight": {"mode": "STABILIZE", "armed": false}, "ekf": {"attitude": {"roll": 0.022684404626488686, "pitch": 0.026301896199584007, "yaw": 0.7296816110610962}, "local_position": {"x": 9.931316375732422, "y": -6.924037933349609, "z": -5.932347774505615}, "status": {"flags": 33599, "velocity_variance": 0.2653312087059021, "pos_horiz_variance": 0.013463513925671577, "pos_vert_variance": 0.03549220412969589}}, "errors": ["PreArm: Hardware safety switch", "PreArm: Hardware safety switch"]}
{"timestamp": "2025-12-28T09:52:49.370861Z", "telemetry": {"lat": 28.7531611, "lon": 77.1178058, "satellites": 10, "altitude_gps_m": 214.87998962402344, "groundspeed_mps": 0.29008984565734863}, "flight": {"mode": "STABILIZE", "armed": false}, "ekf": {"attitude": {"roll": 0.02241651713848114, "pitch": 0.025902651250362396, "yaw": 0.7296820878982544}, "local_position": {"x": 9.976224899291992, "y": -6.8503522872924805, "z": -5.956674098968506}, "status": {"flags": 33599, "velocity_variance": 0.23680396378040314, "pos_horiz_variance": 0.01256029587239027, "pos_vert_variance": 0.03913094475865364}}, "errors": ["PreArm: Hardware safety switch", "PreArm: Hardware safety switch"]}
{"timestamp": "2025-12-28T09:52:50.397170Z", "telemetry": {"lat": 28.7531611, "lon": 77.1178058, "satellites": 10, "altitude_gps_m": 214.87998962402344, "groundspeed_mps": 0.29008984565734863}, "flight": {"mode": "STABILIZE", "armed": false}, "ekf": {"attitude": {"roll": 0.02241651713848114, "pitch": 0.025902651250362396, "yaw": 0.7296820878982544}, "local_position": {"x": 9.976224899291992, "y": -6.8503522872924805, "z": -5.956674098968506}, "status": {"flags": 33599, "velocity_variance": 0.23680396378040314, "pos_horiz_variance": 0.01256029587239027, "pos_vert_variance": 0.03913094475865364}}, "errors": ["PreArm: Hardware safety switch", "PreArm: Hardware safety switch"]}
{"timestamp": "2025-12-28T09:52:51.367860Z", "telemetry": {"lat": 28.7531564, "lon": 77.1178126, "satellites": 10, "altitude_gps_m": 214.7899932861328, "groundspeed_mps": 0.2117500603199005}, "flight": {"mode": "STABILIZE", "armed": false}, "ekf": {"attitude": {"roll": 0.022419434040784836, "pitch": 0.0274893157184124, "yaw": 0.7294529676437378}, "local_position": {"x": 9.492179870605469, "y": -6.423492431640625, "z": -5.862265586853027}, "status": {"flags": 33599, "velocity_variance": 0.19369420409202576, "pos_horiz_variance": 0.016306091099977493, "pos_vert_variance": 0.03450486436486244}}, "errors": ["PreArm: Hardware safety switch", "PreArm: Hardware safety switch"]}
{"timestamp": "2025-12-28T09:52:52.368026Z", "telemetry": {"lat": 28.7531582, "lon": 77.1178176, "satellites": 10, "altitude_gps_m": 214.69000244140625, "groundspeed_mps": 0.29589566588401794}, "flight": {"mode": "STABILIZE", "armed": false}, "ekf": {"attitude": {"roll": 0.0224749818444252, "pitch": 0.025917276740074158, "yaw": 0.7295767068862915}, "local_position": {"x": 9.544084548950195, "y": -6.113926887512207, "z": -5.791774749755859}, "status": {"flags": 33599, "velocity_variance": 0.24780263006687164, "pos_horiz_variance": 0.01583574339747429, "pos_vert_variance": 0.02280806377530098}}, "errors": ["PreArm: Hardware safety switch", "PreArm: Hardware safety switch", "ArduCopter V4.6.1 (57591cb8)", "ChibiOS: 88b84600", "fmuv3 00240032 33385119 36353030", "IOMCU: 420 1001 411FC231", "RCOut: PWM:1-14", "IMU0: fast sampling enabled 8.0kHz/1.0kHz", "Frame: QUAD/X"]}
{"timestamp": "2025-12-28T09:52:53.368820Z", "telemetry": {"lat": 28.7531594, "lon": 77.1178206, "satellites": 10, "altitude_gps_m": 214.69000244140625, "groundspeed_mps": 0.29589566588401794}, "flight": {"mode": "STABILIZE", "armed": false}, "ekf": {"attitude": {"roll": 0.0224749818444252, "pitch": 0.025917276740074158, "yaw": 0.7295767068862915}, "local_position": {"x": 9.694109916687012, "y": -5.680630207061768, "z": -5.661405086517334}, "status": {"flags": 33599, "velocity_variance": 0.1705865114927292, "pos_horiz_variance": 0.013638830743730068, "pos_vert_variance": 0.00918201170861721}}, "errors": ["PreArm: Hardware safety switch", "PreArm: Hardware safety switch", "ArduCopter V4.6.1 (57591cb8)", "ChibiOS: 88b84600", "fmuv3 00240032 33385119 36353030", "IOMCU: 420 1001 411FC231", "RCOut: PWM:1-14", "IMU0: fast sampling enabled 8.0kHz/1.0kHz", "Frame: QUAD/X"]}
{"timestamp": "2025-12-28T09:52:54.368598Z", "telemetry": {"lat": 28.7531592, "lon": 77.1178223, "satellites": 10, "altitude_gps_m": 214.58999633789062, "groundspeed_mps": 0.3196384608745575}, "flight": {"mode": "STABILIZE", "armed": false}, "ekf": {"attitude": {"roll": 0.02195298671722412, "pitch": 0.02608802542090416, "yaw": 0.7299147844314575}, "local_position": {"x": 9.737582206726074, "y": -5.34830904006958, "z": -5.662472724914551}, "status": {"flags": 33599, "velocity_variance": 0.14493180811405182, "pos_horiz_variance": 0.012958836741745472, "pos_vert_variance": 0.03837776184082031}}, "errors": ["PreArm: Hardware safety switch", "PreArm: Hardware safety switch", "ArduCopter V4.6.1 (57591cb8)", "ChibiOS: 88b84600", "fmuv3 00240032 33385119 36353030", "IOMCU: 420 1001 411FC231", "RCOut: PWM:1-14", "IMU0: fast sampling enabled 8.0kHz/1.0kHz", "Frame: QUAD/X"]}
{"timestamp": "2025-12-28T09:52:55.368536Z", "telemetry": {"lat": 28.753157, "lon": 77.1178234, "satellites": 10, "altitude_gps_m": 214.54998779296875, "groundspeed_mps": 0.24759942293167114}, "flight": {"mode": "STABILIZE", "armed": false}, "ekf": {"attitude": {"roll": 0.021762331947684288, "pitch": 0.02749488689005375, "yaw": 0.7299957871437073}, "local_position": {"x": 9.605509757995605, "y": -5.233667373657227, "z": -5.6214704513549805}, "status": {"flags": 33599, "velocity_variance": 0.12330872565507889, "pos_horiz_variance": 0.014885569922626019, "pos_vert_variance": 0.05540855601429939}}, "errors": ["PreArm: Hardware safety switch", "PreArm: Hardware safety switch", "ArduCopter V4.6.1 (57591cb8)", "ChibiOS: 88b84600", "fmuv3 00240032 33385119 36353030", "IOMCU: 420 1001 411FC231", "RCOut: PWM:1-14", "IMU0: fast sampling enabled 8.0kHz/1.0kHz", "Frame: QUAD/X"]}
{"timestamp": "2025-12-28T09:52:56.368881Z", "telemetry": {"lat": 28.753157, "lon": 77.1178259, "satellites": 10, "altitude_gps_m": 214.52999877929688, "groundspeed_mps": 0.21667711436748505}, "flight": {"mode": "STABILIZE", "armed": false}, "ekf": {"attitude": {"roll": 0.021625086665153503, "pitch": 0.027827847748994827, "yaw": 0.7297627925872803}, "local_position": {"x": 9.523796081542969, "y": -5.044466495513916, "z": -5.603457450866699}, "status": {"flags": 33599, "velocity_variance": 0.12937161326408386, "pos_horiz_variance": 0.01397266611456871, "pos_vert_variance": 0.00888623297214508}}, "errors": ["PreArm: Hardware safety switch", "PreArm: Hardware safety switch", "ArduCopter V4.6.1 (57591cb8)", "ChibiOS: 88b84600", "fmuv3 00240032 33385119 36353030", "IOMCU: 420 1001 411FC231", "RCOut: PWM:1-14", "IMU0: fast sampling enabled 8.0kHz/1.0kHz", "Frame: QUAD/X"]}
{"timestamp": "2025-12-28T09:52:57.368017Z", "telemetry": {"lat": 28.7531535, "lon": 77.117825, "satellites": 10, "altitude_gps_m": 214.39999389648438, "groundspeed_mps": 0.13724766671657562}, "flight": {"mode": "STABILIZE", "armed": false}, "ekf": {"attitude": {"roll": 0.021489398553967476, "pitch": 0.029308198019862175, "yaw": 0.7296850681304932}, "local_position": {"x": 9.306588172912598, "y": -4.994531631469727, "z": -5.474798202514648}, "status": {"flags": 33599, "velocity_variance": 0.4620189368724823, "pos_horiz_variance": 0.017920613288879395, "pos_vert_variance": 0.005229005590081215}}, "errors": ["PreArm: Hardware safety switch", "PreArm: Hardware safety switch", "ArduCopter V4.6.1 (57591cb8)", "ChibiOS: 88b84600", "fmuv3 00240032 33385119 36353030", "IOMCU: 420 1001 411FC231", "RCOut: PWM:1-14", "IMU0: fast sampling enabled 8.0kHz/1.0kHz", "Frame: QUAD/X"]}
{"timestamp": "2025-12-28T09:52:58.372463Z", "telemetry": {"lat": 28.7531523, "lon": 77.1178257, "satellites": 10, "altitude_gps_m": 214.38999938964844, "groundspeed_mps": 0.1156844049692154}, "flight": {"mode": "STABILIZE", "armed": false}, "ekf": {"attitude": {"roll": 0.02153853140771389, "pitch": 0.030518462881445885, "yaw": 0.7295119166374207}, "local_position": {"x": 8.905184745788574, "y": -5.01667594909668, "z": -5.467342853546143}, "status": {"flags": 33599, "velocity_variance": 0.05766161158680916, "pos_horiz_variance": 0.012750637717545033, "pos_vert_variance": 0.04575932025909424}}, "errors": ["PreArm: Hardware safety switch", "PreArm: Hardware safety switch", "ArduCopter V4.6.1 (57591cb8)", "ChibiOS: 88b84600", "fmuv3 00240032 33385119 36353030", "IOMCU: 420 1001 411FC231", "RCOut: PWM:1-14", "IMU0: fast sampling enabled 8.0kHz/1.0kHz", "Frame: QUAD/X"]}
{"timestamp": "2025-12-28T09:52:59.372372Z", "telemetry": {"lat": 28.7531528, "lon": 77.1178277, "satellites": 10, "altitude_gps_m": 214.489990234375, "groundspeed_mps": 0.11901383846998215}, "flight": {"mode": "STABILIZE", "armed": false}, "ekf": {"attitude": {"roll": 0.021628642454743385, "pitch": 0.030310027301311493, "yaw": 0.7292957305908203}, "local_position": {"x": 8.751270294189453, "y": -4.885056495666504, "z": -5.56936502456665}, "status": {"flags": 33599, "velocity_variance": 0.21979385614395142, "pos_horiz_variance": 0.008242740295827389, "pos_vert_variance": 0.029503678902983665}}, "errors": ["PreArm: Hardware safety switch", "PreArm: Hardware safety switch", "ArduCopter V4.6.1 (57591cb8)", "ChibiOS: 88b84600", "fmuv3 00240032 33385119 36353030", "IOMCU: 420 1001 411FC231", "RCOut: PWM:1-14", "IMU0: fast sampling enabled 8.0kHz/1.0kHz", "Frame: QUAD/X"]}
{"timestamp": "2025-12-28T09:53:00.369256Z", "telemetry": {"lat": 28.7531556, "lon": 77.1178309, "satellites": 10, "altitude_gps_m": 214.6599884033203, "groundspeed_mps": 0.08217532187700272}, "flight": {"mode": "STABILIZE", "armed": false}, "ekf": {"attitude": {"roll": 0.021230347454547882, "pitch": 0.029567040503025055, "yaw": 0.7292826175689697}, "local_position": {"x": 8.856199264526367, "y": -4.673186302185059, "z": -5.7362380027771}, "status": {"flags": 33599, "velocity_variance": 0.0833883285522461, "pos_horiz_variance": 0.008937686681747437, "pos_vert_variance": 0.033578794449567795}}, "errors": ["PreArm: Hardware safety switch", "PreArm: Hardware safety switch", "ArduCopter V4.6.1 (57591cb8)", "ChibiOS: 88b84600", "fmuv3 00240032 33385119 36353030", "IOMCU: 420 1001 411FC231", "RCOut: PWM:1-14", "IMU0: fast sampling enabled 8.0kHz/1.0kHz", "Frame: QUAD/X"]}
{"timestamp": "2025-12-28T09:53:01.368209Z", "telemetry": {"lat": 28.753157, "lon": 77.1178329, "satellites": 10, "altitude_gps_m": 214.6199951171875, "groundspeed_mps": 0.06045621261000633}, "flight": {"mode": "STABILIZE", "armed": false}, "ekf": {"attitude": {"roll": 0.020910294726490974, "pitch": 0.029364585876464844, "yaw": 0.729156494140625}, "local_position": {"x": 8.894368171691895, "y": -4.539496898651123, "z": -5.696253299713135}, "status": {"flags": 33599, "velocity_variance": 0.20659111440181732, "pos_horiz_variance": 0.011675436981022358, "pos_vert_variance": 0.00227560312487185}}, "errors": ["PreArm: Hardware safety switch", "PreArm: Hardware safety switch", "ArduCopter V4.6.1 (57591cb8)", "ChibiOS: 88b84600", "fmuv3 00240032 33385119 36353030", "IOMCU: 420 1001 411FC231", "RCOut: PWM:1-14", "IMU0: fast sampling enabled 8.0kHz/1.0kHz", "Frame: QUAD/X"]}
{"timestamp": "2025-12-28T09:53:02.369440Z", "telemetry": {"lat": 28.7531555, "lon": 77.1178335, "satellites": 10, "altitude_gps_m": 214.69000244140625, "groundspeed_mps": 0.04544920474290848}, "flight": {"mode": "STABILIZE", "armed": false}, "ekf": {"attitude": {"roll": 0.020880943164229393, "pitch": 0.02937270514667034, "yaw": 0.7288473844528198}, "local_position": {"x": 8.975621223449707, "y": -4.296589374542236, "z": -5.748569011688232}, "status": {"flags": 33599, "velocity_variance": 0.10434628278017044, "pos_horiz_variance": 0.006998629774898291, "pos_vert_variance": 0.09599421173334122}}, "errors": ["PreArm: Hardware safety switch", "PreArm: Hardware safety switch", "ArduCopter V4.6.1 (57591cb8)", "ChibiOS: 88b84600", "fmuv3 00240032 33385119 36353030", "IOMCU: 420 1001 411FC231", "RCOut: PWM:1-14", "IMU0: fast sampling enabled 8.0kHz/1.0kHz", "Frame: QUAD/X"]}
{"timestamp": "2025-12-28T09:53:03.368223Z", "telemetry": {"lat": 28.7531564, "lon": 77.1178328, "satellites": 10, "altitude_gps_m": 214.70999145507812, "groundspeed_mps": 0.0274642501026392}, "flight": {"mode": "STABILIZE", "armed": false}, "ekf": {"attitude": {"roll": 0.020291225984692574, "pitch": 0.030041920021176338, "yaw": 0.7286426424980164}, "local_position": {"x": 9.058066368103027, "y": -4.296513557434082, "z": -5.786601543426514}, "status": {"flags": 33599, "velocity_variance": 0.28745797276496887, "pos_horiz_variance": 0.004731339868158102, "pos_vert_variance": 0.07028493285179138}}, "errors": ["PreArm: Hardware safety switch", "PreArm: Hardware safety switch", "ArduCopter V4.6.1 (57591cb8)", "ChibiOS: 88b84600", "fmuv3 00240032 33385119 36353030", "IOMCU: 420 1001 411FC231", "RCOut: PWM:1-14", "IMU0: fast sampling enabled 8.0kHz/1.0kHz", "Frame: QUAD/X"]}
{"timestamp": "2025-12-28T09:53:04.367950Z", "telemetry": {"lat": 28.7531545, "lon": 77.1178316, "satellites": 10, "altitude_gps_m": 214.8300018310547, "groundspeed_mps": 0.06758299469947815}, "flight": {"mode": "STABILIZE", "armed": false}, "ekf": {"attitude": {"roll": 0.020151497796177864, "pitch": 0.030344737693667412, "yaw": 0.7285455465316772}, "local_position": {"x": 8.921672821044922, "y": -4.431640625, "z": -5.902536869049072}, "status": {"flags": 33599, "velocity_variance": 0.18989460170269012, "pos_horiz_variance": 0.006170247681438923, "pos_vert_variance": 0.01811078190803528}}, "errors": ["PreArm: Hardware safety switch", "PreArm: Hardware safety switch", "ArduCopter V4.6.1 (57591cb8)", "ChibiOS: 88b84600", "fmuv3 00240032 33385119 36353030", "IOMCU: 420 1001 411FC231", "RCOut: PWM:1-14", "IMU0: fast sampling enabled 8.0kHz/1.0kHz", "Frame: QUAD/X"]}
{"timestamp": "2025-12-28T09:53:05.368775Z", "telemetry": {"lat": 28.7531515, "lon": 77.1178308, "satellites": 10, "altitude_gps_m": 214.8300018310547, "groundspeed_mps": 0.16018034517765045}, "flight": {"mode": "STABILIZE", "armed": false}, "ekf": {"attitude": {"roll": 0.02058759517967701, "pitch": 0.031651828438043594, "yaw": 0.7283313870429993}, "local_position": {"x": 8.662002563476562, "y": -4.520688056945801, "z": -5.866717338562012}, "status": {"flags": 33599, "velocity_variance": 0.14195388555526733, "pos_horiz_variance": 0.007683425210416317, "pos_vert_variance": 0.0013967541744932532}}, "errors": ["PreArm: Hardware safety switch", "PreArm: Hardware safety switch", "ArduCopter V4.6.1 (57591cb8)", "ChibiOS: 88b84600", "fmuv3 00240032 33385119 36353030", "IOMCU: 420 1001 411FC231", "RCOut: PWM:1-14", "IMU0: fast sampling enabled 8.0kHz/1.0kHz", "Frame: QUAD/X"]}
{"timestamp": "2025-12-28T09:53:06.367897Z", "telemetry": {"lat": 28.7531499, "lon": 77.1178305, "satellites": 10, "altitude_gps_m": 214.88999938964844, "groundspeed_mps": 0.18977640569210052}, "flight": {"mode": "STABILIZE", "armed": false}, "ekf": {"attitude": {"roll": 0.02053786627948284, "pitch": 0.031827058643102646, "yaw": 0.72804856300354}, "local_position": {"x": 8.470009803771973, "y": -4.636996269226074, "z": -5.962347507476807}, "status": {"flags": 33599, "velocity_variance": 0.09221170097589493, "pos_horiz_variance": 0.009328953921794891, "pos_vert_variance": 0.04312381148338318}}, "errors": ["PreArm: Hardware safety switch", "PreArm: Hardware safety switch", "ArduCopter V4.6.1 (57591cb8)", "ChibiOS: 88b84600", "fmuv3 00240032 33385119 36353030", "IOMCU: 420 1001 411FC231", "RCOut: PWM:1-14", "IMU0: fast sampling enabled 8.0kHz/1.0kHz", "Frame: QUAD/X"]}
{"timestamp": "2025-12-28T09:53:07.367929Z", "telemetry": {"lat": 28.753148, "lon": 77.1178306, "satellites": 10, "altitude_gps_m": 214.8199920654297, "groundspeed_mps": 0.22185663878917694}, "flight": {"mode": "STABILIZE", "armed": false}, "ekf": {"attitude": {"roll": 0.02083076909184456, "pitch": 0.032036036252975464, "yaw": 0.727806568145752}, "local_position": {"x": 8.263891220092773, "y": -4.700531482696533, "z": -5.889684200286865}, "status": {"flags": 33599, "velocity_variance": 0.13022005558013916, "pos_horiz_variance": 0.010532081127166748, "pos_vert_variance": 0.01819770038127899}}, "errors": ["PreArm: Hardware safety switch", "PreArm: Hardware safety switch", "ArduCopter V4.6.1 (57591cb8)", "ChibiOS: 88b84600", "fmuv3 00240032 33385119 36353030", "IOMCU: 420 1001 411FC231", "RCOut: PWM:1-14", "IMU0: fast sampling enabled 8.0kHz/1.0kHz", "Frame: QUAD/X"]}
{"timestamp": "2025-12-28T09:53:08.374478Z", "telemetry": {"lat": 28.7531443, "lon": 77.1178301, "satellites": 10, "altitude_gps_m": 214.7899932861328, "groundspeed_mps": 0.3213335871696472}, "flight": {"mode": "STABILIZE", "armed": false}, "ekf": {"attitude": {"roll": 0.021115843206644058, "pitch": 0.03304681181907654, "yaw": 0.7277437448501587}, "local_position": {"x": 7.852264404296875, "y": -4.900836944580078, "z": -5.868802070617676}, "status": {"flags": 33599, "velocity_variance": 0.19154180586338043, "pos_horiz_variance": 0.015001061372458935, "pos_vert_variance": 0.04471149295568466}}, "errors": ["PreArm: Hardware safety switch", "PreArm: Hardware safety switch", "ArduCopter V4.6.1 (57591cb8)", "ChibiOS: 88b84600", "fmuv3 00240032 33385119 36353030", "IOMCU: 420 1001 411FC231", "RCOut: PWM:1-14", "IMU0: fast sampling enabled 8.0kHz/1.0kHz", "Frame: QUAD/X"]}
{"timestamp": "2025-12-28T09:53:09.371503Z", "telemetry": {"lat": 28.7531427, "lon": 77.1178281, "satellites": 10, "altitude_gps_m": 214.84999084472656, "groundspeed_mps": 0.36776748299598694}, "flight": {"mode": "STABILIZE", "armed": false}, "ekf": {"attitude": {"roll": 0.020965656265616417, "pitch": 0.03298243135213852, "yaw": 0.7276272177696228}, "local_position": {"x": 7.552098274230957, "y": -5.048876762390137, "z": -5.927181720733643}, "status": {"flags": 33599, "velocity_variance": 0.06952870637178421, "pos_horiz_variance": 0.01181288156658411, "pos_vert_variance": 0.0011032415786758065}}, "errors": ["PreArm: Hardware safety switch", "PreArm: Hardware safety switch", "ArduCopter V4.6.1 (57591cb8)", "ChibiOS: 88b84600", "fmuv3 00240032 33385119 36353030", "IOMCU: 420 1001 411FC231", "RCOut: PWM:1-14", "IMU0: fast sampling enabled 8.0kHz/1.0kHz", "Frame: QUAD/X"]}
{"timestamp": "2025-12-28T09:53:10.368505Z", "telemetry": {"lat": 28.7531432, "lon": 77.1178303, "satellites": 10, "altitude_gps_m": 214.8300018310547, "groundspeed_mps": 0.35363098978996277}, "flight": {"mode": "STABILIZE", "armed": false}, "ekf": {"attitude": {"roll": 0.02110825665295124, "pitch": 0.03216569125652313, "yaw": 0.7273872494697571}, "local_position": {"x": 7.372195243835449, "y": -5.080503940582275, "z": -5.9029860496521}, "status": {"flags": 33599, "velocity_variance": 0.11825908720493317, "pos_horiz_variance": 0.017825350165367126, "pos_vert_variance": 0.009235171601176262}}, "errors": ["PreArm: Hardware safety switch", "PreArm: Hardware safety switch", "ArduCopter V4.6.1 (57591cb8)", "ChibiOS: 88b84600", "fmuv3 00240032 33385119 36353030", "IOMCU: 420 1001 411FC231", "RCOut: PWM:1-14", "IMU0: fast sampling enabled 8.0kHz/1.0kHz", "Frame: QUAD/X"]}
{"timestamp": "2025-12-28T09:53:11.368019Z", "telemetry": {"lat": 28.7531429, "lon": 77.1178341, "satellites": 10, "altitude_gps_m": 214.64999389648438, "groundspeed_mps": 0.2919846177101135}, "flight": {"mode": "STABILIZE", "armed": false}, "ekf": {"attitude": {"roll": 0.02207278087735176, "pitch": 0.030908258631825447, "yaw": 0.7272250056266785}, "local_position": {"x": 7.2300004959106445, "y": -4.885941505432129, "z": -5.722677707672119}, "status": {"flags": 33599, "velocity_variance": 0.18921105563640594, "pos_horiz_variance": 0.024034595116972923, "pos_vert_variance": 0.05164473131299019}}, "errors": ["PreArm: Hardware safety switch", "PreArm: Hardware safety switch", "ArduCopter V4.6.1 (57591cb8)", "ChibiOS: 88b84600", "fmuv3 00240032 33385119 36353030", "IOMCU: 420 1001 411FC231", "RCOut: PWM:1-14", "IMU0: fast sampling enabled 8.0kHz/1.0kHz", "Frame: QUAD/X"]}
{"timestamp": "2025-12-28T09:53:12.368780Z", "telemetry": {"lat": 28.7531452, "lon": 77.117836, "satellites": 10, "altitude_gps_m": 214.70999145507812, "groundspeed_mps": 0.164874866604805}, "flight": {"mode": "STABILIZE", "armed": false}, "ekf": {"attitude": {"roll": 0.021888941526412964, "pitch": 0.02887936867773533, "yaw": 0.7271314263343811}, "local_position": {"x": 7.373362064361572, "y": -4.616511344909668, "z": -5.789678573608398}, "status": {"flags": 33599, "velocity_variance": 0.17859399318695068, "pos_horiz_variance": 0.023572245612740517, "pos_vert_variance": 0.05200950801372528}}, "errors": ["PreArm: Hardware safety switch", "PreArm: Hardware safety switch", "ArduCopter V4.6.1 (57591cb8)", "ChibiOS: 88b84600", "fmuv3 00240032 33385119 36353030", "IOMCU: 420 1001 411FC231", "RCOut: PWM:1-14", "IMU0: fast sampling enabled 8.0kHz/1.0kHz", "Frame: QUAD/X"]}
{"timestamp": "2025-12-28T09:53:13.367930Z", "telemetry": {"lat": 28.7531462, "lon": 77.1178369, "satellites": 10, "altitude_gps_m": 214.739990234375, "groundspeed_mps": 0.12091467529535294}, "flight": {"mode": "STABILIZE", "armed": false}, "ekf": {"attitude": {"roll": 0.02186654880642891, "pitch": 0.028329279273748398, "yaw": 0.7269978523254395}, "local_position": {"x": 7.379307270050049, "y": -4.505626201629639, "z": -5.819411754608154}, "status": {"flags": 33599, "velocity_variance": 0.20757052302360535, "pos_horiz_variance": 0.02544221468269825, "pos_vert_variance": 0.0490068756043911}}, "errors": ["PreArm: Hardware safety switch", "PreArm: Hardware safety switch", "ArduCopter V4.6.1 (57591cb8)", "ChibiOS: 88b84600", "fmuv3 00240032 33385119 36353030", "IOMCU: 420 1001 411FC231", "RCOut: PWM:1-14", "IMU0: fast sampling enabled 8.0kHz/1.0kHz", "Frame: QUAD/X"]}
{"timestamp": "2025-12-28T09:53:14.368829Z", "telemetry": {"lat": 28.7531477, "lon": 77.1178369, "satellites": 10, "altitude_gps_m": 214.70999145507812, "groundspeed_mps": 0.047039370983839035}, "flight": {"mode": "STABILIZE", "armed": false}, "ekf": {"attitude": {"roll": 0.0214514322578907, "pitch": 0.027471298351883888, "yaw": 0.7271082997322083}, "local_position": {"x": 7.600584506988525, "y": -4.377380847930908, "z": -5.7861175537109375}, "status": {"flags": 33599, "velocity_variance": 0.07644174247980118, "pos_horiz_variance": 0.02274254895746708, "pos_vert_variance": 0.014276373200118542}}, "errors": ["PreArm: Hardware safety switch", "PreArm: Hardware safety switch", "ArduCopter V4.6.1 (57591cb8)", "ChibiOS: 88b84600", "fmuv3 00240032 33385119 36353030", "IOMCU: 420 1001 411FC231", "RCOut: PWM:1-14", "IMU0: fast sampling enabled 8.0kHz/1.0kHz", "Frame: QUAD/X"]}
{"timestamp": "2025-12-28T09:53:15.368278Z", "telemetry": {"lat": 28.7531518, "lon": 77.117841, "satellites": 10, "altitude_gps_m": 214.67999267578125, "groundspeed_mps": 0.0764426738023758}, "flight": {"mode": "STABILIZE", "armed": false}, "ekf": {"attitude": {"roll": 0.021452730521559715, "pitch": 0.025771038606762886, "yaw": 0.7269916534423828}, "local_position": {"x": 7.880410194396973, "y": -4.108425617218018, "z": -5.754467964172363}, "status": {"flags": 33599, "velocity_variance": 0.04609218239784241, "pos_horiz_variance": 0.02765675075352192, "pos_vert_variance": 0.053643662482500076}}, "errors": ["PreArm: Hardware safety switch", "PreArm: Hardware safety switch", "ArduCopter V4.6.1 (57591cb8)", "ChibiOS: 88b84600", "fmuv3 00240032 33385119 36353030", "IOMCU: 420 1001 411FC231", "RCOut: PWM:1-14", "IMU0: fast sampling enabled 8.0kHz/1.0kHz", "Frame: QUAD/X"]}
{"timestamp": "2025-12-28T09:53:16.367913Z", "telemetry": {"lat": 28.7531544, "lon": 77.1178428, "satellites": 10, "altitude_gps_m": 214.6199951171875, "groundspeed_mps": 0.1668328493833542}, "flight": {"mode": "STABILIZE", "armed": false}, "ekf": {"attitude": {"roll": 0.021388519555330276, "pitch": 0.024768099188804626, "yaw": 0.7269446849822998}, "local_position": {"x": 8.182016372680664, "y": -3.844656229019165, "z": -5.690295219421387}, "status": {"flags": 33599, "velocity_variance": 0.13751964271068573, "pos_horiz_variance": 0.025954173877835274, "pos_vert_variance": 0.01326833851635456}}, "errors": ["PreArm: Hardware safety switch", "PreArm: Hardware safety switch", "ArduCopter V4.6.1 (57591cb8)", "ChibiOS: 88b84600", "fmuv3 00240032 33385119 36353030", "IOMCU: 420 1001 411FC231", "RCOut: PWM:1-14", "IMU0: fast sampling enabled 8.0kHz/1.0kHz", "Frame: QUAD/X", "PreArm: Hardware safety switch"]}
{"timestamp": "2025-12-28T09:53:17.374170Z", "telemetry": {"lat": 28.7531588, "lon": 77.1178452, "satellites": 10, "altitude_gps_m": 214.63999938964844, "groundspeed_mps": 0.30403420329093933}, "flight": {"mode": "STABILIZE", "armed": false}, "ekf": {"attitude": {"roll": 0.0210930984467268, "pitch": 0.023510191589593887, "yaw": 0.7270050048828125}, "local_position": {"x": 8.690841674804688, "y": -3.4720640182495117, "z": -5.717360973358154}, "status": {"flags": 33599, "velocity_variance": 0.1785522997379303, "pos_horiz_variance": 0.023336390033364296, "pos_vert_variance": 0.02155425399541855}}, "errors": ["PreArm: Hardware safety switch", "PreArm: Hardware safety switch", "ArduCopter V4.6.1 (57591cb8)", "ChibiOS: 88b84600", "fmuv3 00240032 33385119 36353030", "IOMCU: 420 1001 411FC231", "RCOut: PWM:1-14", "IMU0: fast sampling enabled 8.0kHz/1.0kHz", "Frame: QUAD/X", "PreArm: Hardware safety switch"]}
