{"timestamp": "2026-01-15T13:47:07.558846Z", "telemetry": {"lat": 28.7530059, "lon": 77.1179622, "satellites": 0, "altitude_gps_m": 0.28999999165534973, "groundspeed_mps": 0.02463102526962757}, "flight": {"mode": "STABILIZE", "armed": false}, "ekf": {"attitude": {"roll": 0.016140243038535118, "pitch": 0.007463210728019476, "yaw": -0.23404040932655334}, "local_position": {"x": null, "y": null, "z": null}, "status": {"flags": 135, "velocity_variance": 0.0, "pos_horiz_variance": 0.0055723427794873714, "pos_vert_variance": 0.03472144156694412}}, "errors": []}
{"timestamp": "2026-01-15T13:47:08.526716Z", "telemetry": {"lat": 28.7530059, "lon": 77.1179622, "satellites": 0, "altitude_gps_m": 0.28999999165534973, "groundspeed_mps": 0.02907976694405079}, "flight": {"mode": "STABILIZE", "armed": false}, "ekf": {"attitude": {"roll": 0.0161002054810524, "pitch": 0.007376137189567089, "yaw": -0.23412780463695526}, "local_position": {"x": null, "y": null, "z": null}, "status": {"flags": 135, "velocity_variance": 0.0, "pos_horiz_variance": 0.0060828672721982, "pos_vert_variance": 0.014478686265647411}}, "errors": []}
{"timestamp": "2026-01-15T13:47:09.496160Z", "telemetry": {"lat": 28.7530059, "lon": 77.1179622, "satellites": 0, "altitude_gps_m": 0.28999999165534973, "groundspeed_mps": 0.03243521228432655}, "flight": {"mode": "STABILIZE", "armed": false}, "ekf": {"attitude": {"roll": 0.016026167199015617, "pitch": 0.007356599904596806, "yaw": -0.23425284028053284}, "local_position": {"x": null, "y": null, "z": null}, "status": {"flags": 135, "velocity_variance": 0.0, "pos_horiz_variance": 0.00697709433734417, "pos_vert_variance": 0.06008356064558029}}, "errors": []}
{"timestamp": "2026-01-15T13:47:10.495253Z", "telemetry": {"lat": 28.7530059, "lon": 77.1179622, "satellites": 0, "altitude_gps_m": 0.28999999165534973, "groundspeed_mps": 0.033064160495996475}, "flight": {"mode": "STABILIZE", "armed": false}, "ekf": {"attitude": {"roll": 0.015961164608597755, "pitch": 0.007365207187831402, "yaw": -0.23420925438404083}, "local_position": {"x": null, "y": null, "z": null}, "status": {"flags": 135, "velocity_variance": 0.0, "pos_horiz_variance": 0.007481693290174007, "pos_vert_variance": 0.010643073357641697}}, "errors": []}
{"timestamp": "2026-01-15T13:47:11.496124Z", "telemetry": {"lat": 28.7530059, "lon": 77.1179622, "satellites": 0, "altitude_gps_m": 0.28999999165534973, "groundspeed_mps": 0.031970202922821045}, "flight": {"mode": "STABILIZE", "armed": false}, "ekf": {"attitude": {"roll": 0.015948934480547905, "pitch": 0.007450430188328028, "yaw": -0.2341979742050171}, "local_position": {"x": null, "y": null, "z": null}, "status": {"flags": 135, "velocity_variance": 0.0, "pos_horiz_variance": 0.007644220720976591, "pos_vert_variance": 0.01919795759022236}}, "errors": []}
{"timestamp": "2026-01-15T13:47:12.524884Z", "telemetry": {"lat": 28.7530059, "lon": 77.1179622, "satellites": 0, "altitude_gps_m": 0.28999999165534973, "groundspeed_mps": 0.031056277453899384}, "flight": {"mode": "STABILIZE", "armed": false}, "ekf": {"attitude": {"roll": 0.0158967487514019, "pitch": 0.0073637450113892555, "yaw": -0.23429511487483978}, "local_position": {"x": null, "y": null, "z": null}, "status": {"flags": 135, "velocity_variance": 0.0, "pos_horiz_variance": 0.007537845056504011, "pos_vert_variance": 0.03753223642706871}}, "errors": []}
{"timestamp": "2026-01-15T13:47:13.498086Z", "telemetry": {"lat": 28.7530059, "lon": 77.1179622, "satellites": 0, "altitude_gps_m": 0.28999999165534973, "groundspeed_mps": 0.03112276829779148}, "flight": {"mode": "STABILIZE", "armed": false}, "ekf": {"attitude": {"roll": 0.015971260145306587, "pitch": 0.00742393359541893, "yaw": -0.23427261412143707}, "local_position": {"x": null, "y": null, "z": null}, "status": {"flags": 135, "velocity_variance": 0.0, "pos_horiz_variance": 0.007502119522541761, "pos_vert_variance": 0.08969828486442566}}, "errors": []}
{"timestamp": "2026-01-15T13:47:14.499643Z", "telemetry": {"lat": 28.7530059, "lon": 77.1179622, "satellites": 0, "altitude_gps_m": 0.28999999165534973, "groundspeed_mps": 0.02832612209022045}, "flight": {"mode": "STABILIZE", "armed": false}, "ekf": {"attitude": {"roll": 0.016069170087575912, "pitch": 0.007527433801442385, "yaw": -0.2343016415834427}, "local_position": {"x": null, "y": null, "z": null}, "status": {"flags": 135, "velocity_variance": 0.0, "pos_horiz_variance": 0.007583534810692072, "pos_vert_variance": 0.05874768644571304}}, "errors": []}
{"timestamp": "2026-01-15T13:47:15.499225Z", "telemetry": {"lat": 28.7530059, "lon": 77.1179622, "satellites": 0, "altitude_gps_m": 0.28999999165534973, "groundspeed_mps": 0.025167133659124374}, "flight": {"mode": "STABILIZE", "armed": false}, "ekf": {"attitude": {"roll": 0.016060620546340942, "pitch": 0.007542015518993139, "yaw": -0.2343260645866394}, "local_position": {"x": null, "y": null, "z": null}, "status": {"flags": 135, "velocity_variance": 0.0, "pos_horiz_variance": 0.0069595761597156525, "pos_vert_variance": 0.0688246414065361}}, "errors": []}
{"timestamp": "2026-01-15T13:47:16.504252Z", "telemetry": {"lat": 28.7530059, "lon": 77.1179622, "satellites": 0, "altitude_gps_m": 0.28999999165534973, "groundspeed_mps": 0.024228142574429512}, "flight": {"mode": "STABILIZE", "armed": false}, "ekf": {"attitude": {"roll": 0.01612127758562565, "pitch": 0.007496238686144352, "yaw": -0.2343309074640274}, "local_position": {"x": null, "y": null, "z": null}, "status": {"flags": 135, "velocity_variance": 0.0, "pos_horiz_variance": 0.006439009681344032, "pos_vert_variance": 0.03524851053953171}}, "errors": []}
{"timestamp": "2026-01-15T13:47:17.504171Z", "telemetry": {"lat": 28.7530059, "lon": 77.1179622, "satellites": 0, "altitude_gps_m": 0.28999999165534973, "groundspeed_mps": 0.02592458389699459}, "flight": {"mode": "STABILIZE", "armed": false}, "ekf": {"attitude": {"roll": 0.01610022783279419, "pitch": 0.0073884641751646996, "yaw": -0.23437242209911346}, "local_position": {"x": null, "y": null, "z": null}, "status": {"flags": 135, "velocity_variance": 0.0, "pos_horiz_variance": 0.006315069273114204, "pos_vert_variance": 0.011060546152293682}}, "errors": []}
{"timestamp": "2026-01-15T13:47:18.496655Z", "telemetry": {"lat": 28.7530059, "lon": 77.1179622, "satellites": 0, "altitude_gps_m": 0.28999999165534973, "groundspeed_mps": 0.027755944058299065}, "flight": {"mode": "STABILIZE", "armed": false}, "ekf": {"attitude": {"roll": 0.016143865883350372, "pitch": 0.007359025999903679, "yaw": -0.2343256026506424}, "local_position": {"x": null, "y": null, "z": null}, "status": {"flags": 135, "velocity_variance": 0.0, "pos_horiz_variance": 0.006564822513610125, "pos_vert_variance": 0.0002728967519942671}}, "errors": []}
{"timestamp": "2026-01-15T13:47:19.496941Z", "telemetry": {"lat": 28.7530059, "lon": 77.1179622, "satellites": 0, "altitude_gps_m": 0.28999999165534973, "groundspeed_mps": 0.026791470125317574}, "flight": {"mode": "STABILIZE", "armed": false}, "ekf": {"attitude": {"roll": 0.016112355515360832, "pitch": 0.007416099775582552, "yaw": -0.23438461124897003}, "local_position": {"x": null, "y": null, "z": null}, "status": {"flags": 135, "velocity_variance": 0.0, "pos_horiz_variance": 0.006655306089669466, "pos_vert_variance": 0.002759154187515378}}, "errors": []}
{"timestamp": "2026-01-15T13:47:20.470405Z", "telemetry": {"lat": 28.7530059, "lon": 77.1179622, "satellites": 0, "altitude_gps_m": 0.28999999165534973, "groundspeed_mps": 0.027340995147824287}, "flight": {"mode": "STABILIZE", "armed": false}, "ekf": {"attitude": {"roll": 0.016032425686717033, "pitch": 0.007547833025455475, "yaw": -0.23418864607810974}, "local_position": {"x": null, "y": null, "z": null}, "status": {"flags": 135, "velocity_variance": 0.0, "pos_horiz_variance": 0.0067902724258601665, "pos_vert_variance": 0.009886997751891613}}, "errors": []}
{"timestamp": "2026-01-15T13:47:21.469785Z", "telemetry": {"lat": 28.7530059, "lon": 77.1179622, "satellites": 0, "altitude_gps_m": 0.28999999165534973, "groundspeed_mps": 0.026874374598264694}, "flight": {"mode": "STABILIZE", "armed": false}, "ekf": {"attitude": {"roll": 0.016034381464123726, "pitch": 0.007658006623387337, "yaw": -0.23410460352897644}, "local_position": {"x": null, "y": null, "z": null}, "status": {"flags": 135, "velocity_variance": 0.0, "pos_horiz_variance": 0.0066748810932040215, "pos_vert_variance": 0.024371612817049026}}, "errors": []}
{"timestamp": "2026-01-15T13:47:22.500646Z", "telemetry": {"lat": 28.7530059, "lon": 77.1179622, "satellites": 0, "altitude_gps_m": 0.28999999165534973, "groundspeed_mps": 0.025345072150230408}, "flight": {"mode": "STABILIZE", "armed": false}, "ekf": {"attitude": {"roll": 0.015966949984431267, "pitch": 0.0077971201390028, "yaw": -0.2340938001871109}, "local_position": {"x": null, "y": null, "z": null}, "status": {"flags": 135, "velocity_variance": 0.0, "pos_horiz_variance": 0.006588467862457037, "pos_vert_variance": 0.0024349552113562822}}, "errors": []}
{"timestamp": "2026-01-15T13:47:23.500774Z", "telemetry": {"lat": 28.7530059, "lon": 77.1179622, "satellites": 0, "altitude_gps_m": 0.28999999165534973, "groundspeed_mps": 0.02130328118801117}, "flight": {"mode": "STABILIZE", "armed": false}, "ekf": {"attitude": {"roll": 0.01592196151614189, "pitch": 0.00793080497533083, "yaw": -0.23402705788612366}, "local_position": {"x": null, "y": null, "z": null}, "status": {"flags": 135, "velocity_variance": 0.0, "pos_horiz_variance": 0.005951825529336929, "pos_vert_variance": 0.049136318266391754}}, "errors": []}
{"timestamp": "2026-01-15T13:47:24.500433Z", "telemetry": {"lat": 28.7530059, "lon": 77.1179622, "satellites": 0, "altitude_gps_m": 0.28999999165534973, "groundspeed_mps": 0.016741134226322174}, "flight": {"mode": "STABILIZE", "armed": false}, "ekf": {"attitude": {"roll": 0.01578720472753048, "pitch": 0.008018731139600277, "yaw": -0.2339671105146408}, "local_position": {"x": null, "y": null, "z": null}, "status": {"flags": 135, "velocity_variance": 0.0, "pos_horiz_variance": 0.0052515920251607895, "pos_vert_variance": 0.01449638418853283}}, "errors": []}
{"timestamp": "2026-01-15T13:47:25.504236Z", "telemetry": {"lat": 28.7530059, "lon": 77.1179622, "satellites": 0, "altitude_gps_m": 0.28999999165534973, "groundspeed_mps": 0.016445986926555634}, "flight": {"mode": "STABILIZE", "armed": false}, "ekf": {"attitude": {"roll": 0.015711896121501923, "pitch": 0.007973013445734978, "yaw": -0.23387479782104492}, "local_position": {"x": null, "y": null, "z": null}, "status": {"flags": 135, "velocity_variance": 0.0, "pos_horiz_variance": 0.004582191817462444, "pos_vert_variance": 0.020917359739542007}}, "errors": []}
{"timestamp": "2026-01-15T13:47:26.504548Z", "telemetry": {"lat": 28.7530059, "lon": 77.1179622, "satellites": 0, "altitude_gps_m": 0.28999999165534973, "groundspeed_mps": 0.01950162462890148}, "flight": {"mode": "STABILIZE", "armed": false}, "ekf": {"attitude": {"roll": 0.015571748837828636, "pitch": 0.007986248470842838, "yaw": -0.23379597067832947}, "local_position": {"x": null, "y": null, "z": null}, "status": {"flags": 135, "velocity_variance": 0.0, "pos_horiz_variance": 0.004303802270442247, "pos_vert_variance": 0.009410293772816658}}, "errors": []}
{"timestamp": "2026-01-15T13:47:27.478591Z", "telemetry": {"lat": 28.7530059, "lon": 77.1179622, "satellites": 0, "altitude_gps_m": 0.28999999165534973, "groundspeed_mps": 0.01702459529042244}, "flight": {"mode": "STABILIZE", "armed": false}, "ekf": {"attitude": {"roll": 0.01540689542889595, "pitch": 0.008106384426355362, "yaw": -0.2337934821844101}, "local_position": {"x": null, "y": null, "z": null}, "status": {"flags": 135, "velocity_variance": 0.0, "pos_horiz_variance": 0.004526390694081783, "pos_vert_variance": 0.08011788874864578}}, "errors": []}
{"timestamp": "2026-01-15T13:47:28.478989Z", "telemetry": {"lat": 28.7530059, "lon": 77.1179622, "satellites": 0, "altitude_gps_m": 0.28999999165534973, "groundspeed_mps": 0.020313763990998268}, "flight": {"mode": "STABILIZE", "armed": false}, "ekf": {"attitude": {"roll": 0.015284007415175438, "pitch": 0.007954521104693413, "yaw": -0.23384718596935272}, "local_position": {"x": null, "y": null, "z": null}, "status": {"flags": 135, "velocity_variance": 0.0, "pos_horiz_variance": 0.004367930348962545, "pos_vert_variance": 0.11122296750545502}}, "errors": []}
{"timestamp": "2026-01-15T13:47:29.480114Z", "telemetry": {"lat": 28.7530059, "lon": 77.1179622, "satellites": 0, "altitude_gps_m": 0.28999999165534973, "groundspeed_mps": 0.019910506904125214}, "flight": {"mode": "STABILIZE", "armed": false}, "ekf": {"attitude": {"roll": 0.015196410939097404, "pitch": 0.00803609099239111, "yaw": -0.23387542366981506}, "local_position": {"x": null, "y": null, "z": null}, "status": {"flags": 135, "velocity_variance": 0.0, "pos_horiz_variance": 0.004745446611195803, "pos_vert_variance": 0.034444648772478104}}, "errors": []}
{"timestamp": "2026-01-15T13:47:30.486008Z", "telemetry": {"lat": 28.7530059, "lon": 77.1179622, "satellites": 0, "altitude_gps_m": 0.28999999165534973, "groundspeed_mps": 0.02200838178396225}, "flight": {"mode": "STABILIZE", "armed": false}, "ekf": {"attitude": {"roll": 0.015112709254026413, "pitch": 0.0081191286444664, "yaw": -0.2339891791343689}, "local_position": {"x": null, "y": null, "z": null}, "status": {"flags": 135, "velocity_variance": 0.0, "pos_horiz_variance": 0.0048077162355184555, "pos_vert_variance": 0.04642517492175102}}, "errors": []}
{"timestamp": "2026-01-15T13:47:31.508449Z", "telemetry": {"lat": 28.7530059, "lon": 77.1179622, "satellites": 0, "altitude_gps_m": 0.28999999165534973, "groundspeed_mps": 0.02297774888575077}, "flight": {"mode": "STABILIZE", "armed": false}, "ekf": {"attitude": {"roll": 0.014980152249336243, "pitch": 0.008170386776328087, "yaw": -0.23392720520496368}, "local_position": {"x": null, "y": null, "z": null}, "status": {"flags": 135, "velocity_variance": 0.0, "pos_horiz_variance": 0.005181858781725168, "pos_vert_variance": 0.03088635578751564}}, "errors": []}
{"timestamp": "2026-01-15T13:47:32.508470Z", "telemetry": {"lat": 28.7530059, "lon": 77.1179622, "satellites": 0, "altitude_gps_m": 0.28999999165534973, "groundspeed_mps": 0.022395605221390724}, "flight": {"mode": "STABILIZE", "armed": false}, "ekf": {"attitude": {"roll": 0.01479821465909481, "pitch": 0.008149920031428337, "yaw": -0.23395690321922302}, "local_position": {"x": null, "y": null, "z": null}, "status": {"flags": 135, "velocity_variance": 0.0, "pos_horiz_variance": 0.005391472019255161, "pos_vert_variance": 0.017579101026058197}}, "errors": ["PreArm: Hardware safety switch"]}
{"timestamp": "2026-01-15T13:47:33.512789Z", "telemetry": {"lat": 28.7530059, "lon": 77.1179622, "satellites": 0, "altitude_gps_m": 0.28999999165534973, "groundspeed_mps": 0.024764081463217735}, "flight": {"mode": "STABILIZE", "armed": false}, "ekf": {"attitude": {"roll": 0.01491549238562584, "pitch": 0.008177461102604866, "yaw": -0.23408113420009613}, "local_position": {"x": null, "y": null, "z": null}, "status": {"flags": 135, "velocity_variance": 0.0, "pos_horiz_variance": 0.005580185446888208, "pos_vert_variance": 0.03591136634349823}}, "errors": ["PreArm: Hardware safety switch"]}
{"timestamp": "2026-01-15T13:47:34.512847Z", "telemetry": {"lat": 28.7530059, "lon": 77.1179622, "satellites": 0, "altitude_gps_m": 0.28999999165534973, "groundspeed_mps": 0.0223392304033041}, "flight": {"mode": "STABILIZE", "armed": false}, "ekf": {"attitude": {"roll": 0.014856373891234398, "pitch": 0.008174006827175617, "yaw": -0.23413273692131042}, "local_position": {"x": null, "y": null, "z": null}, "status": {"flags": 135, "velocity_variance": 0.0, "pos_horiz_variance": 0.005569821689277887, "pos_vert_variance": 0.08066502213478088}}, "errors": ["PreArm: Hardware safety switch"]}
{"timestamp": "2026-01-15T13:47:35.484958Z", "telemetry": {"lat": 28.7530059, "lon": 77.1179622, "satellites": 0, "altitude_gps_m": 0.28999999165534973, "groundspeed_mps": 0.023797176778316498}, "flight": {"mode": "STABILIZE", "armed": false}, "ekf": {"attitude": {"roll": 0.014821430668234825, "pitch": 0.008149084635078907, "yaw": -0.23414883017539978}, "local_position": {"x": null, "y": null, "z": null}, "status": {"flags": 135, "velocity_variance": 0.0, "pos_horiz_variance": 0.0056810444220900536, "pos_vert_variance": 0.07515930384397507}}, "errors": ["PreArm: Hardware safety switch"]}
{"timestamp": "2026-01-15T13:47:36.489542Z", "telemetry": {"lat": 28.7530059, "lon": 77.1179622, "satellites": 0, "altitude_gps_m": 0.28999999165534973, "groundspeed_mps": 0.026014763861894608}, "flight": {"mode": "STABILIZE", "armed": false}, "ekf": {"attitude": {"roll": 0.014882354065775871, "pitch": 0.008081614971160889, "yaw": -0.2342047244310379}, "local_position": {"x": null, "y": null, "z": null}, "status": {"flags": 135, "velocity_variance": 0.0, "pos_horiz_variance": 0.0058241612277925014, "pos_vert_variance": 0.006437462288886309}}, "errors": ["PreArm: Hardware safety switch"]}
{"timestamp": "2026-01-15T13:47:37.492192Z", "telemetry": {"lat": 28.7530059, "lon": 77.1179622, "satellites": 0, "altitude_gps_m": 0.28999999165534973, "groundspeed_mps": 0.025694357231259346}, "flight": {"mode": "STABILIZE", "armed": false}, "ekf": {"attitude": {"roll": 0.014905843883752823, "pitch": 0.00798811111599207, "yaw": -0.23428156971931458}, "local_position": {"x": null, "y": null, "z": null}, "status": {"flags": 135, "velocity_variance": 0.0, "pos_horiz_variance": 0.00623363209888339, "pos_vert_variance": 0.01821449026465416}}, "errors": ["PreArm: Hardware safety switch"]}
{"timestamp": "2026-01-15T13:47:38.493363Z", "telemetry": {"lat": 28.7530059, "lon": 77.1179622, "satellites": 0, "altitude_gps_m": 0.28999999165534973, "groundspeed_mps": 0.025107093155384064}, "flight": {"mode": "STABILIZE", "armed": false}, "ekf": {"attitude": {"roll": 0.014877483248710632, "pitch": 0.007943620905280113, "yaw": -0.2343180924654007}, "local_position": {"x": null, "y": null, "z": null}, "status": {"flags": 135, "velocity_variance": 0.0, "pos_horiz_variance": 0.00621401984244585, "pos_vert_variance": 0.04659596085548401}}, "errors": ["PreArm: Hardware safety switch"]}
{"timestamp": "2026-01-15T13:47:39.490307Z", "telemetry": {"lat": 28.7530059, "lon": 77.1179622, "satellites": 0, "altitude_gps_m": 0.28999999165534973, "groundspeed_mps": 0.027163557708263397}, "flight": {"mode": "STABILIZE", "armed": false}, "ekf": {"attitude": {"roll": 0.014967450872063637, "pitch": 0.007880527526140213, "yaw": -0.234257310628891}, "local_position": {"x": null, "y": null, "z": null}, "status": {"flags": 135, "velocity_variance": 0.0, "pos_horiz_variance": 0.006281665991991758, "pos_vert_variance": 0.05328817293047905}}, "errors": ["PreArm: Hardware safety switch"]}
{"timestamp": "2026-01-15T13:47:40.491228Z", "telemetry": {"lat": 28.7530059, "lon": 77.1179622, "satellites": 0, "altitude_gps_m": 0.28999999165534973, "groundspeed_mps": 0.026538381353020668}, "flight": {"mode": "STABILIZE", "armed": false}, "ekf": {"attitude": {"roll": 0.015039687976241112, "pitch": 0.007801719009876251, "yaw": -0.23420271277427673}, "local_position": {"x": null, "y": null, "z": null}, "status": {"flags": 135, "velocity_variance": 0.0, "pos_horiz_variance": 0.006564989220350981, "pos_vert_variance": 0.00011395828187232837}}, "errors": ["PreArm: Hardware safety switch"]}
{"timestamp": "2026-01-15T13:47:41.520200Z", "telemetry": {"lat": 28.7530059, "lon": 77.1179622, "satellites": 0, "altitude_gps_m": 0.28999999165534973, "groundspeed_mps": 0.02648569457232952}, "flight": {"mode": "STABILIZE", "armed": false}, "ekf": {"attitude": {"roll": 0.01517193391919136, "pitch": 0.007744848728179932, "yaw": -0.23419754207134247}, "local_position": {"x": null, "y": null, "z": null}, "status": {"flags": 135, "velocity_variance": 0.0, "pos_horiz_variance": 0.006485579069703817, "pos_vert_variance": 0.05392559990286827}}, "errors": ["PreArm: Hardware safety switch"]}
{"timestamp": "2026-01-15T13:47:42.493309Z", "telemetry": {"lat": 28.7530059, "lon": 77.1179622, "satellites": 0, "altitude_gps_m": 0.28999999165534973, "groundspeed_mps": 0.02739790640771389}, "flight": {"mode": "STABILIZE", "armed": false}, "ekf": {"attitude": {"roll": 0.015389615669846535, "pitch": 0.007715592160820961, "yaw": -0.2343796193599701}, "local_position": {"x": null, "y": null, "z": null}, "status": {"flags": 135, "velocity_variance": 0.0, "pos_horiz_variance": 0.006505670491605997, "pos_vert_variance": 0.025540972128510475}}, "errors": ["PreArm: Hardware safety switch"]}
{"timestamp": "2026-01-15T13:47:43.495993Z", "telemetry": {"lat": 28.7530059, "lon": 77.1179622, "satellites": 0, "altitude_gps_m": 0.28999999165534973, "groundspeed_mps": 0.027440404519438744}, "flight": {"mode": "STABILIZE", "armed": false}, "ekf": {"attitude": {"roll": 0.015477018430829048, "pitch": 0.007625531405210495, "yaw": -0.23439070582389832}, "local_position": {"x": null, "y": null, "z": null}, "status": {"flags": 135, "velocity_variance": 0.0, "pos_horiz_variance": 0.006431899033486843, "pos_vert_variance": 0.0795489028096199}}, "errors": ["PreArm: Hardware safety switch"]}
{"timestamp": "2026-01-15T13:47:44.520388Z", "telemetry": {"lat": 28.7530059, "lon": 77.1179622, "satellites": 0, "altitude_gps_m": 0.28999999165534973, "groundspeed_mps": 0.03107581101357937}, "flight": {"mode": "STABILIZE", "armed": false}, "ekf": {"attitude": {"roll": 0.015562424436211586, "pitch": 0.007689093239605427, "yaw": -0.23448152840137482}, "local_position": {"x": null, "y": null, "z": null}, "status": {"flags": 135, "velocity_variance": 0.0, "pos_horiz_variance": 0.0067909290082752705, "pos_vert_variance": 0.0006320599350146949}}, "errors": ["PreArm: Hardware safety switch"]}
{"timestamp": "2026-01-15T13:47:45.492374Z", "telemetry": {"lat": 28.7530059, "lon": 77.1179622, "satellites": 0, "altitude_gps_m": 0.28999999165534973, "groundspeed_mps": 0.030123025178909302}, "flight": {"mode": "STABILIZE", "armed": false}, "ekf": {"attitude": {"roll": 0.015666721388697624, "pitch": 0.007715893909335136, "yaw": -0.23463888466358185}, "local_position": {"x": null, "y": null, "z": null}, "status": {"flags": 135, "velocity_variance": 0.0, "pos_horiz_variance": 0.007232397794723511, "pos_vert_variance": 0.04597802460193634}}, "errors": ["PreArm: Hardware safety switch"]}
{"timestamp": "2026-01-15T13:47:46.501525Z", "telemetry": {"lat": 28.7530059, "lon": 77.1179622, "satellites": 0, "altitude_gps_m": 0.28999999165534973, "groundspeed_mps": 0.03190702944993973}, "flight": {"mode": "STABILIZE", "armed": false}, "ekf": {"attitude": {"roll": 0.015726475045084953, "pitch": 0.007660897448658943, "yaw": -0.23463934659957886}, "local_position": {"x": null, "y": null, "z": null}, "status": {"flags": 135, "velocity_variance": 0.0, "pos_horiz_variance": 0.007394678890705109, "pos_vert_variance": 0.04496154189109802}}, "errors": ["PreArm: Hardware safety switch"]}
{"timestamp": "2026-01-15T13:47:47.504393Z", "telemetry": {"lat": 28.7530059, "lon": 77.1179622, "satellites": 0, "altitude_gps_m": 0.28999999165534973, "groundspeed_mps": 0.02997613698244095}, "flight": {"mode": "STABILIZE", "armed": false}, "ekf": {"attitude": {"roll": 0.015827180817723274, "pitch": 0.007714451290667057, "yaw": -0.23473432660102844}, "local_position": {"x": null, "y": null, "z": null}, "status": {"flags": 135, "velocity_variance": 0.0, "pos_horiz_variance": 0.007487794384360313, "pos_vert_variance": 0.0004741139418911189}}, "errors": ["PreArm: Hardware safety switch"]}
{"timestamp": "2026-01-15T13:47:48.492389Z", "telemetry": {"lat": 28.7530059, "lon": 77.1179622, "satellites": 0, "altitude_gps_m": 0.28999999165534973, "groundspeed_mps": 0.02997613698244095}, "flight": {"mode": "STABILIZE", "armed": false}, "ekf": {"attitude": {"roll": 0.015827180817723274, "pitch": 0.007714451290667057, "yaw": -0.23473432660102844}, "local_position": {"x": null, "y": null, "z": null}, "status": {"flags": 135, "velocity_variance": 0.0, "pos_horiz_variance": 0.007487794384360313, "pos_vert_variance": 0.0004741139418911189}}, "errors": ["PreArm: Hardware safety switch"]}
{"timestamp": "2026-01-15T13:47:49.492192Z", "telemetry": {"lat": 28.7530059, "lon": 77.1179622, "satellites": 0, "altitude_gps_m": 0.28999999165534973, "groundspeed_mps": 0.02480193041265011}, "flight": {"mode": "STABILIZE", "armed": false}, "ekf": {"attitude": {"roll": 0.016018355265259743, "pitch": 0.0077316975221037865, "yaw": -0.23476363718509674}, "local_position": {"x": null, "y": null, "z": null}, "status": {"flags": 135, "velocity_variance": 0.0, "pos_horiz_variance": 0.007487794384360313, "pos_vert_variance": 0.0004741139418911189}}, "errors": ["PreArm: Hardware safety switch"]}
{"timestamp": "2026-01-15T13:47:50.507639Z", "telemetry": {"lat": 28.7530059, "lon": 77.1179622, "satellites": 0, "altitude_gps_m": 0.28999999165534973, "groundspeed_mps": 0.02454400807619095}, "flight": {"mode": "STABILIZE", "armed": false}, "ekf": {"attitude": {"roll": 0.015921225771307945, "pitch": 0.007848251610994339, "yaw": -0.2347654402256012}, "local_position": {"x": null, "y": null, "z": null}, "status": {"flags": 135, "velocity_variance": 0.0, "pos_horiz_variance": 0.006151590496301651, "pos_vert_variance": 0.06494662910699844}}, "errors": ["PreArm: Hardware safety switch"]}
{"timestamp": "2026-01-15T13:47:51.496153Z", "telemetry": {"lat": 28.7530059, "lon": 77.1179622, "satellites": 0, "altitude_gps_m": 0.28999999165534973, "groundspeed_mps": 0.025435002520680428}, "flight": {"mode": "STABILIZE", "armed": false}, "ekf": {"attitude": {"roll": 0.015915239229798317, "pitch": 0.007760736159980297, "yaw": -0.23476973176002502}, "local_position": {"x": null, "y": null, "z": null}, "status": {"flags": 135, "velocity_variance": 0.0, "pos_horiz_variance": 0.006151590496301651, "pos_vert_variance": 0.06494662910699844}}, "errors": ["PreArm: Hardware safety switch", "ArduCopter V4.6.1 (57591cb8)", "ChibiOS: 88b84600", "fmuv3 00240032 33385119 36353030", "IOMCU: 420 1001 411FC231", "RCOut: PWM:1-14", "IMU0: fast sampling enabled 8.0kHz/1.0kHz", "Frame: QUAD/X"]}
{"timestamp": "2026-01-15T13:47:52.470532Z", "telemetry": {"lat": 28.7530059, "lon": 77.1179622, "satellites": 0, "altitude_gps_m": 0.28999999165534973, "groundspeed_mps": 0.024563008919358253}, "flight": {"mode": "STABILIZE", "armed": false}, "ekf": {"attitude": {"roll": 0.015914341434836388, "pitch": 0.007706009782850742, "yaw": -0.23475798964500427}, "local_position": {"x": null, "y": null, "z": null}, "status": {"flags": 135, "velocity_variance": 0.0, "pos_horiz_variance": 0.00593743147328496, "pos_vert_variance": 0.02661263756453991}}, "errors": ["PreArm: Hardware safety switch", "ArduCopter V4.6.1 (57591cb8)", "ChibiOS: 88b84600", "fmuv3 00240032 33385119 36353030", "IOMCU: 420 1001 411FC231", "RCOut: PWM:1-14", "IMU0: fast sampling enabled 8.0kHz/1.0kHz", "Frame: QUAD/X"]}
{"timestamp": "2026-01-15T13:47:53.496238Z", "telemetry": {"lat": 28.7530059, "lon": 77.1179622, "satellites": 0, "altitude_gps_m": 0.28999999165534973, "groundspeed_mps": 0.02685713954269886}, "flight": {"mode": "STABILIZE", "armed": false}, "ekf": {"attitude": {"roll": 0.015855135396122932, "pitch": 0.007750404067337513, "yaw": -0.23473791778087616}, "local_position": {"x": null, "y": null, "z": null}, "status": {"flags": 135, "velocity_variance": 0.0, "pos_horiz_variance": 0.00593743147328496, "pos_vert_variance": 0.02661263756453991}}, "errors": ["PreArm: Hardware safety switch", "ArduCopter V4.6.1 (57591cb8)", "ChibiOS: 88b84600", "fmuv3 00240032 33385119 36353030", "IOMCU: 420 1001 411FC231", "RCOut: PWM:1-14", "IMU0: fast sampling enabled 8.0kHz/1.0kHz", "Frame: QUAD/X"]}
{"timestamp": "2026-01-15T13:47:54.501724Z", "telemetry": {"lat": 28.7530059, "lon": 77.1179622, "satellites": 0, "altitude_gps_m": 0.28999999165534973, "groundspeed_mps": 0.0277540422976017}, "flight": {"mode": "STABILIZE", "armed": false}, "ekf": {"attitude": {"roll": 0.01589045114815235, "pitch": 0.007789938244968653, "yaw": -0.23475423455238342}, "local_position": {"x": null, "y": null, "z": null}, "status": {"flags": 135, "velocity_variance": 0.0, "pos_horiz_variance": 0.006193786393851042, "pos_vert_variance": 0.023558204993605614}}, "errors": ["PreArm: Hardware safety switch", "ArduCopter V4.6.1 (57591cb8)", "ChibiOS: 88b84600", "fmuv3 00240032 33385119 36353030", "IOMCU: 420 1001 411FC231", "RCOut: PWM:1-14", "IMU0: fast sampling enabled 8.0kHz/1.0kHz", "Frame: QUAD/X"]}
{"timestamp": "2026-01-15T13:47:55.500260Z", "telemetry": {"lat": 28.7530059, "lon": 77.1179622, "satellites": 0, "altitude_gps_m": 0.28999999165534973, "groundspeed_mps": 0.0277540422976017}, "flight": {"mode": "STABILIZE", "armed": false}, "ekf": {"attitude": {"roll": 0.015845760703086853, "pitch": 0.007816413417458534, "yaw": -0.23483432829380035}, "local_position": {"x": null, "y": null, "z": null}, "status": {"flags": 135, "velocity_variance": 0.0, "pos_horiz_variance": 0.006418085191398859, "pos_vert_variance": 0.012411640025675297}}, "errors": ["PreArm: Hardware safety switch", "ArduCopter V4.6.1 (57591cb8)", "ChibiOS: 88b84600", "fmuv3 00240032 33385119 36353030", "IOMCU: 420 1001 411FC231", "RCOut: PWM:1-14", "IMU0: fast sampling enabled 8.0kHz/1.0kHz", "Frame: QUAD/X"]}
{"timestamp": "2026-01-15T13:47:56.500001Z", "telemetry": {"lat": 28.7530059, "lon": 77.1179622, "satellites": 0, "altitude_gps_m": 0.28999999165534973, "groundspeed_mps": 0.027928555384278297}, "flight": {"mode": "STABILIZE", "armed": false}, "ekf": {"attitude": {"roll": 0.015845760703086853, "pitch": 0.007816413417458534, "yaw": -0.23483432829380035}, "local_position": {"x": null, "y": null, "z": null}, "status": {"flags": 135, "velocity_variance": 0.0, "pos_horiz_variance": 0.006650831550359726, "pos_vert_variance": 0.004008355084806681}}, "errors": ["PreArm: Hardware safety switch", "ArduCopter V4.6.1 (57591cb8)", "ChibiOS: 88b84600", "fmuv3 00240032 33385119 36353030", "IOMCU: 420 1001 411FC231", "RCOut: PWM:1-14", "IMU0: fast sampling enabled 8.0kHz/1.0kHz", "Frame: QUAD/X"]}
{"timestamp": "2026-01-15T13:47:57.500223Z", "telemetry": {"lat": 28.7530059, "lon": 77.1179622, "satellites": 0, "altitude_gps_m": 0.28999999165534973, "groundspeed_mps": 0.025095725432038307}, "flight": {"mode": "STABILIZE", "armed": false}, "ekf": {"attitude": {"roll": 0.01596667990088463, "pitch": 0.007866427302360535, "yaw": -0.23486168682575226}, "local_position": {"x": null, "y": null, "z": null}, "status": {"flags": 135, "velocity_variance": 0.0, "pos_horiz_variance": 0.006470831111073494, "pos_vert_variance": 0.00022706604795530438}}, "errors": ["PreArm: Hardware safety switch", "ArduCopter V4.6.1 (57591cb8)", "ChibiOS: 88b84600", "fmuv3 00240032 33385119 36353030", "IOMCU: 420 1001 411FC231", "RCOut: PWM:1-14", "IMU0: fast sampling enabled 8.0kHz/1.0kHz", "Frame: QUAD/X"]}
{"timestamp": "2026-01-15T13:47:58.471509Z", "telemetry": {"lat": 28.7530059, "lon": 77.1179622, "satellites": 0, "altitude_gps_m": 0.28999999165534973, "groundspeed_mps": 0.022362807765603065}, "flight": {"mode": "STABILIZE", "armed": false}, "ekf": {"attitude": {"roll": 0.016115950420498848, "pitch": 0.00805855356156826, "yaw": -0.23499774932861328}, "local_position": {"x": null, "y": null, "z": null}, "status": {"flags": 135, "velocity_variance": 0.0, "pos_horiz_variance": 0.006046011578291655, "pos_vert_variance": 0.06644947826862335}}, "errors": ["PreArm: Hardware safety switch", "ArduCopter V4.6.1 (57591cb8)", "ChibiOS: 88b84600", "fmuv3 00240032 33385119 36353030", "IOMCU: 420 1001 411FC231", "RCOut: PWM:1-14", "IMU0: fast sampling enabled 8.0kHz/1.0kHz", "Frame: QUAD/X"]}
{"timestamp": "2026-01-15T13:47:59.474299Z", "telemetry": {"lat": 28.7530059, "lon": 77.1179622, "satellites": 0, "altitude_gps_m": 0.28999999165534973, "groundspeed_mps": 0.020368516445159912}, "flight": {"mode": "STABILIZE", "armed": false}, "ekf": {"attitude": {"roll": 0.016194095835089684, "pitch": 0.0080096535384655, "yaw": -0.2351660579442978}, "local_position": {"x": null, "y": null, "z": null}, "status": {"flags": 135, "velocity_variance": 0.0, "pos_horiz_variance": 0.00546561973169446, "pos_vert_variance": 0.034556180238723755}}, "errors": ["PreArm: Hardware safety switch", "ArduCopter V4.6.1 (57591cb8)", "ChibiOS: 88b84600", "fmuv3 00240032 33385119 36353030", "IOMCU: 420 1001 411FC231", "RCOut: PWM:1-14", "IMU0: fast sampling enabled 8.0kHz/1.0kHz", "Frame: QUAD/X"]}
{"timestamp": "2026-01-15T13:48:00.480415Z", "telemetry": {"lat": 28.7530059, "lon": 77.1179622, "satellites": 0, "altitude_gps_m": 0.28999999165534973, "groundspeed_mps": 0.019764721393585205}, "flight": {"mode": "STABILIZE", "armed": false}, "ekf": {"attitude": {"roll": 0.016452541574835777, "pitch": 0.008054625242948532, "yaw": -0.235320582985878}, "local_position": {"x": null, "y": null, "z": null}, "status": {"flags": 135, "velocity_variance": 0.0, "pos_horiz_variance": 0.0048804134130477905, "pos_vert_variance": 0.002406753832474351}}, "errors": ["PreArm: Hardware safety switch", "ArduCopter V4.6.1 (57591cb8)", "ChibiOS: 88b84600", "fmuv3 00240032 33385119 36353030", "IOMCU: 420 1001 411FC231", "RCOut: PWM:1-14", "IMU0: fast sampling enabled 8.0kHz/1.0kHz", "Frame: QUAD/X"]}
{"timestamp": "2026-01-15T13:48:01.479158Z", "telemetry": {"lat": 28.7530059, "lon": 77.1179622, "satellites": 0, "altitude_gps_m": 0.28999999165534973, "groundspeed_mps": 0.019802773371338844}, "flight": {"mode": "STABILIZE", "armed": false}, "ekf": {"attitude": {"roll": 0.016514290124177933, "pitch": 0.00808743853121996, "yaw": -0.2352321296930313}, "local_position": {"x": null, "y": null, "z": null}, "status": {"flags": 135, "velocity_variance": 0.0, "pos_horiz_variance": 0.0049017020501196384, "pos_vert_variance": 0.004261643160134554}}, "errors": ["PreArm: Hardware safety switch", "ArduCopter V4.6.1 (57591cb8)", "ChibiOS: 88b84600", "fmuv3 00240032 33385119 36353030", "IOMCU: 420 1001 411FC231", "RCOut: PWM:1-14", "IMU0: fast sampling enabled 8.0kHz/1.0kHz", "Frame: QUAD/X"]}
{"timestamp": "2026-01-15T13:48:02.508618Z", "telemetry": {"lat": 28.7530059, "lon": 77.1179622, "satellites": 0, "altitude_gps_m": 0.28999999165534973, "groundspeed_mps": 0.02038271352648735}, "flight": {"mode": "STABILIZE", "armed": false}, "ekf": {"attitude": {"roll": 0.016256757080554962, "pitch": 0.008148030377924442, "yaw": -0.23522637784481049}, "local_position": {"x": null, "y": null, "z": null}, "status": {"flags": 135, "velocity_variance": 0.0, "pos_horiz_variance": 0.004986734129488468, "pos_vert_variance": 0.028323587030172348}}, "errors": ["PreArm: Hardware safety switch", "ArduCopter V4.6.1 (57591cb8)", "ChibiOS: 88b84600", "fmuv3 00240032 33385119 36353030", "IOMCU: 420 1001 411FC231", "RCOut: PWM:1-14", "IMU0: fast sampling enabled 8.0kHz/1.0kHz", "Frame: QUAD/X", "PreArm: Hardware safety switch"]}
{"timestamp": "2026-01-15T13:48:03.507694Z", "telemetry": {"lat": 28.7530059, "lon": 77.1179622, "satellites": 0, "altitude_gps_m": 0.28999999165534973, "groundspeed_mps": 0.020118946209549904}, "flight": {"mode": "STABILIZE", "armed": false}, "ekf": {"attitude": {"roll": 0.016094006597995758, "pitch": 0.008214705623686314, "yaw": -0.23515035212039948}, "local_position": {"x": null, "y": null, "z": null}, "status": {"flags": 135, "velocity_variance": 0.0, "pos_horiz_variance": 0.00480707548558712, "pos_vert_variance": 0.021779438480734825}}, "errors": ["PreArm: Hardware safety switch", "ArduCopter V4.6.1 (57591cb8)", "ChibiOS: 88b84600", "fmuv3 00240032 33385119 36353030", "IOMCU: 420 1001 411FC231", "RCOut: PWM:1-14", "IMU0: fast sampling enabled 8.0kHz/1.0kHz", "Frame: QUAD/X", "PreArm: Hardware safety switch"]}
{"timestamp": "2026-01-15T13:48:04.507635Z", "telemetry": {"lat": 28.7530059, "lon": 77.1179622, "satellites": 0, "altitude_gps_m": 0.28999999165534973, "groundspeed_mps": 0.018312979489564896}, "flight": {"mode": "STABILIZE", "armed": false}, "ekf": {"attitude": {"roll": 0.01608448289334774, "pitch": 0.008170871995389462, "yaw": -0.23512424528598785}, "local_position": {"x": null, "y": null, "z": null}, "status": {"flags": 135, "velocity_variance": 0.0, "pos_horiz_variance": 0.00487882224842906, "pos_vert_variance": 0.018014805391430855}}, "errors": ["PreArm: Hardware safety switch", "ArduCopter V4.6.1 (57591cb8)", "ChibiOS: 88b84600", "fmuv3 00240032 33385119 36353030", "IOMCU: 420 1001 411FC231", "RCOut: PWM:1-14", "IMU0: fast sampling enabled 8.0kHz/1.0kHz", "Frame: QUAD/X", "PreArm: Hardware safety switch"]}
{"timestamp": "2026-01-15T13:48:05.507700Z", "telemetry": {"lat": 28.7530059, "lon": 77.1179622, "satellites": 0, "altitude_gps_m": 0.28999999165534973, "groundspeed_mps": 0.019698886200785637}, "flight": {"mode": "STABILIZE", "armed": false}, "ekf": {"attitude": {"roll": 0.01598498970270157, "pitch": 0.00837072916328907, "yaw": -0.2351098507642746}, "local_position": {"x": null, "y": null, "z": null}, "status": {"flags": 135, "velocity_variance": 0.0, "pos_horiz_variance": 0.00470396876335144, "pos_vert_variance": 0.05683223530650139}}, "errors": ["PreArm: Hardware safety switch", "ArduCopter V4.6.1 (57591cb8)", "ChibiOS: 88b84600", "fmuv3 00240032 33385119 36353030", "IOMCU: 420 1001 411FC231", "RCOut: PWM:1-14", "IMU0: fast sampling enabled 8.0kHz/1.0kHz", "Frame: QUAD/X", "PreArm: Hardware safety switch"]}
{"timestamp": "2026-01-15T13:48:06.478515Z", "telemetry": {"lat": 28.7530059, "lon": 77.1179622, "satellites": 0, "altitude_gps_m": 0.28999999165534973, "groundspeed_mps": 0.014880525879561901}, "flight": {"mode": "STABILIZE", "armed": false}, "ekf": {"attitude": {"roll": 0.016034280881285667, "pitch": 0.00841471180319786, "yaw": -0.2351973056793213}, "local_position": {"x": null, "y": null, "z": null}, "status": {"flags": 135, "velocity_variance": 0.0, "pos_horiz_variance": 0.004272963386029005, "pos_vert_variance": 0.025072146207094193}}, "errors": ["PreArm: Hardware safety switch", "ArduCopter V4.6.1 (57591cb8)", "ChibiOS: 88b84600", "fmuv3 00240032 33385119 36353030", "IOMCU: 420 1001 411FC231", "RCOut: PWM:1-14", "IMU0: fast sampling enabled 8.0kHz/1.0kHz", "Frame: QUAD/X", "PreArm: Hardware safety switch"]}
{"timestamp": "2026-01-15T13:48:07.482521Z", "telemetry": {"lat": 28.7530059, "lon": 77.1179622, "satellites": 0, "altitude_gps_m": 0.28999999165534973, "groundspeed_mps": 0.013726419769227505}, "flight": {"mode": "STABILIZE", "armed": false}, "ekf": {"attitude": {"roll": 0.01606997475028038, "pitch": 0.008257444016635418, "yaw": -0.23546068370342255}, "local_position": {"x": null, "y": null, "z": null}, "status": {"flags": 135, "velocity_variance": 0.0, "pos_horiz_variance": 0.003742154687643051, "pos_vert_variance": 0.07204107195138931}}, "errors": ["PreArm: Hardware safety switch", "ArduCopter V4.6.1 (57591cb8)", "ChibiOS: 88b84600", "fmuv3 00240032 33385119 36353030", "IOMCU: 420 1001 411FC231", "RCOut: PWM:1-14", "IMU0: fast sampling enabled 8.0kHz/1.0kHz", "Frame: QUAD/X", "PreArm: Hardware safety switch"]}
{"timestamp": "2026-01-15T13:48:08.487862Z", "telemetry": {"lat": 28.7530059, "lon": 77.1179622, "satellites": 0, "altitude_gps_m": 0.28999999165534973, "groundspeed_mps": 0.013495323248207569}, "flight": {"mode": "STABILIZE", "armed": false}, "ekf": {"attitude": {"roll": 0.01605856604874134, "pitch": 0.008206493221223354, "yaw": -0.23543553054332733}, "local_position": {"x": null, "y": null, "z": null}, "status": {"flags": 135, "velocity_variance": 0.0, "pos_horiz_variance": 0.0035847004037350416, "pos_vert_variance": 0.007689028512686491}}, "errors": ["PreArm: Hardware safety switch", "ArduCopter V4.6.1 (57591cb8)", "ChibiOS: 88b84600", "fmuv3 00240032 33385119 36353030", "IOMCU: 420 1001 411FC231", "RCOut: PWM:1-14", "IMU0: fast sampling enabled 8.0kHz/1.0kHz", "Frame: QUAD/X", "PreArm: Hardware safety switch"]}
{"timestamp": "2026-01-15T13:48:09.485671Z", "telemetry": {"lat": 28.7530059, "lon": 77.1179622, "satellites": 0, "altitude_gps_m": 0.28999999165534973, "groundspeed_mps": 0.016937648877501488}, "flight": {"mode": "STABILIZE", "armed": false}, "ekf": {"attitude": {"roll": 0.01608152501285076, "pitch": 0.008219355717301369, "yaw": -0.23556634783744812}, "local_position": {"x": null, "y": null, "z": null}, "status": {"flags": 135, "velocity_variance": 0.0, "pos_horiz_variance": 0.003787383669987321, "pos_vert_variance": 0.009187628515064716}}, "errors": ["PreArm: Hardware safety switch", "ArduCopter V4.6.1 (57591cb8)", "ChibiOS: 88b84600", "fmuv3 00240032 33385119 36353030", "IOMCU: 420 1001 411FC231", "RCOut: PWM:1-14", "IMU0: fast sampling enabled 8.0kHz/1.0kHz", "Frame: QUAD/X", "PreArm: Hardware safety switch"]}
{"timestamp": "2026-01-15T13:48:10.486171Z", "telemetry": {"lat": 28.7530059, "lon": 77.1179622, "satellites": 0, "altitude_gps_m": 0.28999999165534973, "groundspeed_mps": 0.018705978989601135}, "flight": {"mode": "STABILIZE", "armed": false}, "ekf": {"attitude": {"roll": 0.016266120597720146, "pitch": 0.008162086829543114, "yaw": -0.2357027232646942}, "local_position": {"x": null, "y": null, "z": null}, "status": {"flags": 135, "velocity_variance": 0.0, "pos_horiz_variance": 0.0041002980433404446, "pos_vert_variance": 0.04070970416069031}}, "errors": ["PreArm: Hardware safety switch", "ArduCopter V4.6.1 (57591cb8)", "ChibiOS: 88b84600", "fmuv3 00240032 33385119 36353030", "IOMCU: 420 1001 411FC231", "RCOut: PWM:1-14", "IMU0: fast sampling enabled 8.0kHz/1.0kHz", "Frame: QUAD/X", "PreArm: Hardware safety switch"]}
{"timestamp": "2026-01-15T13:48:11.488724Z", "telemetry": {"lat": 28.7530059, "lon": 77.1179622, "satellites": 0, "altitude_gps_m": 0.28999999165534973, "groundspeed_mps": 0.018431326374411583}, "flight": {"mode": "STABILIZE", "armed": false}, "ekf": {"attitude": {"roll": 0.01628941297531128, "pitch": 0.008252357132732868, "yaw": -0.2357945740222931}, "local_position": {"x": null, "y": null, "z": null}, "status": {"flags": 135, "velocity_variance": 0.0, "pos_horiz_variance": 0.004496220964938402, "pos_vert_variance": 0.0023550281766802073}}, "errors": ["PreArm: Hardware safety switch", "ArduCopter V4.6.1 (57591cb8)", "ChibiOS: 88b84600", "fmuv3 00240032 33385119 36353030", "IOMCU: 420 1001 411FC231", "RCOut: PWM:1-14", "IMU0: fast sampling enabled 8.0kHz/1.0kHz", "Frame: QUAD/X", "PreArm: Hardware safety switch"]}
{"timestamp": "2026-01-15T13:48:12.515682Z", "telemetry": {"lat": 28.7530059, "lon": 77.1179622, "satellites": 0, "altitude_gps_m": 0.28999999165534973, "groundspeed_mps": 0.01696593128144741}, "flight": {"mode": "STABILIZE", "armed": false}, "ekf": {"attitude": {"roll": 0.016285378485918045, "pitch": 0.008427765220403671, "yaw": -0.2358984351158142}, "local_position": {"x": null, "y": null, "z": null}, "status": {"flags": 135, "velocity_variance": 0.0, "pos_horiz_variance": 0.004403107333928347, "pos_vert_variance": 0.020889367908239365}}, "errors": ["PreArm: Hardware safety switch", "ArduCopter V4.6.1 (57591cb8)", "ChibiOS: 88b84600", "fmuv3 00240032 33385119 36353030", "IOMCU: 420 1001 411FC231", "RCOut: PWM:1-14", "IMU0: fast sampling enabled 8.0kHz/1.0kHz", "Frame: QUAD/X", "PreArm: Hardware safety switch"]}
{"timestamp": "2026-01-15T13:48:13.515580Z", "telemetry": {"lat": 28.7530059, "lon": 77.1179622, "satellites": 0, "altitude_gps_m": 0.28999999165534973, "groundspeed_mps": 0.014247670769691467}, "flight": {"mode": "STABILIZE", "armed": false}, "ekf": {"attitude": {"roll": 0.016369882971048355, "pitch": 0.008410012349486351, "yaw": -0.23588261008262634}, "local_position": {"x": null, "y": null, "z": null}, "status": {"flags": 135, "velocity_variance": 0.0, "pos_horiz_variance": 0.004060213454067707, "pos_vert_variance": 0.0027321598026901484}}, "errors": ["PreArm: Hardware safety switch", "ArduCopter V4.6.1 (57591cb8)", "ChibiOS: 88b84600", "fmuv3 00240032 33385119 36353030", "IOMCU: 420 1001 411FC231", "RCOut: PWM:1-14", "IMU0: fast sampling enabled 8.0kHz/1.0kHz", "Frame: QUAD/X", "PreArm: Hardware safety switch"]}
{"timestamp": "2026-01-15T13:48:14.488835Z", "telemetry": {"lat": 28.7530059, "lon": 77.1179622, "satellites": 0, "altitude_gps_m": 0.28999999165534973, "groundspeed_mps": 0.013920433819293976}, "flight": {"mode": "STABILIZE", "armed": false}, "ekf": {"attitude": {"roll": 0.01648077182471752, "pitch": 0.008295748382806778, "yaw": -0.23602059483528137}, "local_position": {"x": null, "y": null, "z": null}, "status": {"flags": 135, "velocity_variance": 0.0, "pos_horiz_variance": 0.0038162008859217167, "pos_vert_variance": 0.03251684829592705}}, "errors": ["PreArm: Hardware safety switch", "ArduCopter V4.6.1 (57591cb8)", "ChibiOS: 88b84600", "fmuv3 00240032 33385119 36353030", "IOMCU: 420 1001 411FC231", "RCOut: PWM:1-14", "IMU0: fast sampling enabled 8.0kHz/1.0kHz", "Frame: QUAD/X", "PreArm: Hardware safety switch"]}
{"timestamp": "2026-01-15T13:48:15.490787Z", "telemetry": {"lat": 28.7530059, "lon": 77.1179622, "satellites": 0, "altitude_gps_m": 0.28999999165534973, "groundspeed_mps": 0.01228283904492855}, "flight": {"mode": "STABILIZE", "armed": false}, "ekf": {"attitude": {"roll": 0.01656302623450756, "pitch": 0.008407032117247581, "yaw": -0.23617561161518097}, "local_position": {"x": null, "y": null, "z": null}, "status": {"flags": 135, "velocity_variance": 0.0, "pos_horiz_variance": 0.0034612352028489113, "pos_vert_variance": 0.03061438910663128}}, "errors": ["PreArm: Hardware safety switch", "ArduCopter V4.6.1 (57591cb8)", "ChibiOS: 88b84600", "fmuv3 00240032 33385119 36353030", "IOMCU: 420 1001 411FC231", "RCOut: PWM:1-14", "IMU0: fast sampling enabled 8.0kHz/1.0kHz", "Frame: QUAD/X", "PreArm: Hardware safety switch"]}
{"timestamp": "2026-01-15T13:48:16.492237Z", "telemetry": {"lat": 28.7530059, "lon": 77.1179622, "satellites": 0, "altitude_gps_m": 0.28999999165534973, "groundspeed_mps": 0.013923365622758865}, "flight": {"mode": "STABILIZE", "armed": false}, "ekf": {"attitude": {"roll": 0.016741080209612846, "pitch": 0.008453721180558205, "yaw": -0.2362108826637268}, "local_position": {"x": null, "y": null, "z": null}, "status": {"flags": 135, "velocity_variance": 0.0, "pos_horiz_variance": 0.0032507008872926235, "pos_vert_variance": 0.09035006910562515}}, "errors": ["PreArm: Hardware safety switch", "ArduCopter V4.6.1 (57591cb8)", "ChibiOS: 88b84600", "fmuv3 00240032 33385119 36353030", "IOMCU: 420 1001 411FC231", "RCOut: PWM:1-14", "IMU0: fast sampling enabled 8.0kHz/1.0kHz", "Frame: QUAD/X", "PreArm: Hardware safety switch"]}
{"timestamp": "2026-01-15T13:48:17.495972Z", "telemetry": {"lat": 28.7530059, "lon": 77.1179622, "satellites": 0, "altitude_gps_m": 0.28999999165534973, "groundspeed_mps": 0.01671115681529045}, "flight": {"mode": "STABILIZE", "armed": false}, "ekf": {"attitude": {"roll": 0.0167529433965683, "pitch": 0.008247069083154202, "yaw": -0.23627512156963348}, "local_position": {"x": null, "y": null, "z": null}, "status": {"flags": 135, "velocity_variance": 0.0, "pos_horiz_variance": 0.0034682760015130043, "pos_vert_variance": 0.019664954394102097}}, "errors": ["PreArm: Hardware safety switch", "ArduCopter V4.6.1 (57591cb8)", "ChibiOS: 88b84600", "fmuv3 00240032 33385119 36353030", "IOMCU: 420 1001 411FC231", "RCOut: PWM:1-14", "IMU0: fast sampling enabled 8.0kHz/1.0kHz", "Frame: QUAD/X", "PreArm: Hardware safety switch"]}
{"timestamp": "2026-01-15T13:48:18.494481Z", "telemetry": {"lat": 28.7530059, "lon": 77.1179622, "satellites": 0, "altitude_gps_m": 0.28999999165534973, "groundspeed_mps": 0.018603544682264328}, "flight": {"mode": "STABILIZE", "armed": false}, "ekf": {"attitude": {"roll": 0.01679670624434948, "pitch": 0.00818728655576706, "yaw": -0.23625172674655914}, "local_position": {"x": null, "y": null, "z": null}, "status": {"flags": 135, "velocity_variance": 0.0, "pos_horiz_variance": 0.004040044266730547, "pos_vert_variance": 0.004504919983446598}}, "errors": ["PreArm: Hardware safety switch", "ArduCopter V4.6.1 (57591cb8)", "ChibiOS: 88b84600", "fmuv3 00240032 33385119 36353030", "IOMCU: 420 1001 411FC231", "RCOut: PWM:1-14", "IMU0: fast sampling enabled 8.0kHz/1.0kHz", "Frame: QUAD/X", "PreArm: Hardware safety switch"]}
{"timestamp": "2026-01-15T13:48:19.496635Z", "telemetry": {"lat": 28.7530059, "lon": 77.1179622, "satellites": 0, "altitude_gps_m": 0.28999999165534973, "groundspeed_mps": 0.01978476718068123}, "flight": {"mode": "STABILIZE", "armed": false}, "ekf": {"attitude": {"roll": 0.01675330474972725, "pitch": 0.00762500474229455, "yaw": -0.23603694140911102}, "local_position": {"x": null, "y": null, "z": null}, "status": {"flags": 135, "velocity_variance": 0.0, "pos_horiz_variance": 0.0043577346950769424, "pos_vert_variance": 0.017200330272316933}}, "errors": ["PreArm: Hardware safety switch", "ArduCopter V4.6.1 (57591cb8)", "ChibiOS: 88b84600", "fmuv3 00240032 33385119 36353030", "IOMCU: 420 1001 411FC231", "RCOut: PWM:1-14", "IMU0: fast sampling enabled 8.0kHz/1.0kHz", "Frame: QUAD/X", "PreArm: Hardware safety switch"]}
{"timestamp": "2026-01-15T13:48:20.501751Z", "telemetry": {"lat": 28.7530059, "lon": 77.1179622, "satellites": 0, "altitude_gps_m": 0.28999999165534973, "groundspeed_mps": 0.12387046962976456}, "flight": {"mode": "STABILIZE", "armed": false}, "ekf": {"attitude": {"roll": 0.01896296814084053, "pitch": 0.00021443376317620277, "yaw": -0.34946492314338684}, "local_position": {"x": null, "y": null, "z": null}, "status": {"flags": 135, "velocity_variance": 0.0, "pos_horiz_variance": 0.01787007786333561, "pos_vert_variance": 0.007816560566425323}}, "errors": ["PreArm: Hardware safety switch", "ArduCopter V4.6.1 (57591cb8)", "ChibiOS: 88b84600", "fmuv3 00240032 33385119 36353030", "IOMCU: 420 1001 411FC231", "RCOut: PWM:1-14", "IMU0: fast sampling enabled 8.0kHz/1.0kHz", "Frame: QUAD/X", "PreArm: Hardware safety switch"]}
{"timestamp": "2026-01-15T13:48:21.503330Z", "telemetry": {"lat": 28.7530059, "lon": 77.1179622, "satellites": 0, "altitude_gps_m": 0.28999999165534973, "groundspeed_mps": 0.03335285186767578}, "flight": {"mode": "STABILIZE", "armed": false}, "ekf": {"attitude": {"roll": 0.017378196120262146, "pitch": -0.0038828053511679173, "yaw": -0.5047131776809692}, "local_position": {"x": null, "y": null, "z": null}, "status": {"flags": 135, "velocity_variance": 0.0, "pos_horiz_variance": 0.017574898898601532, "pos_vert_variance": 0.07901071757078171}}, "errors": ["PreArm: Hardware safety switch", "ArduCopter V4.6.1 (57591cb8)", "ChibiOS: 88b84600", "fmuv3 00240032 33385119 36353030", "IOMCU: 420 1001 411FC231", "RCOut: PWM:1-14", "IMU0: fast sampling enabled 8.0kHz/1.0kHz", "Frame: QUAD/X", "PreArm: Hardware safety switch"]}
{"timestamp": "2026-01-15T13:48:22.500438Z", "telemetry": {"lat": 28.7530059, "lon": 77.1179622, "satellites": 0, "altitude_gps_m": 0.28999999165534973, "groundspeed_mps": 0.11403846740722656}, "flight": {"mode": "STABILIZE", "armed": false}, "ekf": {"attitude": {"roll": 0.017149748280644417, "pitch": -0.0016507282853126526, "yaw": -0.5200082063674927}, "local_position": {"x": null, "y": null, "z": null}, "status": {"flags": 135, "velocity_variance": 0.0, "pos_horiz_variance": 0.009633203968405724, "pos_vert_variance": 0.004675719887018204}}, "errors": ["PreArm: Hardware safety switch", "ArduCopter V4.6.1 (57591cb8)", "ChibiOS: 88b84600", "fmuv3 00240032 33385119 36353030", "IOMCU: 420 1001 411FC231", "RCOut: PWM:1-14", "IMU0: fast sampling enabled 8.0kHz/1.0kHz", "Frame: QUAD/X", "PreArm: Hardware safety switch"]}
{"timestamp": "2026-01-15T13:48:23.471059Z", "telemetry": {"lat": 28.7530059, "lon": 77.1179622, "satellites": 0, "altitude_gps_m": 0.28999999165534973, "groundspeed_mps": 0.11344731599092484}, "flight": {"mode": "STABILIZE", "armed": false}, "ekf": {"attitude": {"roll": 0.017897767946124077, "pitch": -0.0015077940188348293, "yaw": -0.5217241048812866}, "local_position": {"x": null, "y": null, "z": null}, "status": {"flags": 135, "velocity_variance": 0.0, "pos_horiz_variance": 0.020610157400369644, "pos_vert_variance": 0.025933416560292244}}, "errors": ["PreArm: Hardware safety switch", "ArduCopter V4.6.1 (57591cb8)", "ChibiOS: 88b84600", "fmuv3 00240032 33385119 36353030", "IOMCU: 420 1001 411FC231", "RCOut: PWM:1-14", "IMU0: fast sampling enabled 8.0kHz/1.0kHz", "Frame: QUAD/X", "PreArm: Hardware safety switch"]}
{"timestamp": "2026-01-15T13:48:24.503762Z", "telemetry": {"lat": 28.7530059, "lon": 77.1179622, "satellites": 0, "altitude_gps_m": 0.28999999165534973, "groundspeed_mps": 0.08425683528184891}, "flight": {"mode": "STABILIZE", "armed": false}, "ekf": {"attitude": {"roll": 0.019078487530350685, "pitch": -0.0016203145496547222, "yaw": -0.523079514503479}, "local_position": {"x": null, "y": null, "z": null}, "status": {"flags": 135, "velocity_variance": 0.0, "pos_horiz_variance": 0.02185514010488987, "pos_vert_variance": 0.06898167729377747}}, "errors": ["PreArm: Hardware safety switch", "ArduCopter V4.6.1 (57591cb8)", "ChibiOS: 88b84600", "fmuv3 00240032 33385119 36353030", "IOMCU: 420 1001 411FC231", "RCOut: PWM:1-14", "IMU0: fast sampling enabled 8.0kHz/1.0kHz", "Frame: QUAD/X", "PreArm: Hardware safety switch"]}
{"timestamp": "2026-01-15T13:48:25.495397Z", "telemetry": {"lat": 28.7530059, "lon": 77.1179622, "satellites": 0, "altitude_gps_m": 0.28999999165534973, "groundspeed_mps": 0.05088750272989273}, "flight": {"mode": "STABILIZE", "armed": false}, "ekf": {"attitude": {"roll": 0.02009868435561657, "pitch": -0.001615813933312893, "yaw": -0.5245078802108765}, "local_position": {"x": null, "y": null, "z": null}, "status": {"flags": 135, "velocity_variance": 0.0, "pos_horiz_variance": 0.01720387302339077, "pos_vert_variance": 0.06272126734256744}}, "errors": ["PreArm: Hardware safety switch", "ArduCopter V4.6.1 (57591cb8)", "ChibiOS: 88b84600", "fmuv3 00240032 33385119 36353030", "IOMCU: 420 1001 411FC231", "RCOut: PWM:1-14", "IMU0: fast sampling enabled 8.0kHz/1.0kHz", "Frame: QUAD/X", "PreArm: Hardware safety switch"]}
{"timestamp": "2026-01-15T13:48:26.496026Z", "telemetry": {"lat": 28.7530059, "lon": 77.1179622, "satellites": 0, "altitude_gps_m": 0.28999999165534973, "groundspeed_mps": 0.029977601021528244}, "flight": {"mode": "STABILIZE", "armed": false}, "ekf": {"attitude": {"roll": 0.020977890118956566, "pitch": -0.0015989374369382858, "yaw": -0.5257046222686768}, "local_position": {"x": null, "y": null, "z": null}, "status": {"flags": 135, "velocity_variance": 0.0, "pos_horiz_variance": 0.011309507302939892, "pos_vert_variance": 0.017591198906302452}}, "errors": ["PreArm: Hardware safety switch", "ArduCopter V4.6.1 (57591cb8)", "ChibiOS: 88b84600", "fmuv3 00240032 33385119 36353030", "IOMCU: 420 1001 411FC231", "RCOut: PWM:1-14", "IMU0: fast sampling enabled 8.0kHz/1.0kHz", "Frame: QUAD/X", "PreArm: Hardware safety switch"]}
{"timestamp": "2026-01-15T13:48:27.495578Z", "telemetry": {"lat": 28.7530059, "lon": 77.1179622, "satellites": 0, "altitude_gps_m": 0.28999999165534973, "groundspeed_mps": 0.031806375831365585}, "flight": {"mode": "STABILIZE", "armed": false}, "ekf": {"attitude": {"roll": 0.02149919606745243, "pitch": -0.0016095195896923542, "yaw": -0.5271782875061035}, "local_position": {"x": null, "y": null, "z": null}, "status": {"flags": 135, "velocity_variance": 0.0, "pos_horiz_variance": 0.007677166257053614, "pos_vert_variance": 0.07175197452306747}}, "errors": ["PreArm: Hardware safety switch", "ArduCopter V4.6.1 (57591cb8)", "ChibiOS: 88b84600", "fmuv3 00240032 33385119 36353030", "IOMCU: 420 1001 411FC231", "RCOut: PWM:1-14", "IMU0: fast sampling enabled 8.0kHz/1.0kHz", "Frame: QUAD/X", "PreArm: Hardware safety switch"]}
{"timestamp": "2026-01-15T13:48:28.498048Z", "telemetry": {"lat": 28.7530059, "lon": 77.1179622, "satellites": 0, "altitude_gps_m": 0.28999999165534973, "groundspeed_mps": 0.038523733615875244}, "flight": {"mode": "STABILIZE", "armed": false}, "ekf": {"attitude": {"roll": 0.02174365520477295, "pitch": -0.001515677198767662, "yaw": -0.5283751487731934}, "local_position": {"x": null, "y": null, "z": null}, "status": {"flags": 135, "velocity_variance": 0.0, "pos_horiz_variance": 0.007134734187275171, "pos_vert_variance": 0.07809619605541229}}, "errors": ["PreArm: Hardware safety switch", "ArduCopter V4.6.1 (57591cb8)", "ChibiOS: 88b84600", "fmuv3 00240032 33385119 36353030", "IOMCU: 420 1001 411FC231", "RCOut: PWM:1-14", "IMU0: fast sampling enabled 8.0kHz/1.0kHz", "Frame: QUAD/X", "PreArm: Hardware safety switch"]}
{"timestamp": "2026-01-15T13:48:29.499475Z", "telemetry": {"lat": 28.7530059, "lon": 77.1179622, "satellites": 0, "altitude_gps_m": 0.28999999165534973, "groundspeed_mps": 0.042764291167259216}, "flight": {"mode": "STABILIZE", "armed": false}, "ekf": {"attitude": {"roll": 0.02194966748356819, "pitch": -0.0013629235327243805, "yaw": -0.5296298861503601}, "local_position": {"x": null, "y": null, "z": null}, "status": {"flags": 135, "velocity_variance": 0.0, "pos_horiz_variance": 0.008124159649014473, "pos_vert_variance": 0.00729227252304554}}, "errors": ["PreArm: Hardware safety switch", "ArduCopter V4.6.1 (57591cb8)", "ChibiOS: 88b84600", "fmuv3 00240032 33385119 36353030", "IOMCU: 420 1001 411FC231", "RCOut: PWM:1-14", "IMU0: fast sampling enabled 8.0kHz/1.0kHz", "Frame: QUAD/X", "PreArm: Hardware safety switch", "Arm: Hardware safety switch"]}
{"timestamp": "2026-01-15T13:48:30.499608Z", "telemetry": {"lat": 28.7530059, "lon": 77.1179622, "satellites": 0, "altitude_gps_m": 0.28999999165534973, "groundspeed_mps": 0.04526011273264885}, "flight": {"mode": "STABILIZE", "armed": false}, "ekf": {"attitude": {"roll": 0.022065971046686172, "pitch": -0.0010660644620656967, "yaw": -0.530754029750824}, "local_position": {"x": null, "y": null, "z": null}, "status": {"flags": 135, "velocity_variance": 0.0, "pos_horiz_variance": 0.009454257786273956, "pos_vert_variance": 0.03480665758252144}}, "errors": ["PreArm: Hardware safety switch", "ArduCopter V4.6.1 (57591cb8)", "ChibiOS: 88b84600", "fmuv3 00240032 33385119 36353030", "IOMCU: 420 1001 411FC231", "RCOut: PWM:1-14", "IMU0: fast sampling enabled 8.0kHz/1.0kHz", "Frame: QUAD/X", "PreArm: Hardware safety switch", "Arm: Hardware safety switch"]}
{"timestamp": "2026-01-15T13:48:31.472102Z", "telemetry": {"lat": 28.7530059, "lon": 77.1179622, "satellites": 0, "altitude_gps_m": 0.28999999165534973, "groundspeed_mps": 0.04109431430697441}, "flight": {"mode": "STABILIZE", "armed": false}, "ekf": {"attitude": {"roll": 0.022016296163201332, "pitch": -0.0008011036552488804, "yaw": -0.5318306684494019}, "local_position": {"x": null, "y": null, "z": null}, "status": {"flags": 135, "velocity_variance": 0.0, "pos_horiz_variance": 0.009392588399350643, "pos_vert_variance": 0.03883516788482666}}, "errors": ["PreArm: Hardware safety switch", "ArduCopter V4.6.1 (57591cb8)", "ChibiOS: 88b84600", "fmuv3 00240032 33385119 36353030", "IOMCU: 420 1001 411FC231", "RCOut: PWM:1-14", "IMU0: fast sampling enabled 8.0kHz/1.0kHz", "Frame: QUAD/X", "PreArm: Hardware safety switch", "Arm: Hardware safety switch"]}
{"timestamp": "2026-01-15T13:48:32.472125Z", "telemetry": {"lat": 28.7530059, "lon": 77.1179622, "satellites": 0, "altitude_gps_m": 0.28999999165534973, "groundspeed_mps": 0.03728080540895462}, "flight": {"mode": "STABILIZE", "armed": false}, "ekf": {"attitude": {"roll": 0.021911777555942535, "pitch": -0.0007946882396936417, "yaw": -0.5330772399902344}, "local_position": {"x": null, "y": null, "z": null}, "status": {"flags": 135, "velocity_variance": 0.0, "pos_horiz_variance": 0.009014428593218327, "pos_vert_variance": 0.025517914444208145}}, "errors": ["PreArm: Hardware safety switch", "ArduCopter V4.6.1 (57591cb8)", "ChibiOS: 88b84600", "fmuv3 00240032 33385119 36353030", "IOMCU: 420 1001 411FC231", "RCOut: PWM:1-14", "IMU0: fast sampling enabled 8.0kHz/1.0kHz", "Frame: QUAD/X", "PreArm: Hardware safety switch", "Arm: Hardware safety switch", "PreArm: Hardware safety switch"]}
