{"timestamp": "2025-12-15T10:22:44.128635Z", "telemetry": {"lat": 28.7526842, "lon": 77.117963, "satellites": 7, "altitude_gps_m": 203.92999267578125, "groundspeed_mps": 1.0963010787963867}, "flight": {"mode": "STABILIZE", "armed": false}, "ekf": {"attitude": {"roll": 0.1472461223602295, "pitch": -0.11464596539735794, "yaw": 1.3446733951568604}, "local_position": {"x": -36.722755432128906, "y": 3.186293601989746, "z": -0.3359937369823456}, "status": {"flags": 831, "velocity_variance": 0.18736959993839264, "pos_horiz_variance": 0.010285557247698307, "pos_vert_variance": 0.007591890636831522}}, "errors": []}
{"timestamp": "2025-12-15T10:22:45.168942Z", "telemetry": {"lat": 28.7526763, "lon": 77.1179651, "satellites": 7, "altitude_gps_m": 203.8300018310547, "groundspeed_mps": 1.293641209602356}, "flight": {"mode": "STABILIZE", "armed": false}, "ekf": {"attitude": {"roll": 0.15178784728050232, "pitch": -0.163374662399292, "yaw": 1.5262540578842163}, "local_position": {"x": -37.573944091796875, "y": 3.3331515789031982, "z": -0.3106503486633301}, "status": {"flags": 831, "velocity_variance": 0.09011325240135193, "pos_horiz_variance": 0.007744035217911005, "pos_vert_variance": 0.005298299714922905}}, "errors": []}
{"timestamp": "2025-12-15T10:22:46.169218Z", "telemetry": {"lat": 28.7526648, "lon": 77.1179656, "satellites": 7, "altitude_gps_m": 203.72999572753906, "groundspeed_mps": 1.2322371006011963}, "flight": {"mode": "STABILIZE", "armed": false}, "ekf": {"attitude": {"roll": 0.08642061799764633, "pitch": -0.08411826193332672, "yaw": 1.54787015914917}, "local_position": {"x": -38.96623229980469, "y": 3.2492594718933105, "z": -0.21512115001678467}, "status": {"flags": 831, "velocity_variance": 0.06885909289121628, "pos_horiz_variance": 0.014752140268683434, "pos_vert_variance": 0.0032642369624227285}}, "errors": []}
{"timestamp": "2025-12-15T10:22:47.169279Z", "telemetry": {"lat": 28.7526541, "lon": 77.1179646, "satellites": 7, "altitude_gps_m": 203.6699981689453, "groundspeed_mps": 1.1087946891784668}, "flight": {"mode": "STABILIZE", "armed": false}, "ekf": {"attitude": {"roll": 0.05074073001742363, "pitch": -0.0657663345336914, "yaw": 1.5782819986343384}, "local_position": {"x": -40.01441192626953, "y": 3.2291436195373535, "z": -0.13046735525131226}, "status": {"flags": 831, "velocity_variance": 0.0630130022764206, "pos_horiz_variance": 0.010018628090620041, "pos_vert_variance": 0.000831212499178946}}, "errors": []}
{"timestamp": "2025-12-15T10:22:48.168941Z", "telemetry": {"lat": 28.7526453, "lon": 77.1179624, "satellites": 7, "altitude_gps_m": 203.5500030517578, "groundspeed_mps": 1.015313982963562}, "flight": {"mode": "STABILIZE", "armed": false}, "ekf": {"attitude": {"roll": 0.10806078463792801, "pitch": -0.04571373760700226, "yaw": 1.3877688646316528}, "local_position": {"x": -41.06051254272461, "y": 3.1468210220336914, "z": 0.023544475436210632}, "status": {"flags": 831, "velocity_variance": 0.05635860189795494, "pos_horiz_variance": 0.0025387820787727833, "pos_vert_variance": 0.004563441034406424}}, "errors": []}
{"timestamp": "2025-12-15T10:22:49.168939Z", "telemetry": {"lat": 28.7526357, "lon": 77.1179609, "satellites": 7, "altitude_gps_m": 203.44000244140625, "groundspeed_mps": 1.0049974918365479}, "flight": {"mode": "STABILIZE", "armed": false}, "ekf": {"attitude": {"roll": 0.11347415298223495, "pitch": -0.13514871895313263, "yaw": 1.6048284769058228}, "local_position": {"x": -42.13492202758789, "y": 3.0345747470855713, "z": 0.12728621065616608}, "status": {"flags": 831, "velocity_variance": 0.01490359753370285, "pos_horiz_variance": 0.003246304113417864, "pos_vert_variance": 0.003663178300485015}}, "errors": []}
{"timestamp": "2025-12-15T10:22:50.169103Z", "telemetry": {"lat": 28.7526263, "lon": 77.1179592, "satellites": 7, "altitude_gps_m": 203.4199981689453, "groundspeed_mps": 1.0667296648025513}, "flight": {"mode": "STABILIZE", "armed": false}, "ekf": {"attitude": {"roll": 0.06997961550951004, "pitch": -0.15001733601093292, "yaw": 1.6903380155563354}, "local_position": {"x": -43.21858596801758, "y": 2.872891664505005, "z": 0.12411357462406158}, "status": {"flags": 831, "velocity_variance": 0.141325905919075, "pos_horiz_variance": 0.0008643632172606885, "pos_vert_variance": 0.00877480860799551}}, "errors": []}
{"timestamp": "2025-12-15T10:22:51.176172Z", "telemetry": {"lat": 28.7526133, "lon": 77.1179572, "satellites": 7, "altitude_gps_m": 203.42999267578125, "groundspeed_mps": 1.1399201154708862}, "flight": {"mode": "STABILIZE", "armed": false}, "ekf": {"attitude": {"roll": 0.08240407705307007, "pitch": -0.12895247340202332, "yaw": 1.766769289970398}, "local_position": {"x": -44.69212341308594, "y": 2.7616491317749023, "z": 0.1380910724401474}, "status": {"flags": 831, "velocity_variance": 0.10916509479284286, "pos_horiz_variance": 0.00616666441783309, "pos_vert_variance": 0.0127964336425066}}, "errors": []}
{"timestamp": "2025-12-15T10:22:52.174336Z", "telemetry": {"lat": 28.7526057, "lon": 77.1179543, "satellites": 7, "altitude_gps_m": 203.27999877929688, "groundspeed_mps": 1.1393451690673828}, "flight": {"mode": "STABILIZE", "armed": false}, "ekf": {"attitude": {"roll": 0.10453195124864578, "pitch": -0.16577480733394623, "yaw": 1.5861338376998901}, "local_position": {"x": -45.45594787597656, "y": 2.64117169380188, "z": 0.24083802103996277}, "status": {"flags": 831, "velocity_variance": 0.06447581946849823, "pos_horiz_variance": 0.016550134867429733, "pos_vert_variance": 0.020227575674653053}}, "errors": []}
{"timestamp": "2025-12-15T10:22:53.171137Z", "telemetry": {"lat": 28.7525957, "lon": 77.1179529, "satellites": 7, "altitude_gps_m": 203.1699981689453, "groundspeed_mps": 1.2910822629928589}, "flight": {"mode": "STABILIZE", "armed": false}, "ekf": {"attitude": {"roll": 0.08103146404027939, "pitch": -0.10077589750289917, "yaw": 1.7263641357421875}, "local_position": {"x": -46.510189056396484, "y": 2.49234938621521, "z": 0.3483051657676697}, "status": {"flags": 831, "velocity_variance": 0.05841268599033356, "pos_horiz_variance": 0.01916041225194931, "pos_vert_variance": 0.011476965621113777}}, "errors": []}
{"timestamp": "2025-12-15T10:22:54.168740Z", "telemetry": {"lat": 28.7525839, "lon": 77.1179537, "satellites": 7, "altitude_gps_m": 203.14999389648438, "groundspeed_mps": 1.2398977279663086}, "flight": {"mode": "STABILIZE", "armed": false}, "ekf": {"attitude": {"roll": 0.09826799482107162, "pitch": -0.016261301934719086, "yaw": 1.5830252170562744}, "local_position": {"x": -47.880496978759766, "y": 2.534329652786255, "z": 0.4224848747253418}, "status": {"flags": 831, "velocity_variance": 0.050082527101039886, "pos_horiz_variance": 0.01477107871323824, "pos_vert_variance": 0.0036976186092942953}}, "errors": []}
{"timestamp": "2025-12-15T10:22:55.169066Z", "telemetry": {"lat": 28.7525736, "lon": 77.1179554, "satellites": 7, "altitude_gps_m": 203.08999633789062, "groundspeed_mps": 1.0645231008529663}, "flight": {"mode": "STABILIZE", "armed": false}, "ekf": {"attitude": {"roll": 0.15644831955432892, "pitch": -0.07763301581144333, "yaw": 1.5563158988952637}, "local_position": {"x": -49.00365447998047, "y": 2.6529247760772705, "z": 0.47959887981414795}, "status": {"flags": 831, "velocity_variance": 0.09684337675571442, "pos_horiz_variance": 0.011466091498732567, "pos_vert_variance": 0.005346250720322132}}, "errors": []}
{"timestamp": "2025-12-15T10:22:56.168440Z", "telemetry": {"lat": 28.752566, "lon": 77.1179571, "satellites": 7, "altitude_gps_m": 203.1599884033203, "groundspeed_mps": 1.047278881072998}, "flight": {"mode": "STABILIZE", "armed": false}, "ekf": {"attitude": {"roll": 0.15941518545150757, "pitch": -0.11917189508676529, "yaw": 1.6895653009414673}, "local_position": {"x": -49.85781478881836, "y": 2.769824266433716, "z": 0.4489573538303375}, "status": {"flags": 831, "velocity_variance": 0.08059381693601608, "pos_horiz_variance": 0.009102939628064632, "pos_vert_variance": 0.010042345151305199}}, "errors": []}
{"timestamp": "2025-12-15T10:22:57.169454Z", "telemetry": {"lat": 28.7525543, "lon": 77.1179584, "satellites": 7, "altitude_gps_m": 203.13999938964844, "groundspeed_mps": 1.0175845623016357}, "flight": {"mode": "STABILIZE", "armed": false}, "ekf": {"attitude": {"roll": 0.0928073301911354, "pitch": -0.17314408719539642, "yaw": 1.9234331846237183}, "local_position": {"x": -51.247520446777344, "y": 2.8181185722351074, "z": 0.4292360246181488}, "status": {"flags": 831, "velocity_variance": 0.053690750151872635, "pos_horiz_variance": 0.002888997085392475, "pos_vert_variance": 0.0024560049641877413}}, "errors": []}
{"timestamp": "2025-12-15T10:22:58.168341Z", "telemetry": {"lat": 28.7525468, "lon": 77.1179575, "satellites": 7, "altitude_gps_m": 203.0699920654297, "groundspeed_mps": 1.0970755815505981}, "flight": {"mode": "STABILIZE", "armed": false}, "ekf": {"attitude": {"roll": 0.05169975385069847, "pitch": -0.14057321846485138, "yaw": 2.035137891769409}, "local_position": {"x": -52.066123962402344, "y": 2.8095083236694336, "z": 0.4539376497268677}, "status": {"flags": 831, "velocity_variance": 0.08536948263645172, "pos_horiz_variance": 0.006635547149926424, "pos_vert_variance": 0.0008770146523602307}}, "errors": []}
{"timestamp": "2025-12-15T10:22:59.169392Z", "telemetry": {"lat": 28.7525381, "lon": 77.1179582, "satellites": 7, "altitude_gps_m": 203.00999450683594, "groundspeed_mps": 1.0062237977981567}, "flight": {"mode": "STABILIZE", "armed": false}, "ekf": {"attitude": {"roll": 0.09027227759361267, "pitch": -0.1473143845796585, "yaw": 1.802133321762085}, "local_position": {"x": -53.0890998840332, "y": 2.824147939682007, "z": 0.5651038885116577}, "status": {"flags": 831, "velocity_variance": 0.0779198631644249, "pos_horiz_variance": 0.003179625142365694, "pos_vert_variance": 0.006325096357613802}}, "errors": []}
{"timestamp": "2025-12-15T10:23:00.168945Z", "telemetry": {"lat": 28.7525279, "lon": 77.1179593, "satellites": 7, "altitude_gps_m": 203.0699920654297, "groundspeed_mps": 0.9566969275474548}, "flight": {"mode": "STABILIZE", "armed": false}, "ekf": {"attitude": {"roll": 0.06894838809967041, "pitch": -0.19855263829231262, "yaw": 1.4961702823638916}, "local_position": {"x": -54.21915817260742, "y": 2.941859483718872, "z": 0.49548500776290894}, "status": {"flags": 831, "velocity_variance": 0.0975831151008606, "pos_horiz_variance": 0.0009334083297289908, "pos_vert_variance": 0.0013965736143290997}}, "errors": []}
{"timestamp": "2025-12-15T10:23:01.169401Z", "telemetry": {"lat": 28.7525209, "lon": 77.1179613, "satellites": 7, "altitude_gps_m": 203.0699920654297, "groundspeed_mps": 1.0282624959945679}, "flight": {"mode": "STABILIZE", "armed": false}, "ekf": {"attitude": {"roll": 0.011569943279027939, "pitch": -0.07244030386209488, "yaw": 1.5359491109848022}, "local_position": {"x": -54.93976593017578, "y": 3.0046513080596924, "z": 0.45394477248191833}, "status": {"flags": 831, "velocity_variance": 0.07450078427791595, "pos_horiz_variance": 0.006735843140631914, "pos_vert_variance": 0.009700661525130272}}, "errors": []}
{"timestamp": "2025-12-15T10:23:02.174217Z", "telemetry": {"lat": 28.7525126, "lon": 77.1179617, "satellites": 7, "altitude_gps_m": 203.01998901367188, "groundspeed_mps": 0.8082411885261536}, "flight": {"mode": "STABILIZE", "armed": false}, "ekf": {"attitude": {"roll": 0.04521307721734047, "pitch": -0.12658388912677765, "yaw": 1.4337962865829468}, "local_position": {"x": -55.88105010986328, "y": 2.9918975830078125, "z": 0.5527154803276062}, "status": {"flags": 831, "velocity_variance": 0.09958233684301376, "pos_horiz_variance": 0.008162126876413822, "pos_vert_variance": 0.003937650006264448}}, "errors": []}
{"timestamp": "2025-12-15T10:23:03.173165Z", "telemetry": {"lat": 28.7525048, "lon": 77.117963, "satellites": 7, "altitude_gps_m": 203.09999084472656, "groundspeed_mps": 0.7213060259819031}, "flight": {"mode": "STABILIZE", "armed": false}, "ekf": {"attitude": {"roll": 0.05779967084527016, "pitch": -0.0773473009467125, "yaw": 1.4041333198547363}, "local_position": {"x": -56.7158317565918, "y": 3.157761812210083, "z": 0.4959658980369568}, "status": {"flags": 831, "velocity_variance": 0.15158744156360626, "pos_horiz_variance": 0.0059010642580688, "pos_vert_variance": 0.01361049059778452}}, "errors": []}
{"timestamp": "2025-12-15T10:23:04.169368Z", "telemetry": {"lat": 28.7524973, "lon": 77.117963, "satellites": 7, "altitude_gps_m": 203.27999877929688, "groundspeed_mps": 0.8894087076187134}, "flight": {"mode": "STABILIZE", "armed": false}, "ekf": {"attitude": {"roll": -0.04828157275915146, "pitch": 0.04943365603685379, "yaw": 1.4938750267028809}, "local_position": {"x": -57.53737258911133, "y": 3.19541072845459, "z": 0.2871813476085663}, "status": {"flags": 831, "velocity_variance": 0.06661932915449142, "pos_horiz_variance": 0.004248087760061026, "pos_vert_variance": 0.01828736998140812}}, "errors": []}
{"timestamp": "2025-12-15T10:23:05.169185Z", "telemetry": {"lat": 28.7524891, "lon": 77.1179623, "satellites": 7, "altitude_gps_m": 203.4099884033203, "groundspeed_mps": 0.9688533544540405}, "flight": {"mode": "STABILIZE", "armed": false}, "ekf": {"attitude": {"roll": 0.10209422558546066, "pitch": 0.027275679633021355, "yaw": 1.7453701496124268}, "local_position": {"x": -58.49439239501953, "y": 3.0847442150115967, "z": 0.21003524959087372}, "status": {"flags": 831, "velocity_variance": 0.05639515444636345, "pos_horiz_variance": 0.0056051951833069324, "pos_vert_variance": 0.013204053975641727}}, "errors": []}
{"timestamp": "2025-12-15T10:23:06.168469Z", "telemetry": {"lat": 28.7524809, "lon": 77.1179579, "satellites": 7, "altitude_gps_m": 203.44000244140625, "groundspeed_mps": 1.1942667961120605}, "flight": {"mode": "STABILIZE", "armed": false}, "ekf": {"attitude": {"roll": 0.11183913797140121, "pitch": -0.006698868237435818, "yaw": 2.1404547691345215}, "local_position": {"x": -59.43013000488281, "y": 2.4769999980926514, "z": 0.12209578603506088}, "status": {"flags": 831, "velocity_variance": 0.10878688842058182, "pos_horiz_variance": 0.007410530466586351, "pos_vert_variance": 0.00487373536452651}}, "errors": []}
{"timestamp": "2025-12-15T10:23:07.169142Z", "telemetry": {"lat": 28.7524748, "lon": 77.1179502, "satellites": 7, "altitude_gps_m": 203.62998962402344, "groundspeed_mps": 0.7696364521980286}, "flight": {"mode": "STABILIZE", "armed": false}, "ekf": {"attitude": {"roll": 0.12265128642320633, "pitch": -0.07777703553438187, "yaw": 2.553954601287842}, "local_position": {"x": -59.99712371826172, "y": 1.6893609762191772, "z": -0.06858570873737335}, "status": {"flags": 831, "velocity_variance": 0.08875281363725662, "pos_horiz_variance": 0.01296067051589489, "pos_vert_variance": 0.005027939565479755}}, "errors": []}
{"timestamp": "2025-12-15T10:23:08.168602Z", "telemetry": {"lat": 28.7524714, "lon": 77.1179464, "satellites": 7, "altitude_gps_m": 203.7899932861328, "groundspeed_mps": 0.8272117972373962}, "flight": {"mode": "STABILIZE", "armed": false}, "ekf": {"attitude": {"roll": 0.23275886476039886, "pitch": -0.07784383744001389, "yaw": 2.5606746673583984}, "local_position": {"x": -60.32475280761719, "y": 1.3425405025482178, "z": -0.2033323049545288}, "status": {"flags": 831, "velocity_variance": 0.11300475895404816, "pos_horiz_variance": 0.013761014677584171, "pos_vert_variance": 0.009509659372270107}}, "errors": []}
{"timestamp": "2025-12-15T10:23:09.168954Z", "telemetry": {"lat": 28.7524699, "lon": 77.1179394, "satellites": 7, "altitude_gps_m": 203.9099884033203, "groundspeed_mps": 0.5886333584785461}, "flight": {"mode": "STABILIZE", "armed": false}, "ekf": {"attitude": {"roll": 0.1026264876127243, "pitch": -0.16365481913089752, "yaw": 2.429840326309204}, "local_position": {"x": -60.5084114074707, "y": 0.6036769151687622, "z": -0.2985392212867737}, "status": {"flags": 831, "velocity_variance": 0.11221342533826828, "pos_horiz_variance": 0.018009237945079803, "pos_vert_variance": 0.013152857311069965}}, "errors": []}
{"timestamp": "2025-12-15T10:23:10.168395Z", "telemetry": {"lat": 28.7524698, "lon": 77.1179348, "satellites": 7, "altitude_gps_m": 203.9199981689453, "groundspeed_mps": 0.8828206658363342}, "flight": {"mode": "STABILIZE", "armed": false}, "ekf": {"attitude": {"roll": 0.20848146080970764, "pitch": -0.0859559029340744, "yaw": 2.28023099899292}, "local_position": {"x": -60.6025276184082, "y": 0.18732349574565887, "z": -0.36566200852394104}, "status": {"flags": 831, "velocity_variance": 0.09226420521736145, "pos_horiz_variance": 0.017068175598978996, "pos_vert_variance": 0.014208736829459667}}, "errors": []}
{"timestamp": "2025-12-15T10:23:11.169554Z", "telemetry": {"lat": 28.7524683, "lon": 77.1179286, "satellites": 7, "altitude_gps_m": 203.9099884033203, "groundspeed_mps": 0.8324411511421204}, "flight": {"mode": "STABILIZE", "armed": false}, "ekf": {"attitude": {"roll": 0.12762883305549622, "pitch": -0.14775627851486206, "yaw": 2.530550956726074}, "local_position": {"x": -60.780113220214844, "y": -0.4051949679851532, "z": -0.43550077080726624}, "status": {"flags": 831, "velocity_variance": 0.053847622126340866, "pos_horiz_variance": 0.019473854452371597, "pos_vert_variance": 0.008616136386990547}}, "errors": []}
{"timestamp": "2025-12-15T10:23:12.176381Z", "telemetry": {"lat": 28.752465, "lon": 77.1179207, "satellites": 7, "altitude_gps_m": 203.8300018310547, "groundspeed_mps": 0.9941709637641907}, "flight": {"mode": "STABILIZE", "armed": false}, "ekf": {"attitude": {"roll": 0.008307709358632565, "pitch": -0.04616060480475426, "yaw": 2.4294729232788086}, "local_position": {"x": -61.18539810180664, "y": -1.2010455131530762, "z": -0.26767534017562866}, "status": {"flags": 831, "velocity_variance": 0.3395999073982239, "pos_horiz_variance": 0.01615333743393421, "pos_vert_variance": 0.007978733628988266}}, "errors": ["PreArm: Hardware safety switch"]}
{"timestamp": "2025-12-15T10:23:13.176252Z", "telemetry": {"lat": 28.7524604, "lon": 77.1179126, "satellites": 7, "altitude_gps_m": 203.739990234375, "groundspeed_mps": 0.9222240447998047}, "flight": {"mode": "STABILIZE", "armed": false}, "ekf": {"attitude": {"roll": 0.14856131374835968, "pitch": -0.05345305800437927, "yaw": 2.3642749786376953}, "local_position": {"x": -61.70625686645508, "y": -1.913995385169983, "z": -0.17343983054161072}, "status": {"flags": 831, "velocity_variance": 0.19543540477752686, "pos_horiz_variance": 0.016071192920207977, "pos_vert_variance": 0.0018082091119140387}}, "errors": ["PreArm: Hardware safety switch"]}
{"timestamp": "2025-12-15T10:23:14.170917Z", "telemetry": {"lat": 28.7524562, "lon": 77.1179069, "satellites": 7, "altitude_gps_m": 203.739990234375, "groundspeed_mps": 0.9334241151809692}, "flight": {"mode": "STABILIZE", "armed": false}, "ekf": {"attitude": {"roll": 0.06402339786291122, "pitch": -0.09388291835784912, "yaw": 2.8776538372039795}, "local_position": {"x": -62.17745590209961, "y": -2.6023709774017334, "z": -0.184751957654953}, "status": {"flags": 831, "velocity_variance": 0.16714699566364288, "pos_horiz_variance": 0.017041372135281563, "pos_vert_variance": 0.004949364811182022}}, "errors": ["PreArm: Hardware safety switch"]}
{"timestamp": "2025-12-15T10:23:15.169413Z", "telemetry": {"lat": 28.7524553, "lon": 77.1179027, "satellites": 7, "altitude_gps_m": 203.59999084472656, "groundspeed_mps": 0.6996157765388489}, "flight": {"mode": "STABILIZE", "armed": false}, "ekf": {"attitude": {"roll": 0.10161009430885315, "pitch": -0.01624324358999729, "yaw": 2.339322328567505}, "local_position": {"x": -62.22206497192383, "y": -2.9090304374694824, "z": -0.09577518701553345}, "status": {"flags": 831, "velocity_variance": 0.05796283110976219, "pos_horiz_variance": 0.019461560994386673, "pos_vert_variance": 0.011629398912191391}}, "errors": ["PreArm: Hardware safety switch"]}
{"timestamp": "2025-12-15T10:23:16.169692Z", "telemetry": {"lat": 28.7524514, "lon": 77.1178997, "satellites": 7, "altitude_gps_m": 203.5699920654297, "groundspeed_mps": 0.9956993460655212}, "flight": {"mode": "STABILIZE", "armed": false}, "ekf": {"attitude": {"roll": 0.18336555361747742, "pitch": 0.008046124130487442, "yaw": 1.919955849647522}, "local_position": {"x": -62.646305084228516, "y": -3.482158899307251, "z": -0.0036764144897460938}, "status": {"flags": 831, "velocity_variance": 0.16903100907802582, "pos_horiz_variance": 0.0161992646753788, "pos_vert_variance": 0.001503372099250555}}, "errors": ["PreArm: Hardware safety switch"]}
{"timestamp": "2025-12-15T10:23:17.168388Z", "telemetry": {"lat": 28.7524468, "lon": 77.1178927, "satellites": 7, "altitude_gps_m": 203.51998901367188, "groundspeed_mps": 1.2569735050201416}, "flight": {"mode": "STABILIZE", "armed": false}, "ekf": {"attitude": {"roll": 0.14081387221813202, "pitch": -0.00038072094321250916, "yaw": 2.2127223014831543}, "local_position": {"x": -63.02429962158203, "y": -3.8689632415771484, "z": 0.012355774641036987}, "status": {"flags": 831, "velocity_variance": 0.06689073145389557, "pos_horiz_variance": 0.01104463916271925, "pos_vert_variance": 0.001978285377845168}}, "errors": ["PreArm: Hardware safety switch"]}
{"timestamp": "2025-12-15T10:23:18.168982Z", "telemetry": {"lat": 28.7524364, "lon": 77.1178836, "satellites": 7, "altitude_gps_m": 203.52999877929688, "groundspeed_mps": 1.004987120628357}, "flight": {"mode": "STABILIZE", "armed": false}, "ekf": {"attitude": {"roll": 0.09447193145751953, "pitch": -0.18472221493721008, "yaw": 2.6838808059692383}, "local_position": {"x": -64.0407943725586, "y": -5.063047885894775, "z": 0.03973459452390671}, "status": {"flags": 831, "velocity_variance": 0.1678018718957901, "pos_horiz_variance": 0.026583056896924973, "pos_vert_variance": 0.010824932716786861}}, "errors": ["PreArm: Hardware safety switch"]}
{"timestamp": "2025-12-15T10:23:19.169345Z", "telemetry": {"lat": 28.7524324, "lon": 77.1178744, "satellites": 7, "altitude_gps_m": 203.45999145507812, "groundspeed_mps": 1.0278453826904297}, "flight": {"mode": "STABILIZE", "armed": false}, "ekf": {"attitude": {"roll": 0.14556485414505005, "pitch": -0.18689997494220734, "yaw": 2.743260622024536}, "local_position": {"x": -64.33514404296875, "y": -5.533088684082031, "z": 0.09911660850048065}, "status": {"flags": 831, "velocity_variance": 0.1342732459306717, "pos_horiz_variance": 0.01879436895251274, "pos_vert_variance": 0.0034154823515564203}}, "errors": ["PreArm: Hardware safety switch"]}
{"timestamp": "2025-12-15T10:23:20.168764Z", "telemetry": {"lat": 28.7524276, "lon": 77.1178659, "satellites": 7, "altitude_gps_m": 203.50999450683594, "groundspeed_mps": 0.951492428779602}, "flight": {"mode": "STABILIZE", "armed": false}, "ekf": {"attitude": {"roll": 0.1591605842113495, "pitch": -0.17812402546405792, "yaw": 2.6390340328216553}, "local_position": {"x": -65.0343017578125, "y": -6.575081825256348, "z": 0.05735766142606735}, "status": {"flags": 831, "velocity_variance": 0.02588229440152645, "pos_horiz_variance": 0.017528502270579338, "pos_vert_variance": 0.0030760730151087046}}, "errors": ["PreArm: Hardware safety switch"]}
{"timestamp": "2025-12-15T10:23:21.168805Z", "telemetry": {"lat": 28.7524225, "lon": 77.1178577, "satellites": 7, "altitude_gps_m": 203.55999755859375, "groundspeed_mps": 0.9929945468902588}, "flight": {"mode": "STABILIZE", "armed": false}, "ekf": {"attitude": {"roll": 0.23967276513576508, "pitch": -0.1938398778438568, "yaw": 2.588550090789795}, "local_position": {"x": -65.59892272949219, "y": -7.31906270980835, "z": 0.015471383929252625}, "status": {"flags": 831, "velocity_variance": 0.07724515348672867, "pos_horiz_variance": 0.014736505225300789, "pos_vert_variance": 0.0016656741499900818}}, "errors": ["PreArm: Hardware safety switch"]}
{"timestamp": "2025-12-15T10:23:22.168425Z", "telemetry": {"lat": 28.7524142, "lon": 77.1178451, "satellites": 7, "altitude_gps_m": 203.75, "groundspeed_mps": 0.9257468581199646}, "flight": {"mode": "STABILIZE", "armed": false}, "ekf": {"attitude": {"roll": 0.18475860357284546, "pitch": -0.16116175055503845, "yaw": 2.595557689666748}, "local_position": {"x": -66.48666381835938, "y": -8.366005897521973, "z": -0.19025367498397827}, "status": {"flags": 831, "velocity_variance": 0.1913057118654251, "pos_horiz_variance": 0.014368763193488121, "pos_vert_variance": 0.025922566652297974}}, "errors": ["PreArm: Hardware safety switch"]}
{"timestamp": "2025-12-15T10:23:23.179169Z", "telemetry": {"lat": 28.7524073, "lon": 77.1178361, "satellites": 7, "altitude_gps_m": 203.97000122070312, "groundspeed_mps": 1.0297377109527588}, "flight": {"mode": "STABILIZE", "armed": false}, "ekf": {"attitude": {"roll": 0.11745714396238327, "pitch": -0.13425256311893463, "yaw": 2.4181792736053467}, "local_position": {"x": -67.189208984375, "y": -9.159093856811523, "z": -0.40364059805870056}, "status": {"flags": 831, "velocity_variance": 0.14050079882144928, "pos_horiz_variance": 0.022719809785485268, "pos_vert_variance": 0.026328491047024727}}, "errors": ["PreArm: Hardware safety switch"]}
{"timestamp": "2025-12-15T10:23:24.172216Z", "telemetry": {"lat": 28.7524015, "lon": 77.1178292, "satellites": 7, "altitude_gps_m": 204.14999389648438, "groundspeed_mps": 1.0690171718597412}, "flight": {"mode": "STABILIZE", "armed": false}, "ekf": {"attitude": {"roll": 0.059621285647153854, "pitch": -0.09328360855579376, "yaw": 2.3306031227111816}, "local_position": {"x": -67.70064544677734, "y": -9.832843780517578, "z": -0.5743480920791626}, "status": {"flags": 831, "velocity_variance": 0.08866149932146072, "pos_horiz_variance": 0.025422416627407074, "pos_vert_variance": 0.030367694795131683}}, "errors": ["PreArm: Hardware safety switch"]}
{"timestamp": "2025-12-15T10:23:25.173375Z", "telemetry": {"lat": 28.752395, "lon": 77.1178195, "satellites": 7, "altitude_gps_m": 204.38999938964844, "groundspeed_mps": 1.202780842781067}, "flight": {"mode": "STABILIZE", "armed": false}, "ekf": {"attitude": {"roll": -0.013734512962400913, "pitch": 0.011852005496621132, "yaw": 2.2847514152526855}, "local_position": {"x": -68.34671020507812, "y": -10.825386047363281, "z": -0.7637068033218384}, "status": {"flags": 831, "velocity_variance": 0.23667657375335693, "pos_horiz_variance": 0.02914559096097946, "pos_vert_variance": 0.01663140393793583}}, "errors": ["PreArm: Hardware safety switch"]}
{"timestamp": "2025-12-15T10:23:26.169004Z", "telemetry": {"lat": 28.7523874, "lon": 77.1178079, "satellites": 7, "altitude_gps_m": 204.52999877929688, "groundspeed_mps": 1.0221517086029053}, "flight": {"mode": "STABILIZE", "armed": false}, "ekf": {"attitude": {"roll": 0.07403416186571121, "pitch": -0.014354871585965157, "yaw": 2.3634591102600098}, "local_position": {"x": -69.23589324951172, "y": -12.117905616760254, "z": -0.9663093090057373}, "status": {"flags": 831, "velocity_variance": 0.029654288664460182, "pos_horiz_variance": 0.024450156837701797, "pos_vert_variance": 0.02585046924650669}}, "errors": ["PreArm: Hardware safety switch"]}
{"timestamp": "2025-12-15T10:23:27.169783Z", "telemetry": {"lat": 28.7523825, "lon": 77.1178033, "satellites": 7, "altitude_gps_m": 204.8300018310547, "groundspeed_mps": 0.9166776537895203}, "flight": {"mode": "STABILIZE", "armed": false}, "ekf": {"attitude": {"roll": 0.000771520659327507, "pitch": -0.07965826988220215, "yaw": 2.2375969886779785}, "local_position": {"x": -69.77787780761719, "y": -12.640880584716797, "z": -1.1717019081115723}, "status": {"flags": 831, "velocity_variance": 0.3267395794391632, "pos_horiz_variance": 0.02833636850118637, "pos_vert_variance": 0.02900744415819645}}, "errors": ["PreArm: Hardware safety switch"]}
{"timestamp": "2025-12-15T10:23:28.169095Z", "telemetry": {"lat": 28.7523773, "lon": 77.117794, "satellites": 7, "altitude_gps_m": 205.05999755859375, "groundspeed_mps": 1.3777101039886475}, "flight": {"mode": "STABILIZE", "armed": false}, "ekf": {"attitude": {"roll": 0.05106516182422638, "pitch": -0.06203914433717728, "yaw": 2.403261423110962}, "local_position": {"x": -70.42755889892578, "y": -13.392205238342285, "z": -1.5092512369155884}, "status": {"flags": 831, "velocity_variance": 0.16958853602409363, "pos_horiz_variance": 0.02103801630437374, "pos_vert_variance": 0.004621196072548628}}, "errors": ["PreArm: Hardware safety switch"]}
{"timestamp": "2025-12-15T10:23:29.168815Z", "telemetry": {"lat": 28.75237, "lon": 77.11778, "satellites": 7, "altitude_gps_m": 204.88999938964844, "groundspeed_mps": 1.2194539308547974}, "flight": {"mode": "STABILIZE", "armed": false}, "ekf": {"attitude": {"roll": -0.0070891911163926125, "pitch": -0.11559037119150162, "yaw": 2.825456380844116}, "local_position": {"x": -71.2303695678711, "y": -14.920644760131836, "z": -1.3236913681030273}, "status": {"flags": 831, "velocity_variance": 0.12259279191493988, "pos_horiz_variance": 0.023427797481417656, "pos_vert_variance": 0.023001883178949356}}, "errors": ["PreArm: Hardware safety switch"]}
{"timestamp": "2025-12-15T10:23:30.169359Z", "telemetry": {"lat": 28.752365, "lon": 77.1177714, "satellites": 7, "altitude_gps_m": 204.72999572753906, "groundspeed_mps": 1.3509823083877563}, "flight": {"mode": "STABILIZE", "armed": false}, "ekf": {"attitude": {"roll": -0.01474687922745943, "pitch": -0.12347530573606491, "yaw": 2.6557834148406982}, "local_position": {"x": -71.80607604980469, "y": -15.744808197021484, "z": -1.1825083494186401}, "status": {"flags": 831, "velocity_variance": 0.10909821838140488, "pos_horiz_variance": 0.024830220267176628, "pos_vert_variance": 0.037653423845767975}}, "errors": ["PreArm: Hardware safety switch"]}
{"timestamp": "2025-12-15T10:23:31.168551Z", "telemetry": {"lat": 28.7523593, "lon": 77.1177573, "satellites": 7, "altitude_gps_m": 204.44000244140625, "groundspeed_mps": 1.440224528312683}, "flight": {"mode": "STABILIZE", "armed": false}, "ekf": {"attitude": {"roll": 0.10659682005643845, "pitch": -0.10415317863225937, "yaw": 2.7356584072113037}, "local_position": {"x": -72.40341186523438, "y": -16.845836639404297, "z": -0.9420592784881592}, "status": {"flags": 831, "velocity_variance": 0.22171199321746826, "pos_horiz_variance": 0.021106364205479622, "pos_vert_variance": 0.04535256698727608}}, "errors": ["PreArm: Hardware safety switch"]}
{"timestamp": "2025-12-15T10:23:32.168976Z", "telemetry": {"lat": 28.7523557, "lon": 77.1177416, "satellites": 7, "altitude_gps_m": 204.0500030517578, "groundspeed_mps": 1.4044073820114136}, "flight": {"mode": "STABILIZE", "armed": false}, "ekf": {"attitude": {"roll": 0.037602659314870834, "pitch": -0.09786231070756912, "yaw": 2.873452663421631}, "local_position": {"x": -72.9013900756836, "y": -18.53548812866211, "z": -0.4859507977962494}, "status": {"flags": 831, "velocity_variance": 0.29421985149383545, "pos_horiz_variance": 0.018953345715999603, "pos_vert_variance": 0.052691273391246796}}, "errors": ["PreArm: Hardware safety switch"]}
{"timestamp": "2025-12-15T10:23:33.169170Z", "telemetry": {"lat": 28.7523557, "lon": 77.1177416, "satellites": 7, "altitude_gps_m": 203.97000122070312, "groundspeed_mps": 1.3913332223892212}, "flight": {"mode": "STABILIZE", "armed": false}, "ekf": {"attitude": {"roll": 0.03768402710556984, "pitch": -0.0749877542257309, "yaw": 2.909515380859375}, "local_position": {"x": -72.9013900756836, "y": -18.53548812866211, "z": -0.4859507977962494}, "status": {"flags": 831, "velocity_variance": 0.29421985149383545, "pos_horiz_variance": 0.018953345715999603, "pos_vert_variance": 0.052691273391246796}}, "errors": ["PreArm: Hardware safety switch"]}
{"timestamp": "2025-12-15T10:23:34.175787Z", "telemetry": {"lat": 28.7523517, "lon": 77.1177168, "satellites": 7, "altitude_gps_m": 203.36000061035156, "groundspeed_mps": 1.5768654346466064}, "flight": {"mode": "STABILIZE", "armed": false}, "ekf": {"attitude": {"roll": -0.0033484138548374176, "pitch": -0.02541167661547661, "yaw": 2.9868850708007812}, "local_position": {"x": -73.3992919921875, "y": -21.098922729492188, "z": 0.2060466855764389}, "status": {"flags": 831, "velocity_variance": 0.1189943328499794, "pos_horiz_variance": 0.01248056348413229, "pos_vert_variance": 0.04213804379105568}}, "errors": ["PreArm: Hardware safety switch"]}
{"timestamp": "2025-12-15T10:23:35.173370Z", "telemetry": {"lat": 28.7523498, "lon": 77.1177062, "satellites": 7, "altitude_gps_m": 202.92999267578125, "groundspeed_mps": 1.6326994895935059}, "flight": {"mode": "STABILIZE", "armed": false}, "ekf": {"attitude": {"roll": 0.07966377586126328, "pitch": -0.03404856473207474, "yaw": -3.0493690967559814}, "local_position": {"x": -73.52375793457031, "y": -22.090295791625977, "z": 0.48152846097946167}, "status": {"flags": 831, "velocity_variance": 0.1291593760251999, "pos_horiz_variance": 0.015423491597175598, "pos_vert_variance": 0.03640224412083626}}, "errors": ["PreArm: Hardware safety switch"]}
{"timestamp": "2025-12-15T10:23:36.169072Z", "telemetry": {"lat": 28.7523466, "lon": 77.1176941, "satellites": 7, "altitude_gps_m": 202.6999969482422, "groundspeed_mps": 1.7257994413375854}, "flight": {"mode": "STABILIZE", "armed": false}, "ekf": {"attitude": {"roll": 0.09653598070144653, "pitch": 0.020057370886206627, "yaw": -2.8234951496124268}, "local_position": {"x": -73.69428253173828, "y": -23.099870681762695, "z": 0.8149572610855103}, "status": {"flags": 831, "velocity_variance": 0.2483004778623581, "pos_horiz_variance": 0.024250127375125885, "pos_vert_variance": 0.009527355432510376}}, "errors": ["PreArm: Hardware safety switch"]}
{"timestamp": "2025-12-15T10:23:37.169070Z", "telemetry": {"lat": 28.7523463, "lon": 77.1176763, "satellites": 7, "altitude_gps_m": 202.739990234375, "groundspeed_mps": 1.639134407043457}, "flight": {"mode": "STABILIZE", "armed": false}, "ekf": {"attitude": {"roll": 0.10646677762269974, "pitch": -0.03617170825600624, "yaw": -2.671966791152954}, "local_position": {"x": -73.90978240966797, "y": -24.864538192749023, "z": 0.7843919992446899}, "status": {"flags": 831, "velocity_variance": 0.2089623510837555, "pos_horiz_variance": 0.015238852240145206, "pos_vert_variance": 0.02677489072084427}}, "errors": ["PreArm: Hardware safety switch"]}
{"timestamp": "2025-12-15T10:23:38.169345Z", "telemetry": {"lat": 28.7523459, "lon": 77.1176627, "satellites": 7, "altitude_gps_m": 202.45999145507812, "groundspeed_mps": 1.7338745594024658}, "flight": {"mode": "STABILIZE", "armed": false}, "ekf": {"attitude": {"roll": 0.15523046255111694, "pitch": 0.005534593015909195, "yaw": -2.609459400177002}, "local_position": {"x": -74.02387237548828, "y": -26.4818115234375, "z": 1.1182806491851807}, "status": {"flags": 831, "velocity_variance": 0.19305269420146942, "pos_horiz_variance": 0.015318003483116627, "pos_vert_variance": 0.036579448729753494}}, "errors": ["PreArm: Hardware safety switch"]}
{"timestamp": "2025-12-15T10:23:39.169301Z", "telemetry": {"lat": 28.7523414, "lon": 77.1176483, "satellites": 7, "altitude_gps_m": 202.22000122070312, "groundspeed_mps": 1.3139715194702148}, "flight": {"mode": "STABILIZE", "armed": false}, "ekf": {"attitude": {"roll": 0.1471332609653473, "pitch": -0.06047961115837097, "yaw": -2.903768301010132}, "local_position": {"x": -74.2459945678711, "y": -27.274057388305664, "z": 1.3303134441375732}, "status": {"flags": 831, "velocity_variance": 0.23016951978206635, "pos_horiz_variance": 0.02654917724430561, "pos_vert_variance": 0.007898150943219662}}, "errors": ["PreArm: Hardware safety switch"]}
{"timestamp": "2025-12-15T10:23:40.169290Z", "telemetry": {"lat": 28.7523408, "lon": 77.117639, "satellites": 7, "altitude_gps_m": 202.22999572753906, "groundspeed_mps": 1.0690557956695557}, "flight": {"mode": "STABILIZE", "armed": false}, "ekf": {"attitude": {"roll": 0.0958317220211029, "pitch": -0.13757264614105225, "yaw": -2.947096824645996}, "local_position": {"x": -74.40157318115234, "y": -28.39865493774414, "z": 1.3265600204467773}, "status": {"flags": 831, "velocity_variance": 0.05216783657670021, "pos_horiz_variance": 0.02549445629119873, "pos_vert_variance": 0.012105959467589855}}, "errors": ["PreArm: Hardware safety switch"]}
{"timestamp": "2025-12-15T10:23:41.169337Z", "telemetry": {"lat": 28.7523405, "lon": 77.1176254, "satellites": 7, "altitude_gps_m": 202.37998962402344, "groundspeed_mps": 0.8589921593666077}, "flight": {"mode": "STABILIZE", "armed": false}, "ekf": {"attitude": {"roll": 0.1433165818452835, "pitch": -0.26441964507102966, "yaw": 3.03888201713562}, "local_position": {"x": -74.54037475585938, "y": -29.58503532409668, "z": 1.1863207817077637}, "status": {"flags": 831, "velocity_variance": 0.09900988638401031, "pos_horiz_variance": 0.024965867400169373, "pos_vert_variance": 0.005068011116236448}}, "errors": ["PreArm: Hardware safety switch"]}
{"timestamp": "2025-12-15T10:23:42.168834Z", "telemetry": {"lat": 28.7523405, "lon": 77.1176254, "satellites": 7, "altitude_gps_m": 202.42999267578125, "groundspeed_mps": 0.9430027604103088}, "flight": {"mode": "STABILIZE", "armed": false}, "ekf": {"attitude": {"roll": 0.088177390396595, "pitch": -0.2609589993953705, "yaw": 3.0494496822357178}, "local_position": {"x": -74.54037475585938, "y": -29.58503532409668, "z": 1.1863207817077637}, "status": {"flags": 831, "velocity_variance": 0.09900988638401031, "pos_horiz_variance": 0.024965867400169373, "pos_vert_variance": 0.005068011116236448}}, "errors": ["PreArm: Hardware safety switch"]}
{"timestamp": "2025-12-15T10:23:43.169336Z", "telemetry": {"lat": 28.7523427, "lon": 77.1176086, "satellites": 7, "altitude_gps_m": 202.52999877929688, "groundspeed_mps": 1.0931427478790283}, "flight": {"mode": "STABILIZE", "armed": false}, "ekf": {"attitude": {"roll": 0.08953862637281418, "pitch": -0.1868656873703003, "yaw": -2.306018829345703}, "local_position": {"x": -74.06012725830078, "y": -31.411396026611328, "z": 0.9958999156951904}, "status": {"flags": 831, "velocity_variance": 0.04151623323559761, "pos_horiz_variance": 0.027719831094145775, "pos_vert_variance": 0.00526786083355546}}, "errors": ["PreArm: Hardware safety switch"]}
{"timestamp": "2025-12-15T10:23:44.176156Z", "telemetry": {"lat": 28.7523471, "lon": 77.117594, "satellites": 7, "altitude_gps_m": 202.39999389648438, "groundspeed_mps": 1.3268595933914185}, "flight": {"mode": "STABILIZE", "armed": false}, "ekf": {"attitude": {"roll": 0.13335691392421722, "pitch": -0.16582028567790985, "yaw": -2.388864040374756}, "local_position": {"x": -73.63346862792969, "y": -32.90849304199219, "z": 1.1644877195358276}, "status": {"flags": 831, "velocity_variance": 0.11904561519622803, "pos_horiz_variance": 0.026056310161948204, "pos_vert_variance": 0.003994133323431015}}, "errors": ["PreArm: Hardware safety switch"]}
{"timestamp": "2025-12-15T10:23:45.176347Z", "telemetry": {"lat": 28.7523508, "lon": 77.1175847, "satellites": 7, "altitude_gps_m": 202.3699951171875, "groundspeed_mps": 1.4331145286560059}, "flight": {"mode": "STABILIZE", "armed": false}, "ekf": {"attitude": {"roll": 0.2185690850019455, "pitch": -0.14620082080364227, "yaw": -2.3387393951416016}, "local_position": {"x": -73.22457122802734, "y": -33.75532913208008, "z": 1.2110440731048584}, "status": {"flags": 831, "velocity_variance": 0.054615605622529984, "pos_horiz_variance": 0.025768741965293884, "pos_vert_variance": 0.003688415279611945}}, "errors": ["PreArm: Hardware safety switch"]}
{"timestamp": "2025-12-15T10:23:46.174141Z", "telemetry": {"lat": 28.7523581, "lon": 77.1175734, "satellites": 7, "altitude_gps_m": 202.1999969482422, "groundspeed_mps": 1.4226717948913574}, "flight": {"mode": "STABILIZE", "armed": false}, "ekf": {"attitude": {"roll": 0.26474708318710327, "pitch": -0.24590730667114258, "yaw": -1.7901333570480347}, "local_position": {"x": -72.33180236816406, "y": -34.80622482299805, "z": 1.3174662590026855}, "status": {"flags": 831, "velocity_variance": 0.13311994075775146, "pos_horiz_variance": 0.025819208472967148, "pos_vert_variance": 0.015392698347568512}}, "errors": ["PreArm: Hardware safety switch"]}
{"timestamp": "2025-12-15T10:23:47.170088Z", "telemetry": {"lat": 28.7523701, "lon": 77.1175634, "satellites": 7, "altitude_gps_m": 202.27999877929688, "groundspeed_mps": 1.4658327102661133}, "flight": {"mode": "STABILIZE", "armed": false}, "ekf": {"attitude": {"roll": 0.21817149221897125, "pitch": -0.11513587832450867, "yaw": -1.886594533920288}, "local_position": {"x": -70.96096801757812, "y": -35.91410446166992, "z": 1.2792246341705322}, "status": {"flags": 831, "velocity_variance": 0.14815932512283325, "pos_horiz_variance": 0.02273816242814064, "pos_vert_variance": 0.018642518669366837}}, "errors": ["PreArm: Hardware safety switch"]}
{"timestamp": "2025-12-15T10:23:48.169182Z", "telemetry": {"lat": 28.7523778, "lon": 77.1175567, "satellites": 7, "altitude_gps_m": 202.42999267578125, "groundspeed_mps": 1.2934232950210571}, "flight": {"mode": "STABILIZE", "armed": false}, "ekf": {"attitude": {"roll": 0.2962014377117157, "pitch": -0.20463265478610992, "yaw": -2.088167190551758}, "local_position": {"x": -70.20448303222656, "y": -36.50638198852539, "z": 1.21463942527771}, "status": {"flags": 831, "velocity_variance": 0.08853026479482651, "pos_horiz_variance": 0.021487506106495857, "pos_vert_variance": 0.027791548520326614}}, "errors": ["PreArm: Hardware safety switch"]}
{"timestamp": "2025-12-15T10:23:49.169390Z", "telemetry": {"lat": 28.7523848, "lon": 77.1175505, "satellites": 7, "altitude_gps_m": 202.55999755859375, "groundspeed_mps": 1.3299239873886108}, "flight": {"mode": "STABILIZE", "armed": false}, "ekf": {"attitude": {"roll": 0.28004777431488037, "pitch": -0.17904812097549438, "yaw": -2.1236839294433594}, "local_position": {"x": -69.75554656982422, "y": -36.81022262573242, "z": 1.0408790111541748}, "status": {"flags": 831, "velocity_variance": 0.13102176785469055, "pos_horiz_variance": 0.020007340237498283, "pos_vert_variance": 0.026571545749902725}}, "errors": ["PreArm: Hardware safety switch"]}
{"timestamp": "2025-12-15T10:23:50.169352Z", "telemetry": {"lat": 28.7523967, "lon": 77.1175399, "satellites": 7, "altitude_gps_m": 202.80999755859375, "groundspeed_mps": 1.2529412508010864}, "flight": {"mode": "STABILIZE", "armed": false}, "ekf": {"attitude": {"roll": 0.23303934931755066, "pitch": -0.17480449378490448, "yaw": -2.028444766998291}, "local_position": {"x": -68.0926513671875, "y": -38.13869857788086, "z": 0.7579494714736938}, "status": {"flags": 831, "velocity_variance": 0.1142284944653511, "pos_horiz_variance": 0.01972006820142269, "pos_vert_variance": 0.01695704087615013}}, "errors": ["PreArm: Hardware safety switch"]}
{"timestamp": "2025-12-15T10:23:51.168448Z", "telemetry": {"lat": 28.7524063, "lon": 77.1175328, "satellites": 7, "altitude_gps_m": 202.86000061035156, "groundspeed_mps": 1.2402034997940063}, "flight": {"mode": "STABILIZE", "armed": false}, "ekf": {"attitude": {"roll": 0.23329314589500427, "pitch": -0.19082212448120117, "yaw": -1.8824766874313354}, "local_position": {"x": -67.00482940673828, "y": -38.73540496826172, "z": 0.707677960395813}, "status": {"flags": 831, "velocity_variance": 0.05260990932583809, "pos_horiz_variance": 0.019788647070527077, "pos_vert_variance": 0.008931033313274384}}, "errors": ["PreArm: Hardware safety switch"]}
{"timestamp": "2025-12-15T10:23:52.169233Z", "telemetry": {"lat": 28.7524136, "lon": 77.1175293, "satellites": 7, "altitude_gps_m": 202.86000061035156, "groundspeed_mps": 1.1592118740081787}, "flight": {"mode": "STABILIZE", "armed": false}, "ekf": {"attitude": {"roll": 0.2499820590019226, "pitch": -0.19490714371204376, "yaw": -1.847665786743164}, "local_position": {"x": -66.2867660522461, "y": -39.047943115234375, "z": 0.6883703470230103}, "status": {"flags": 831, "velocity_variance": 0.07169400155544281, "pos_horiz_variance": 0.020866092294454575, "pos_vert_variance": 0.02011077292263508}}, "errors": ["PreArm: Hardware safety switch"]}
{"timestamp": "2025-12-15T10:23:53.169298Z", "telemetry": {"lat": 28.7524224, "lon": 77.117525, "satellites": 7, "altitude_gps_m": 202.92999267578125, "groundspeed_mps": 1.2787531614303589}, "flight": {"mode": "STABILIZE", "armed": false}, "ekf": {"attitude": {"roll": 0.2522676885128021, "pitch": -0.13311883807182312, "yaw": -1.645668625831604}, "local_position": {"x": -65.29476165771484, "y": -39.44826126098633, "z": 0.6005808115005493}, "status": {"flags": 831, "velocity_variance": 0.08121990412473679, "pos_horiz_variance": 0.02049672044813633, "pos_vert_variance": 0.021525906398892403}}, "errors": ["PreArm: Hardware safety switch"]}
{"timestamp": "2025-12-15T10:23:54.168993Z", "telemetry": {"lat": 28.7524333, "lon": 77.1175195, "satellites": 7, "altitude_gps_m": 202.9199981689453, "groundspeed_mps": 1.1969645023345947}, "flight": {"mode": "STABILIZE", "armed": false}, "ekf": {"attitude": {"roll": 0.2759116291999817, "pitch": -0.2179149091243744, "yaw": -1.7264069318771362}, "local_position": {"x": -64.00952911376953, "y": -39.966888427734375, "z": 0.6525814533233643}, "status": {"flags": 831, "velocity_variance": 0.06905262917280197, "pos_horiz_variance": 0.02474631927907467, "pos_vert_variance": 0.018697742372751236}}, "errors": ["PreArm: Hardware safety switch"]}
{"timestamp": "2025-12-15T10:23:55.177167Z", "telemetry": {"lat": 28.7524406, "lon": 77.1175166, "satellites": 7, "altitude_gps_m": 203.0, "groundspeed_mps": 1.1267343759536743}, "flight": {"mode": "STABILIZE", "armed": false}, "ekf": {"attitude": {"roll": 0.28228142857551575, "pitch": -0.20040848851203918, "yaw": -1.799420714378357}, "local_position": {"x": -63.2271728515625, "y": -40.208274841308594, "z": 0.6202006936073303}, "status": {"flags": 831, "velocity_variance": 0.10697419941425323, "pos_horiz_variance": 0.025649409741163254, "pos_vert_variance": 0.022851839661598206}}, "errors": ["PreArm: Hardware safety switch"]}
{"timestamp": "2025-12-15T10:23:56.173870Z", "telemetry": {"lat": 28.7524506, "lon": 77.11751, "satellites": 7, "altitude_gps_m": 203.19000244140625, "groundspeed_mps": 0.9852961301803589}, "flight": {"mode": "STABILIZE", "armed": false}, "ekf": {"attitude": {"roll": -0.0074995411559939384, "pitch": -0.11190918833017349, "yaw": -1.9106851816177368}, "local_position": {"x": -62.176513671875, "y": -40.77273178100586, "z": 0.43787580728530884}, "status": {"flags": 831, "velocity_variance": 0.20733481645584106, "pos_horiz_variance": 0.02818794921040535, "pos_vert_variance": 0.040723759680986404}}, "errors": ["PreArm: Hardware safety switch"]}
{"timestamp": "2025-12-15T10:23:57.172079Z", "telemetry": {"lat": 28.7524579, "lon": 77.117504, "satellites": 7, "altitude_gps_m": 203.39999389648438, "groundspeed_mps": 0.7373505234718323}, "flight": {"mode": "STABILIZE", "armed": false}, "ekf": {"attitude": {"roll": 0.11507844924926758, "pitch": -0.04397479444742203, "yaw": -2.3106961250305176}, "local_position": {"x": -61.36190414428711, "y": -41.39199447631836, "z": 0.24116748571395874}, "status": {"flags": 831, "velocity_variance": 0.08692209422588348, "pos_horiz_variance": 0.028254825621843338, "pos_vert_variance": 0.04909457638859749}}, "errors": ["PreArm: Hardware safety switch"]}
{"timestamp": "2025-12-15T10:23:58.171125Z", "telemetry": {"lat": 28.7524634, "lon": 77.1174982, "satellites": 7, "altitude_gps_m": 203.6199951171875, "groundspeed_mps": 0.5462751388549805}, "flight": {"mode": "STABILIZE", "armed": false}, "ekf": {"attitude": {"roll": 0.12610167264938354, "pitch": -0.08721508830785751, "yaw": -2.3984243869781494}, "local_position": {"x": -60.77094650268555, "y": -42.012481689453125, "z": -0.013153567910194397}, "status": {"flags": 831, "velocity_variance": 0.10887320339679718, "pos_horiz_variance": 0.027350308373570442, "pos_vert_variance": 0.04505171254277229}}, "errors": ["PreArm: Hardware safety switch"]}
{"timestamp": "2025-12-15T10:23:59.168988Z", "telemetry": {"lat": 28.752467, "lon": 77.1174928, "satellites": 7, "altitude_gps_m": 203.8000030517578, "groundspeed_mps": 0.7181026339530945}, "flight": {"mode": "STABILIZE", "armed": false}, "ekf": {"attitude": {"roll": 0.07092858105897903, "pitch": -0.15402403473854065, "yaw": -2.765284538269043}, "local_position": {"x": -60.40833282470703, "y": -42.570457458496094, "z": -0.1730489432811737}, "status": {"flags": 831, "velocity_variance": 0.0695611834526062, "pos_horiz_variance": 0.030888985842466354, "pos_vert_variance": 0.03261534497141838}}, "errors": ["PreArm: Hardware safety switch"]}
{"timestamp": "2025-12-15T10:24:00.170015Z", "telemetry": {"lat": 28.7524702, "lon": 77.1174839, "satellites": 7, "altitude_gps_m": 203.8699951171875, "groundspeed_mps": 0.43521684408187866}, "flight": {"mode": "STABILIZE", "armed": false}, "ekf": {"attitude": {"roll": 0.0898626521229744, "pitch": -0.24024449288845062, "yaw": -3.0616769790649414}, "local_position": {"x": -60.040592193603516, "y": -43.433563232421875, "z": -0.3086877465248108}, "status": {"flags": 831, "velocity_variance": 0.09778391569852829, "pos_horiz_variance": 0.03287183493375778, "pos_vert_variance": 0.0007717340486124158}}, "errors": ["PreArm: Hardware safety switch"]}
{"timestamp": "2025-12-15T10:24:01.169405Z", "telemetry": {"lat": 28.7524716, "lon": 77.1174795, "satellites": 7, "altitude_gps_m": 203.86000061035156, "groundspeed_mps": 0.4661319851875305}, "flight": {"mode": "STABILIZE", "armed": false}, "ekf": {"attitude": {"roll": 0.16817782819271088, "pitch": -0.15919379889965057, "yaw": 2.816758632659912}, "local_position": {"x": -59.85152816772461, "y": -43.7313232421875, "z": -0.31866660714149475}, "status": {"flags": 831, "velocity_variance": 0.07084694504737854, "pos_horiz_variance": 0.032973770052194595, "pos_vert_variance": 0.018762772902846336}}, "errors": ["PreArm: Hardware safety switch"]}
{"timestamp": "2025-12-15T10:24:02.169144Z", "telemetry": {"lat": 28.7524747, "lon": 77.1174737, "satellites": 7, "altitude_gps_m": 203.72000122070312, "groundspeed_mps": 0.5579041242599487}, "flight": {"mode": "STABILIZE", "armed": false}, "ekf": {"attitude": {"roll": 0.08828864246606827, "pitch": -0.14522024989128113, "yaw": 3.0094363689422607}, "local_position": {"x": -59.52064514160156, "y": -44.38887405395508, "z": -0.18909859657287598}, "status": {"flags": 831, "velocity_variance": 0.036607593297958374, "pos_horiz_variance": 0.02980039454996586, "pos_vert_variance": 0.02659514546394348}}, "errors": ["PreArm: Hardware safety switch"]}
{"timestamp": "2025-12-15T10:24:03.169176Z", "telemetry": {"lat": 28.7524782, "lon": 77.1174673, "satellites": 7, "altitude_gps_m": 203.5, "groundspeed_mps": 0.5773841142654419}, "flight": {"mode": "STABILIZE", "armed": false}, "ekf": {"attitude": {"roll": 0.10566511750221252, "pitch": -0.20641274750232697, "yaw": -3.058570623397827}, "local_position": {"x": -59.127952575683594, "y": -45.137596130371094, "z": 0.06441924721002579}, "status": {"flags": 831, "velocity_variance": 0.06646435707807541, "pos_horiz_variance": 0.028350654989480972, "pos_vert_variance": 0.02692515030503273}}, "errors": ["PreArm: Hardware safety switch"]}
{"timestamp": "2025-12-15T10:24:04.169348Z", "telemetry": {"lat": 28.7524819, "lon": 77.1174625, "satellites": 7, "altitude_gps_m": 203.4099884033203, "groundspeed_mps": 1.0372917652130127}, "flight": {"mode": "STABILIZE", "armed": false}, "ekf": {"attitude": {"roll": 0.1512174904346466, "pitch": -0.1630130261182785, "yaw": -2.763214588165283}, "local_position": {"x": -58.681785583496094, "y": -45.55055618286133, "z": 0.07447774708271027}, "status": {"flags": 831, "velocity_variance": 0.02040126547217369, "pos_horiz_variance": 0.028284434229135513, "pos_vert_variance": 0.024202559143304825}}, "errors": ["PreArm: Hardware safety switch"]}
{"timestamp": "2025-12-15T10:24:05.169071Z", "telemetry": {"lat": 28.7524865, "lon": 77.1174564, "satellites": 7, "altitude_gps_m": 203.05999755859375, "groundspeed_mps": 0.41828906536102295}, "flight": {"mode": "STABILIZE", "armed": false}, "ekf": {"attitude": {"roll": 0.17307205498218536, "pitch": -0.1579647660255432, "yaw": -2.9615519046783447}, "local_position": {"x": -58.29270553588867, "y": -46.06184768676758, "z": 0.2957696318626404}, "status": {"flags": 831, "velocity_variance": 0.045740872621536255, "pos_horiz_variance": 0.029250193387269974, "pos_vert_variance": 0.020329082384705544}}, "errors": ["PreArm: Hardware safety switch"]}
{"timestamp": "2025-12-15T10:24:06.175570Z", "telemetry": {"lat": 28.7524887, "lon": 77.1174536, "satellites": 7, "altitude_gps_m": 202.59999084472656, "groundspeed_mps": 0.21917234361171722}, "flight": {"mode": "STABILIZE", "armed": false}, "ekf": {"attitude": {"roll": 0.0041875774040818214, "pitch": -0.05498974770307541, "yaw": -2.766416549682617}, "local_position": {"x": -58.02125549316406, "y": -46.31876754760742, "z": 0.9526225328445435}, "status": {"flags": 831, "velocity_variance": 0.14902444183826447, "pos_horiz_variance": 0.030064137652516365, "pos_vert_variance": 0.007817333564162254}}, "errors": ["PreArm: Hardware safety switch"]}
{"timestamp": "2025-12-15T10:24:07.174295Z", "telemetry": {"lat": 28.7524889, "lon": 77.1174537, "satellites": 7, "altitude_gps_m": 202.6699981689453, "groundspeed_mps": 0.1584332287311554}, "flight": {"mode": "STABILIZE", "armed": false}, "ekf": {"attitude": {"roll": -0.0058195581659674644, "pitch": -0.05994212627410889, "yaw": -2.766409397125244}, "local_position": {"x": -58.013710021972656, "y": -46.30150604248047, "z": 0.9147341251373291}, "status": {"flags": 831, "velocity_variance": 0.09451016038656235, "pos_horiz_variance": 0.028639480471611023, "pos_vert_variance": 0.00971433985978365}}, "errors": ["PreArm: Hardware safety switch"]}
{"timestamp": "2025-12-15T10:24:08.170852Z", "telemetry": {"lat": 28.7524888, "lon": 77.1174527, "satellites": 7, "altitude_gps_m": 202.72999572753906, "groundspeed_mps": 0.17125722765922546}, "flight": {"mode": "STABILIZE", "armed": false}, "ekf": {"attitude": {"roll": -0.005871525965631008, "pitch": -0.06014345586299896, "yaw": -2.7671289443969727}, "local_position": {"x": -58.01146697998047, "y": -46.38014602661133, "z": 0.857872486114502}, "status": {"flags": 831, "velocity_variance": 0.12982891499996185, "pos_horiz_variance": 0.03173358738422394, "pos_vert_variance": 0.007103947456926107}}, "errors": ["PreArm: Hardware safety switch"]}
{"timestamp": "2025-12-15T10:24:09.168770Z", "telemetry": {"lat": 28.7524883, "lon": 77.1174522, "satellites": 7, "altitude_gps_m": 202.75999450683594, "groundspeed_mps": 0.16815799474716187}, "flight": {"mode": "STABILIZE", "armed": false}, "ekf": {"attitude": {"roll": -0.006516852416098118, "pitch": -0.06011304259300232, "yaw": -2.767991304397583}, "local_position": {"x": -58.06834411621094, "y": -46.423484802246094, "z": 0.8067882061004639}, "status": {"flags": 831, "velocity_variance": 0.042691655457019806, "pos_horiz_variance": 0.03057970479130745, "pos_vert_variance": 0.005343923810869455}}, "errors": ["PreArm: Hardware safety switch"]}
{"timestamp": "2025-12-15T10:24:10.169136Z", "telemetry": {"lat": 28.752488, "lon": 77.1174513, "satellites": 7, "altitude_gps_m": 202.75, "groundspeed_mps": 0.16967207193374634}, "flight": {"mode": "STABILIZE", "armed": false}, "ekf": {"attitude": {"roll": -0.007104693911969662, "pitch": -0.06034047156572342, "yaw": -2.7694172859191895}, "local_position": {"x": -58.10710525512695, "y": -46.461181640625, "z": 0.8179110288619995}, "status": {"flags": 831, "velocity_variance": 0.04337465763092041, "pos_horiz_variance": 0.032898444682359695, "pos_vert_variance": 0.007547128479927778}}, "errors": ["PreArm: Hardware safety switch"]}
{"timestamp": "2025-12-15T10:24:11.169393Z", "telemetry": {"lat": 28.7524875, "lon": 77.1174502, "satellites": 7, "altitude_gps_m": 202.70999145507812, "groundspeed_mps": 0.1478036791086197}, "flight": {"mode": "STABILIZE", "armed": false}, "ekf": {"attitude": {"roll": -0.007476785220205784, "pitch": -0.06113232672214508, "yaw": -2.771395206451416}, "local_position": {"x": -58.15922927856445, "y": -46.518619537353516, "z": 0.8462231159210205}, "status": {"flags": 831, "velocity_variance": 0.09393683820962906, "pos_horiz_variance": 0.03738728538155556, "pos_vert_variance": 0.008900751359760761}}, "errors": ["PreArm: Hardware safety switch"]}
{"timestamp": "2025-12-15T10:24:12.168498Z", "telemetry": {"lat": 28.7524869, "lon": 77.1174482, "satellites": 7, "altitude_gps_m": 202.64999389648438, "groundspeed_mps": 0.11580473184585571}, "flight": {"mode": "STABILIZE", "armed": false}, "ekf": {"attitude": {"roll": -0.00806760136038065, "pitch": -0.06174221634864807, "yaw": -2.773153781890869}, "local_position": {"x": -58.30018997192383, "y": -46.645442962646484, "z": 0.9122209548950195}, "status": {"flags": 831, "velocity_variance": 0.04642867296934128, "pos_horiz_variance": 0.03901637718081474, "pos_vert_variance": 0.01160327810794115}}, "errors": ["PreArm: Hardware safety switch", "PreArm: Hardware safety switch"]}
{"timestamp": "2025-12-15T10:24:13.168783Z", "telemetry": {"lat": 28.7524866, "lon": 77.1174469, "satellites": 7, "altitude_gps_m": 202.6599884033203, "groundspeed_mps": 0.12535661458969116}, "flight": {"mode": "STABILIZE", "armed": false}, "ekf": {"attitude": {"roll": -0.00866729486733675, "pitch": -0.06156790256500244, "yaw": -2.774251937866211}, "local_position": {"x": -58.32515335083008, "y": -46.74221420288086, "z": 0.905724048614502}, "status": {"flags": 831, "velocity_variance": 0.05585817992687225, "pos_horiz_variance": 0.0422343946993351, "pos_vert_variance": 0.024907801300287247}}, "errors": ["PreArm: Hardware safety switch", "PreArm: Hardware safety switch"]}
{"timestamp": "2025-12-15T10:24:14.169035Z", "telemetry": {"lat": 28.7524862, "lon": 77.1174465, "satellites": 7, "altitude_gps_m": 202.72999572753906, "groundspeed_mps": 0.14442262053489685}, "flight": {"mode": "STABILIZE", "armed": false}, "ekf": {"attitude": {"roll": -0.009107734076678753, "pitch": -0.0612160786986351, "yaw": -2.775505542755127}, "local_position": {"x": -58.325374603271484, "y": -46.79010772705078, "z": 0.848926305770874}, "status": {"flags": 831, "velocity_variance": 0.05048250034451485, "pos_horiz_variance": 0.04308939352631569, "pos_vert_variance": 0.030261920765042305}}, "errors": ["PreArm: Hardware safety switch", "PreArm: Hardware safety switch"]}
{"timestamp": "2025-12-15T10:24:15.168888Z", "telemetry": {"lat": 28.7524857, "lon": 77.1174452, "satellites": 7, "altitude_gps_m": 202.86000061035156, "groundspeed_mps": 0.14220060408115387}, "flight": {"mode": "STABILIZE", "armed": false}, "ekf": {"attitude": {"roll": -0.009458721615374088, "pitch": -0.06156528741121292, "yaw": -2.776790142059326}, "local_position": {"x": -58.34333419799805, "y": -46.881988525390625, "z": 0.7400996685028076}, "status": {"flags": 831, "velocity_variance": 0.08899902552366257, "pos_horiz_variance": 0.043981581926345825, "pos_vert_variance": 0.040297284722328186}}, "errors": ["PreArm: Hardware safety switch", "PreArm: Hardware safety switch"]}
{"timestamp": "2025-12-15T10:24:16.168828Z", "telemetry": {"lat": 28.7524856, "lon": 77.1174447, "satellites": 7, "altitude_gps_m": 203.01998901367188, "groundspeed_mps": 0.14402902126312256}, "flight": {"mode": "STABILIZE", "armed": false}, "ekf": {"attitude": {"roll": -0.009915863163769245, "pitch": -0.06139345467090607, "yaw": -2.777608633041382}, "local_position": {"x": -58.38743591308594, "y": -47.018150329589844, "z": 0.5396789908409119}, "status": {"flags": 831, "velocity_variance": 0.025236403569579124, "pos_horiz_variance": 0.04014831781387329, "pos_vert_variance": 0.040114451199769974}}, "errors": ["PreArm: Hardware safety switch", "PreArm: Hardware safety switch"]}
