{"timestamp": "2026-01-15T13:49:03.511618Z", "telemetry": {"lat": 28.7530059, "lon": 77.1179622, "satellites": 0, "altitude_gps_m": 0.28999999165534973, "groundspeed_mps": 0.036454834043979645}, "flight": {"mode": "STABILIZE", "armed": false}, "ekf": {"attitude": {"roll": 0.020977018401026726, "pitch": -0.0018926430493593216, "yaw": -0.5573877692222595}, "local_position": {"x": null, "y": null, "z": null}, "status": {"flags": 135, "velocity_variance": 0.0, "pos_horiz_variance": 0.00853561982512474, "pos_vert_variance": 0.04866405203938484}}, "errors": ["PreArm: Hardware safety switch"]}
{"timestamp": "2026-01-15T13:49:04.498741Z", "telemetry": {"lat": 28.7530059, "lon": 77.1179622, "satellites": 0, "altitude_gps_m": 0.28999999165534973, "groundspeed_mps": 0.03800870478153229}, "flight": {"mode": "STABILIZE", "armed": false}, "ekf": {"attitude": {"roll": 0.021032296121120453, "pitch": -0.0020334762521088123, "yaw": -0.557669460773468}, "local_position": {"x": null, "y": null, "z": null}, "status": {"flags": 135, "velocity_variance": 0.0, "pos_horiz_variance": 0.00897304154932499, "pos_vert_variance": 0.09481538087129593}}, "errors": ["PreArm: Hardware safety switch"]}
{"timestamp": "2026-01-15T13:49:05.502114Z", "telemetry": {"lat": 28.7530059, "lon": 77.1179622, "satellites": 0, "altitude_gps_m": 0.28999999165534973, "groundspeed_mps": 0.039613209664821625}, "flight": {"mode": "STABILIZE", "armed": false}, "ekf": {"attitude": {"roll": 0.02093852311372757, "pitch": -0.0020520128309726715, "yaw": -0.5579500198364258}, "local_position": {"x": null, "y": null, "z": null}, "status": {"flags": 135, "velocity_variance": 0.0, "pos_horiz_variance": 0.009269404225051403, "pos_vert_variance": 0.04617966711521149}}, "errors": ["PreArm: Hardware safety switch"]}
{"timestamp": "2026-01-15T13:49:06.501804Z", "telemetry": {"lat": 28.7530059, "lon": 77.1179622, "satellites": 0, "altitude_gps_m": 0.28999999165534973, "groundspeed_mps": 0.040813349187374115}, "flight": {"mode": "STABILIZE", "armed": false}, "ekf": {"attitude": {"roll": 0.020950865000486374, "pitch": -0.002071268856525421, "yaw": -0.5582592487335205}, "local_position": {"x": null, "y": null, "z": null}, "status": {"flags": 135, "velocity_variance": 0.0, "pos_horiz_variance": 0.009516561403870583, "pos_vert_variance": 0.044684361666440964}}, "errors": ["PreArm: Hardware safety switch"]}
{"timestamp": "2026-01-15T13:49:07.501890Z", "telemetry": {"lat": 28.7530059, "lon": 77.1179622, "satellites": 0, "altitude_gps_m": 0.28999999165534973, "groundspeed_mps": 0.046067532151937485}, "flight": {"mode": "STABILIZE", "armed": false}, "ekf": {"attitude": {"roll": 0.02116224728524685, "pitch": -0.0022963103838264942, "yaw": -0.5589278936386108}, "local_position": {"x": null, "y": null, "z": null}, "status": {"flags": 135, "velocity_variance": 0.0, "pos_horiz_variance": 0.010413513518869877, "pos_vert_variance": 0.013113992288708687}}, "errors": ["PreArm: Hardware safety switch"]}
{"timestamp": "2026-01-15T13:49:08.499975Z", "telemetry": {"lat": 28.7530059, "lon": 77.1179622, "satellites": 0, "altitude_gps_m": 0.28999999165534973, "groundspeed_mps": 0.045152559876441956}, "flight": {"mode": "STABILIZE", "armed": false}, "ekf": {"attitude": {"roll": 0.02111521176993847, "pitch": -0.0023520304821431637, "yaw": -0.5592531561851501}, "local_position": {"x": null, "y": null, "z": null}, "status": {"flags": 135, "velocity_variance": 0.0, "pos_horiz_variance": 0.010842153802514076, "pos_vert_variance": 0.05263115093111992}}, "errors": ["PreArm: Hardware safety switch"]}
{"timestamp": "2026-01-15T13:49:09.505801Z", "telemetry": {"lat": 28.7530059, "lon": 77.1179622, "satellites": 0, "altitude_gps_m": 0.28999999165534973, "groundspeed_mps": 0.04731621965765953}, "flight": {"mode": "STABILIZE", "armed": false}, "ekf": {"attitude": {"roll": 0.021138500422239304, "pitch": -0.002403105143457651, "yaw": -0.559622049331665}, "local_position": {"x": null, "y": null, "z": null}, "status": {"flags": 135, "velocity_variance": 0.0, "pos_horiz_variance": 0.01109413430094719, "pos_vert_variance": 0.03479251265525818}}, "errors": ["PreArm: Hardware safety switch"]}
{"timestamp": "2026-01-15T13:49:10.506044Z", "telemetry": {"lat": 28.7530059, "lon": 77.1179622, "satellites": 0, "altitude_gps_m": 0.28999999165534973, "groundspeed_mps": 0.050002362579107285}, "flight": {"mode": "STABILIZE", "armed": false}, "ekf": {"attitude": {"roll": 0.021203648298978806, "pitch": -0.002427350729703903, "yaw": -0.5599353909492493}, "local_position": {"x": null, "y": null, "z": null}, "status": {"flags": 135, "velocity_variance": 0.0, "pos_horiz_variance": 0.011577890254557133, "pos_vert_variance": 0.08527831733226776}}, "errors": ["PreArm: Hardware safety switch"]}
{"timestamp": "2026-01-15T13:49:11.505979Z", "telemetry": {"lat": 28.7530059, "lon": 77.1179622, "satellites": 0, "altitude_gps_m": 0.28999999165534973, "groundspeed_mps": 0.04831145331263542}, "flight": {"mode": "STABILIZE", "armed": false}, "ekf": {"attitude": {"roll": 0.0212235227227211, "pitch": -0.002436927519738674, "yaw": -0.560250997543335}, "local_position": {"x": null, "y": null, "z": null}, "status": {"flags": 135, "velocity_variance": 0.0, "pos_horiz_variance": 0.011724434792995453, "pos_vert_variance": 0.00028173302416689694}}, "errors": ["PreArm: Hardware safety switch"]}
{"timestamp": "2026-01-15T13:49:12.479922Z", "telemetry": {"lat": 28.7530059, "lon": 77.1179622, "satellites": 0, "altitude_gps_m": 0.28999999165534973, "groundspeed_mps": 0.048782046884298325}, "flight": {"mode": "STABILIZE", "armed": false}, "ekf": {"attitude": {"roll": 0.021209444850683212, "pitch": -0.00234256312251091, "yaw": -0.5605007410049438}, "local_position": {"x": null, "y": null, "z": null}, "status": {"flags": 135, "velocity_variance": 0.0, "pos_horiz_variance": 0.011830955743789673, "pos_vert_variance": 0.03914294391870499}}, "errors": ["PreArm: Hardware safety switch"]}
{"timestamp": "2026-01-15T13:49:13.479101Z", "telemetry": {"lat": 28.7530059, "lon": 77.1179622, "satellites": 0, "altitude_gps_m": 0.28999999165534973, "groundspeed_mps": 0.047889355570077896}, "flight": {"mode": "STABILIZE", "armed": false}, "ekf": {"attitude": {"roll": 0.021131394430994987, "pitch": -0.0022646328434348106, "yaw": -0.5610135197639465}, "local_position": {"x": null, "y": null, "z": null}, "status": {"flags": 135, "velocity_variance": 0.0, "pos_horiz_variance": 0.011683417484164238, "pos_vert_variance": 0.04007835313677788}}, "errors": ["PreArm: Hardware safety switch"]}
{"timestamp": "2026-01-15T13:49:14.479957Z", "telemetry": {"lat": 28.7530059, "lon": 77.1179622, "satellites": 0, "altitude_gps_m": 0.28999999165534973, "groundspeed_mps": 0.045347001403570175}, "flight": {"mode": "STABILIZE", "armed": false}, "ekf": {"attitude": {"roll": 0.021190768107771873, "pitch": -0.0022788713686168194, "yaw": -0.561389148235321}, "local_position": {"x": null, "y": null, "z": null}, "status": {"flags": 135, "velocity_variance": 0.0, "pos_horiz_variance": 0.01152628380805254, "pos_vert_variance": 0.015203607268631458}}, "errors": ["PreArm: Hardware safety switch"]}
{"timestamp": "2026-01-15T13:49:15.484706Z", "telemetry": {"lat": 28.7530059, "lon": 77.1179622, "satellites": 0, "altitude_gps_m": 0.28999999165534973, "groundspeed_mps": 0.045319318771362305}, "flight": {"mode": "STABILIZE", "armed": false}, "ekf": {"attitude": {"roll": 0.02113707736134529, "pitch": -0.002142953220754862, "yaw": -0.5616542100906372}, "local_position": {"x": null, "y": null, "z": null}, "status": {"flags": 135, "velocity_variance": 0.0, "pos_horiz_variance": 0.011295479722321033, "pos_vert_variance": 0.02977241761982441}}, "errors": ["PreArm: Hardware safety switch"]}
{"timestamp": "2026-01-15T13:49:16.509860Z", "telemetry": {"lat": 28.7530059, "lon": 77.1179622, "satellites": 0, "altitude_gps_m": 0.28999999165534973, "groundspeed_mps": 0.042162977159023285}, "flight": {"mode": "STABILIZE", "armed": false}, "ekf": {"attitude": {"roll": 0.020792169496417046, "pitch": -0.0019088741391897202, "yaw": -0.5619962215423584}, "local_position": {"x": null, "y": null, "z": null}, "status": {"flags": 135, "velocity_variance": 0.0, "pos_horiz_variance": 0.011029128916561604, "pos_vert_variance": 0.03283083438873291}}, "errors": ["PreArm: Hardware safety switch"]}
{"timestamp": "2026-01-15T13:49:17.513677Z", "telemetry": {"lat": 28.7530059, "lon": 77.1179622, "satellites": 0, "altitude_gps_m": 0.28999999165534973, "groundspeed_mps": 0.04225246608257294}, "flight": {"mode": "STABILIZE", "armed": false}, "ekf": {"attitude": {"roll": 0.020533423870801926, "pitch": -0.0018200664781033993, "yaw": -0.5622537136077881}, "local_position": {"x": null, "y": null, "z": null}, "status": {"flags": 135, "velocity_variance": 0.0, "pos_horiz_variance": 0.010535349138081074, "pos_vert_variance": 0.059589385986328125}}, "errors": ["PreArm: Hardware safety switch"]}
{"timestamp": "2026-01-15T13:49:18.513498Z", "telemetry": {"lat": 28.7530059, "lon": 77.1179622, "satellites": 0, "altitude_gps_m": 0.28999999165534973, "groundspeed_mps": 0.03653808310627937}, "flight": {"mode": "STABILIZE", "armed": false}, "ekf": {"attitude": {"roll": 0.02025894820690155, "pitch": -0.001763487234711647, "yaw": -0.5624896287918091}, "local_position": {"x": null, "y": null, "z": null}, "status": {"flags": 135, "velocity_variance": 0.0, "pos_horiz_variance": 0.010191171430051327, "pos_vert_variance": 0.13633225858211517}}, "errors": ["PreArm: Hardware safety switch"]}
{"timestamp": "2026-01-15T13:49:19.487919Z", "telemetry": {"lat": 28.7530059, "lon": 77.1179622, "satellites": 0, "altitude_gps_m": 0.28999999165534973, "groundspeed_mps": 0.03883964940905571}, "flight": {"mode": "STABILIZE", "armed": false}, "ekf": {"attitude": {"roll": 0.020194554701447487, "pitch": -0.001807305496186018, "yaw": -0.5625914335250854}, "local_position": {"x": null, "y": null, "z": null}, "status": {"flags": 135, "velocity_variance": 0.0, "pos_horiz_variance": 0.009222416207194328, "pos_vert_variance": 0.06733104586601257}}, "errors": ["PreArm: Hardware safety switch"]}
{"timestamp": "2026-01-15T13:49:20.488388Z", "telemetry": {"lat": 28.7530059, "lon": 77.1179622, "satellites": 0, "altitude_gps_m": 0.28999999165534973, "groundspeed_mps": 0.037357985973358154}, "flight": {"mode": "STABILIZE", "armed": false}, "ekf": {"attitude": {"roll": 0.02010248973965645, "pitch": -0.0018931934610009193, "yaw": -0.5627323389053345}, "local_position": {"x": null, "y": null, "z": null}, "status": {"flags": 135, "velocity_variance": 0.0, "pos_horiz_variance": 0.009192436933517456, "pos_vert_variance": 0.004996958188712597}}, "errors": ["PreArm: Hardware safety switch"]}
{"timestamp": "2026-01-15T13:49:21.490416Z", "telemetry": {"lat": 28.7530059, "lon": 77.1179622, "satellites": 0, "altitude_gps_m": 0.28999999165534973, "groundspeed_mps": 0.0397854708135128}, "flight": {"mode": "STABILIZE", "armed": false}, "ekf": {"attitude": {"roll": 0.020147403702139854, "pitch": -0.0020439750514924526, "yaw": -0.5630510449409485}, "local_position": {"x": null, "y": null, "z": null}, "status": {"flags": 135, "velocity_variance": 0.0, "pos_horiz_variance": 0.009281150996685028, "pos_vert_variance": 0.014662372879683971}}, "errors": ["PreArm: Hardware safety switch"]}
{"timestamp": "2026-01-15T13:49:22.489049Z", "telemetry": {"lat": 28.7530059, "lon": 77.1179622, "satellites": 0, "altitude_gps_m": 0.28999999165534973, "groundspeed_mps": 0.04347117245197296}, "flight": {"mode": "STABILIZE", "armed": false}, "ekf": {"attitude": {"roll": 0.020224550738930702, "pitch": -0.002064177766442299, "yaw": -0.5634890794754028}, "local_position": {"x": null, "y": null, "z": null}, "status": {"flags": 135, "velocity_variance": 0.0, "pos_horiz_variance": 0.009748325683176517, "pos_vert_variance": 0.03309278190135956}}, "errors": ["PreArm: Hardware safety switch"]}
{"timestamp": "2026-01-15T13:49:23.493174Z", "telemetry": {"lat": 28.7530059, "lon": 77.1179622, "satellites": 0, "altitude_gps_m": 0.28999999165534973, "groundspeed_mps": 0.041860297322273254}, "flight": {"mode": "STABILIZE", "armed": false}, "ekf": {"attitude": {"roll": 0.020313186571002007, "pitch": -0.002213004045188427, "yaw": -0.563664972782135}, "local_position": {"x": null, "y": null, "z": null}, "status": {"flags": 135, "velocity_variance": 0.0, "pos_horiz_variance": 0.0102023184299469, "pos_vert_variance": 0.01820014789700508}}, "errors": ["PreArm: Hardware safety switch"]}
{"timestamp": "2026-01-15T13:49:24.496053Z", "telemetry": {"lat": 28.7530059, "lon": 77.1179622, "satellites": 0, "altitude_gps_m": 0.28999999165534973, "groundspeed_mps": 0.044658027589321136}, "flight": {"mode": "STABILIZE", "armed": false}, "ekf": {"attitude": {"roll": 0.02047170326113701, "pitch": -0.0022069765254855156, "yaw": -0.5637964010238647}, "local_position": {"x": null, "y": null, "z": null}, "status": {"flags": 135, "velocity_variance": 0.0, "pos_horiz_variance": 0.010420827195048332, "pos_vert_variance": 0.06392151862382889}}, "errors": ["PreArm: Hardware safety switch"]}
{"timestamp": "2026-01-15T13:49:25.491943Z", "telemetry": {"lat": 28.7530059, "lon": 77.1179622, "satellites": 0, "altitude_gps_m": 0.28999999165534973, "groundspeed_mps": 0.045447222888469696}, "flight": {"mode": "STABILIZE", "armed": false}, "ekf": {"attitude": {"roll": 0.020521879196166992, "pitch": -0.002292091026902199, "yaw": -0.5638257265090942}, "local_position": {"x": null, "y": null, "z": null}, "status": {"flags": 135, "velocity_variance": 0.0, "pos_horiz_variance": 0.010838987305760384, "pos_vert_variance": 0.02027866244316101}}, "errors": ["PreArm: Hardware safety switch"]}
{"timestamp": "2026-01-15T13:49:26.521547Z", "telemetry": {"lat": 28.7530059, "lon": 77.1179622, "satellites": 0, "altitude_gps_m": 0.28999999165534973, "groundspeed_mps": 0.04654734209179878}, "flight": {"mode": "STABILIZE", "armed": false}, "ekf": {"attitude": {"roll": 0.020484935492277145, "pitch": -0.002278184052556753, "yaw": -0.5639691948890686}, "local_position": {"x": null, "y": null, "z": null}, "status": {"flags": 135, "velocity_variance": 0.0, "pos_horiz_variance": 0.010956143960356712, "pos_vert_variance": 0.11370334774255753}}, "errors": ["PreArm: Hardware safety switch"]}
{"timestamp": "2026-01-15T13:49:27.499741Z", "telemetry": {"lat": 28.7530059, "lon": 77.1179622, "satellites": 0, "altitude_gps_m": 0.28999999165534973, "groundspeed_mps": 0.045857589691877365}, "flight": {"mode": "STABILIZE", "armed": false}, "ekf": {"attitude": {"roll": 0.020479850471019745, "pitch": -0.002200071234256029, "yaw": -0.5640292167663574}, "local_position": {"x": null, "y": null, "z": null}, "status": {"flags": 135, "velocity_variance": 0.0, "pos_horiz_variance": 0.011229061521589756, "pos_vert_variance": 0.05366947874426842}}, "errors": ["PreArm: Hardware safety switch"]}
{"timestamp": "2026-01-15T13:49:28.494793Z", "telemetry": {"lat": 28.7530059, "lon": 77.1179622, "satellites": 0, "altitude_gps_m": 0.28999999165534973, "groundspeed_mps": 0.046137500554323196}, "flight": {"mode": "STABILIZE", "armed": false}, "ekf": {"attitude": {"roll": 0.02048669196665287, "pitch": -0.00217060511931777, "yaw": -0.564190149307251}, "local_position": {"x": null, "y": null, "z": null}, "status": {"flags": 135, "velocity_variance": 0.0, "pos_horiz_variance": 0.011275241151452065, "pos_vert_variance": 0.040152378380298615}}, "errors": ["PreArm: Hardware safety switch"]}
{"timestamp": "2026-01-15T13:49:29.495859Z", "telemetry": {"lat": 28.7530059, "lon": 77.1179622, "satellites": 0, "altitude_gps_m": 0.28999999165534973, "groundspeed_mps": 0.04493791237473488}, "flight": {"mode": "STABILIZE", "armed": false}, "ekf": {"attitude": {"roll": 0.0206342414021492, "pitch": -0.0021595903672277927, "yaw": -0.5642944574356079}, "local_position": {"x": null, "y": null, "z": null}, "status": {"flags": 135, "velocity_variance": 0.0, "pos_horiz_variance": 0.011129047721624374, "pos_vert_variance": 0.0762554332613945}}, "errors": ["PreArm: Hardware safety switch"]}
{"timestamp": "2026-01-15T13:49:30.497113Z", "telemetry": {"lat": 28.7530059, "lon": 77.1179622, "satellites": 0, "altitude_gps_m": 0.28999999165534973, "groundspeed_mps": 0.04296037182211876}, "flight": {"mode": "STABILIZE", "armed": false}, "ekf": {"attitude": {"roll": 0.0206341240555048, "pitch": -0.0021580555476248264, "yaw": -0.5644463896751404}, "local_position": {"x": null, "y": null, "z": null}, "status": {"flags": 135, "velocity_variance": 0.0, "pos_horiz_variance": 0.010785114951431751, "pos_vert_variance": 0.014248737134039402}}, "errors": ["PreArm: Hardware safety switch"]}
{"timestamp": "2026-01-15T13:49:31.502848Z", "telemetry": {"lat": 28.7530059, "lon": 77.1179622, "satellites": 0, "altitude_gps_m": 0.28999999165534973, "groundspeed_mps": 0.04268329590559006}, "flight": {"mode": "STABILIZE", "armed": false}, "ekf": {"attitude": {"roll": 0.02072296105325222, "pitch": -0.0021114256232976913, "yaw": -0.5643795132637024}, "local_position": {"x": null, "y": null, "z": null}, "status": {"flags": 135, "velocity_variance": 0.0, "pos_horiz_variance": 0.010486331768333912, "pos_vert_variance": 0.02022467739880085}}, "errors": ["PreArm: Hardware safety switch"]}
{"timestamp": "2026-01-15T13:49:32.493385Z", "telemetry": {"lat": 28.7530059, "lon": 77.1179622, "satellites": 0, "altitude_gps_m": 0.28999999165534973, "groundspeed_mps": 0.04193548858165741}, "flight": {"mode": "STABILIZE", "armed": false}, "ekf": {"attitude": {"roll": 0.020772812888026237, "pitch": -0.0020604939199984074, "yaw": -0.5645352602005005}, "local_position": {"x": null, "y": null, "z": null}, "status": {"flags": 135, "velocity_variance": 0.0, "pos_horiz_variance": 0.010378853417932987, "pos_vert_variance": 0.049430858343839645}}, "errors": ["PreArm: Hardware safety switch"]}
{"timestamp": "2026-01-15T13:49:33.493599Z", "telemetry": {"lat": 28.7530059, "lon": 77.1179622, "satellites": 0, "altitude_gps_m": 0.28999999165534973, "groundspeed_mps": 0.041976701468229294}, "flight": {"mode": "STABILIZE", "armed": false}, "ekf": {"attitude": {"roll": 0.020909469574689865, "pitch": -0.0020849574357271194, "yaw": -0.5646319389343262}, "local_position": {"x": null, "y": null, "z": null}, "status": {"flags": 135, "velocity_variance": 0.0, "pos_horiz_variance": 0.01030699908733368, "pos_vert_variance": 0.0267349686473608}}, "errors": ["PreArm: Hardware safety switch", "PreArm: Hardware safety switch"]}
{"timestamp": "2026-01-15T13:49:34.498517Z", "telemetry": {"lat": 28.7530059, "lon": 77.1179622, "satellites": 0, "altitude_gps_m": 0.28999999165534973, "groundspeed_mps": 0.04312320426106453}, "flight": {"mode": "STABILIZE", "armed": false}, "ekf": {"attitude": {"roll": 0.020915044471621513, "pitch": -0.002100481651723385, "yaw": -0.5646433234214783}, "local_position": {"x": null, "y": null, "z": null}, "status": {"flags": 135, "velocity_variance": 0.0, "pos_horiz_variance": 0.010287873446941376, "pos_vert_variance": 0.009363461285829544}}, "errors": ["PreArm: Hardware safety switch", "PreArm: Hardware safety switch"]}
{"timestamp": "2026-01-15T13:49:35.473238Z", "telemetry": {"lat": 28.7530059, "lon": 77.1179622, "satellites": 0, "altitude_gps_m": 0.28999999165534973, "groundspeed_mps": 0.04312320426106453}, "flight": {"mode": "STABILIZE", "armed": false}, "ekf": {"attitude": {"roll": 0.020915044471621513, "pitch": -0.002100481651723385, "yaw": -0.5646433234214783}, "local_position": {"x": null, "y": null, "z": null}, "status": {"flags": 135, "velocity_variance": 0.0, "pos_horiz_variance": 0.010287873446941376, "pos_vert_variance": 0.009363461285829544}}, "errors": ["PreArm: Hardware safety switch", "PreArm: Hardware safety switch"]}
{"timestamp": "2026-01-15T13:49:36.469216Z", "telemetry": {"lat": 28.7530059, "lon": 77.1179622, "satellites": 0, "altitude_gps_m": 0.28999999165534973, "groundspeed_mps": 0.04312320426106453}, "flight": {"mode": "STABILIZE", "armed": false}, "ekf": {"attitude": {"roll": 0.020915044471621513, "pitch": -0.002100481651723385, "yaw": -0.5646433234214783}, "local_position": {"x": null, "y": null, "z": null}, "status": {"flags": 135, "velocity_variance": 0.0, "pos_horiz_variance": 0.010287873446941376, "pos_vert_variance": 0.009363461285829544}}, "errors": ["PreArm: Hardware safety switch", "PreArm: Hardware safety switch"]}
{"timestamp": "2026-01-15T13:49:37.469463Z", "telemetry": {"lat": 28.7530059, "lon": 77.1179622, "satellites": 0, "altitude_gps_m": 0.28999999165534973, "groundspeed_mps": 0.04312320426106453}, "flight": {"mode": "STABILIZE", "armed": false}, "ekf": {"attitude": {"roll": 0.020915044471621513, "pitch": -0.002100481651723385, "yaw": -0.5646433234214783}, "local_position": {"x": null, "y": null, "z": null}, "status": {"flags": 135, "velocity_variance": 0.0, "pos_horiz_variance": 0.010287873446941376, "pos_vert_variance": 0.009363461285829544}}, "errors": ["PreArm: Hardware safety switch", "PreArm: Hardware safety switch"]}
{"timestamp": "2026-01-15T13:49:38.853721Z", "telemetry": {"lat": 28.7530059, "lon": 77.1179622, "satellites": 0, "altitude_gps_m": 0.28999999165534973, "groundspeed_mps": 0.04312320426106453}, "flight": {"mode": "STABILIZE", "armed": false}, "ekf": {"attitude": {"roll": 0.020915044471621513, "pitch": -0.002100481651723385, "yaw": -0.5646433234214783}, "local_position": {"x": null, "y": null, "z": null}, "status": {"flags": 135, "velocity_variance": 0.0, "pos_horiz_variance": 0.010287873446941376, "pos_vert_variance": 0.009363461285829544}}, "errors": ["PreArm: Hardware safety switch", "PreArm: Hardware safety switch"]}
{"timestamp": "2026-01-15T13:49:39.469537Z", "telemetry": {"lat": 28.7530059, "lon": 77.1179622, "satellites": 0, "altitude_gps_m": 0.28999999165534973, "groundspeed_mps": 0.04312320426106453}, "flight": {"mode": "STABILIZE", "armed": false}, "ekf": {"attitude": {"roll": 0.020915044471621513, "pitch": -0.002100481651723385, "yaw": -0.5646433234214783}, "local_position": {"x": null, "y": null, "z": null}, "status": {"flags": 135, "velocity_variance": 0.0, "pos_horiz_variance": 0.010287873446941376, "pos_vert_variance": 0.009363461285829544}}, "errors": ["PreArm: Hardware safety switch", "PreArm: Hardware safety switch"]}
{"timestamp": "2026-01-15T13:49:40.524725Z", "telemetry": {"lat": 28.7530059, "lon": 77.1179622, "satellites": 0, "altitude_gps_m": 0.28999999165534973, "groundspeed_mps": 0.04312320426106453}, "flight": {"mode": "STABILIZE", "armed": false}, "ekf": {"attitude": {"roll": 0.020915044471621513, "pitch": -0.002100481651723385, "yaw": -0.5646433234214783}, "local_position": {"x": null, "y": null, "z": null}, "status": {"flags": 135, "velocity_variance": 0.0, "pos_horiz_variance": 0.010287873446941376, "pos_vert_variance": 0.009363461285829544}}, "errors": ["PreArm: Hardware safety switch", "PreArm: Hardware safety switch"]}
{"timestamp": "2026-01-15T13:49:41.473826Z", "telemetry": {"lat": 28.7530059, "lon": 77.1179622, "satellites": 0, "altitude_gps_m": 0.28999999165534973, "groundspeed_mps": 0.04312320426106453}, "flight": {"mode": "STABILIZE", "armed": false}, "ekf": {"attitude": {"roll": 0.020915044471621513, "pitch": -0.002100481651723385, "yaw": -0.5646433234214783}, "local_position": {"x": null, "y": null, "z": null}, "status": {"flags": 135, "velocity_variance": 0.0, "pos_horiz_variance": 0.010287873446941376, "pos_vert_variance": 0.009363461285829544}}, "errors": ["PreArm: Hardware safety switch", "PreArm: Hardware safety switch"]}
{"timestamp": "2026-01-15T13:49:42.525166Z", "telemetry": {"lat": 28.7530059, "lon": 77.1179622, "satellites": 0, "altitude_gps_m": 0.28999999165534973, "groundspeed_mps": 0.04312320426106453}, "flight": {"mode": "STABILIZE", "armed": false}, "ekf": {"attitude": {"roll": 0.020915044471621513, "pitch": -0.002100481651723385, "yaw": -0.5646433234214783}, "local_position": {"x": null, "y": null, "z": null}, "status": {"flags": 135, "velocity_variance": 0.0, "pos_horiz_variance": 0.010287873446941376, "pos_vert_variance": 0.009363461285829544}}, "errors": ["PreArm: Hardware safety switch", "PreArm: Hardware safety switch"]}
{"timestamp": "2026-01-15T13:49:43.588259Z", "telemetry": {"lat": 28.7530059, "lon": 77.1179622, "satellites": 0, "altitude_gps_m": 0.28999999165534973, "groundspeed_mps": 0.04312320426106453}, "flight": {"mode": "STABILIZE", "armed": false}, "ekf": {"attitude": {"roll": 0.020915044471621513, "pitch": -0.002100481651723385, "yaw": -0.5646433234214783}, "local_position": {"x": null, "y": null, "z": null}, "status": {"flags": 135, "velocity_variance": 0.0, "pos_horiz_variance": 0.010287873446941376, "pos_vert_variance": 0.009363461285829544}}, "errors": ["PreArm: Hardware safety switch", "PreArm: Hardware safety switch"]}
{"timestamp": "2026-01-15T13:49:44.631858Z", "telemetry": {"lat": 28.7530059, "lon": 77.1179622, "satellites": 0, "altitude_gps_m": 0.28999999165534973, "groundspeed_mps": 0.04312320426106453}, "flight": {"mode": "STABILIZE", "armed": false}, "ekf": {"attitude": {"roll": 0.020915044471621513, "pitch": -0.002100481651723385, "yaw": -0.5646433234214783}, "local_position": {"x": null, "y": null, "z": null}, "status": {"flags": 135, "velocity_variance": 0.0, "pos_horiz_variance": 0.010287873446941376, "pos_vert_variance": 0.009363461285829544}}, "errors": ["PreArm: Hardware safety switch", "PreArm: Hardware safety switch"]}
{"timestamp": "2026-01-15T13:49:45.472699Z", "telemetry": {"lat": 28.7530059, "lon": 77.1179622, "satellites": 0, "altitude_gps_m": 0.28999999165534973, "groundspeed_mps": 0.04312320426106453}, "flight": {"mode": "STABILIZE", "armed": false}, "ekf": {"attitude": {"roll": 0.020915044471621513, "pitch": -0.002100481651723385, "yaw": -0.5646433234214783}, "local_position": {"x": null, "y": null, "z": null}, "status": {"flags": 135, "velocity_variance": 0.0, "pos_horiz_variance": 0.010287873446941376, "pos_vert_variance": 0.009363461285829544}}, "errors": ["PreArm: Hardware safety switch", "PreArm: Hardware safety switch"]}
{"timestamp": "2026-01-15T13:49:46.648761Z", "telemetry": {"lat": 28.7530059, "lon": 77.1179622, "satellites": 0, "altitude_gps_m": 0.28999999165534973, "groundspeed_mps": 0.04312320426106453}, "flight": {"mode": "STABILIZE", "armed": false}, "ekf": {"attitude": {"roll": 0.020915044471621513, "pitch": -0.002100481651723385, "yaw": -0.5646433234214783}, "local_position": {"x": null, "y": null, "z": null}, "status": {"flags": 135, "velocity_variance": 0.0, "pos_horiz_variance": 0.010287873446941376, "pos_vert_variance": 0.009363461285829544}}, "errors": ["PreArm: Hardware safety switch", "PreArm: Hardware safety switch"]}
{"timestamp": "2026-01-15T13:49:47.740474Z", "telemetry": {"lat": 28.7530059, "lon": 77.1179622, "satellites": 0, "altitude_gps_m": 0.28999999165534973, "groundspeed_mps": 0.04312320426106453}, "flight": {"mode": "STABILIZE", "armed": false}, "ekf": {"attitude": {"roll": 0.020915044471621513, "pitch": -0.002100481651723385, "yaw": -0.5646433234214783}, "local_position": {"x": null, "y": null, "z": null}, "status": {"flags": 135, "velocity_variance": 0.0, "pos_horiz_variance": 0.010287873446941376, "pos_vert_variance": 0.009363461285829544}}, "errors": ["PreArm: Hardware safety switch", "PreArm: Hardware safety switch"]}
{"timestamp": "2026-01-15T13:49:48.469078Z", "telemetry": {"lat": 28.7530059, "lon": 77.1179622, "satellites": 0, "altitude_gps_m": 0.28999999165534973, "groundspeed_mps": 0.04312320426106453}, "flight": {"mode": "STABILIZE", "armed": false}, "ekf": {"attitude": {"roll": 0.020915044471621513, "pitch": -0.002100481651723385, "yaw": -0.5646433234214783}, "local_position": {"x": null, "y": null, "z": null}, "status": {"flags": 135, "velocity_variance": 0.0, "pos_horiz_variance": 0.010287873446941376, "pos_vert_variance": 0.009363461285829544}}, "errors": ["PreArm: Hardware safety switch", "PreArm: Hardware safety switch"]}
{"timestamp": "2026-01-15T13:49:49.470654Z", "telemetry": {"lat": 28.7530059, "lon": 77.1179622, "satellites": 0, "altitude_gps_m": 0.28999999165534973, "groundspeed_mps": 0.04312320426106453}, "flight": {"mode": "STABILIZE", "armed": false}, "ekf": {"attitude": {"roll": 0.020915044471621513, "pitch": -0.002100481651723385, "yaw": -0.5646433234214783}, "local_position": {"x": null, "y": null, "z": null}, "status": {"flags": 135, "velocity_variance": 0.0, "pos_horiz_variance": 0.010287873446941376, "pos_vert_variance": 0.009363461285829544}}, "errors": ["PreArm: Hardware safety switch", "PreArm: Hardware safety switch"]}
{"timestamp": "2026-01-15T13:49:50.469107Z", "telemetry": {"lat": 28.7530059, "lon": 77.1179622, "satellites": 0, "altitude_gps_m": 0.28999999165534973, "groundspeed_mps": 0.04312320426106453}, "flight": {"mode": "STABILIZE", "armed": false}, "ekf": {"attitude": {"roll": 0.020915044471621513, "pitch": -0.002100481651723385, "yaw": -0.5646433234214783}, "local_position": {"x": null, "y": null, "z": null}, "status": {"flags": 135, "velocity_variance": 0.0, "pos_horiz_variance": 0.010287873446941376, "pos_vert_variance": 0.009363461285829544}}, "errors": ["PreArm: Hardware safety switch", "PreArm: Hardware safety switch"]}
{"timestamp": "2026-01-15T13:49:51.481778Z", "telemetry": {"lat": 28.7530059, "lon": 77.1179622, "satellites": 0, "altitude_gps_m": 0.28999999165534973, "groundspeed_mps": 0.04312320426106453}, "flight": {"mode": "STABILIZE", "armed": false}, "ekf": {"attitude": {"roll": 0.020915044471621513, "pitch": -0.002100481651723385, "yaw": -0.5646433234214783}, "local_position": {"x": null, "y": null, "z": null}, "status": {"flags": 135, "velocity_variance": 0.0, "pos_horiz_variance": 0.010287873446941376, "pos_vert_variance": 0.009363461285829544}}, "errors": ["PreArm: Hardware safety switch", "PreArm: Hardware safety switch"]}
{"timestamp": "2026-01-15T13:49:52.469690Z", "telemetry": {"lat": 28.7530059, "lon": 77.1179622, "satellites": 0, "altitude_gps_m": 0.28999999165534973, "groundspeed_mps": 0.04312320426106453}, "flight": {"mode": "STABILIZE", "armed": false}, "ekf": {"attitude": {"roll": 0.020915044471621513, "pitch": -0.002100481651723385, "yaw": -0.5646433234214783}, "local_position": {"x": null, "y": null, "z": null}, "status": {"flags": 135, "velocity_variance": 0.0, "pos_horiz_variance": 0.010287873446941376, "pos_vert_variance": 0.009363461285829544}}, "errors": ["PreArm: Hardware safety switch", "PreArm: Hardware safety switch"]}
{"timestamp": "2026-01-15T13:49:53.469162Z", "telemetry": {"lat": 28.7530059, "lon": 77.1179622, "satellites": 0, "altitude_gps_m": 0.28999999165534973, "groundspeed_mps": 0.04312320426106453}, "flight": {"mode": "STABILIZE", "armed": false}, "ekf": {"attitude": {"roll": 0.020915044471621513, "pitch": -0.002100481651723385, "yaw": -0.5646433234214783}, "local_position": {"x": null, "y": null, "z": null}, "status": {"flags": 135, "velocity_variance": 0.0, "pos_horiz_variance": 0.010287873446941376, "pos_vert_variance": 0.009363461285829544}}, "errors": ["PreArm: Hardware safety switch", "PreArm: Hardware safety switch"]}
{"timestamp": "2026-01-15T13:49:54.488612Z", "telemetry": {"lat": 28.7530059, "lon": 77.1179622, "satellites": 0, "altitude_gps_m": 0.28999999165534973, "groundspeed_mps": 0.04312320426106453}, "flight": {"mode": "STABILIZE", "armed": false}, "ekf": {"attitude": {"roll": 0.020915044471621513, "pitch": -0.002100481651723385, "yaw": -0.5646433234214783}, "local_position": {"x": null, "y": null, "z": null}, "status": {"flags": 135, "velocity_variance": 0.0, "pos_horiz_variance": 0.010287873446941376, "pos_vert_variance": 0.009363461285829544}}, "errors": ["PreArm: Hardware safety switch", "PreArm: Hardware safety switch"]}
{"timestamp": "2026-01-15T13:49:55.657084Z", "telemetry": {"lat": 28.7530059, "lon": 77.1179622, "satellites": 0, "altitude_gps_m": 0.28999999165534973, "groundspeed_mps": 0.04312320426106453}, "flight": {"mode": "STABILIZE", "armed": false}, "ekf": {"attitude": {"roll": 0.020915044471621513, "pitch": -0.002100481651723385, "yaw": -0.5646433234214783}, "local_position": {"x": null, "y": null, "z": null}, "status": {"flags": 135, "velocity_variance": 0.0, "pos_horiz_variance": 0.010287873446941376, "pos_vert_variance": 0.009363461285829544}}, "errors": ["PreArm: Hardware safety switch", "PreArm: Hardware safety switch"]}
{"timestamp": "2026-01-15T13:49:56.469482Z", "telemetry": {"lat": 28.7530059, "lon": 77.1179622, "satellites": 0, "altitude_gps_m": 0.28999999165534973, "groundspeed_mps": 0.04312320426106453}, "flight": {"mode": "STABILIZE", "armed": false}, "ekf": {"attitude": {"roll": 0.020915044471621513, "pitch": -0.002100481651723385, "yaw": -0.5646433234214783}, "local_position": {"x": null, "y": null, "z": null}, "status": {"flags": 135, "velocity_variance": 0.0, "pos_horiz_variance": 0.010287873446941376, "pos_vert_variance": 0.009363461285829544}}, "errors": ["PreArm: Hardware safety switch", "PreArm: Hardware safety switch"]}
{"timestamp": "2026-01-15T13:49:57.491874Z", "telemetry": {"lat": 28.7530059, "lon": 77.1179622, "satellites": 0, "altitude_gps_m": 0.28999999165534973, "groundspeed_mps": 0.04312320426106453}, "flight": {"mode": "STABILIZE", "armed": false}, "ekf": {"attitude": {"roll": 0.020915044471621513, "pitch": -0.002100481651723385, "yaw": -0.5646433234214783}, "local_position": {"x": null, "y": null, "z": null}, "status": {"flags": 135, "velocity_variance": 0.0, "pos_horiz_variance": 0.010287873446941376, "pos_vert_variance": 0.009363461285829544}}, "errors": ["PreArm: Hardware safety switch", "PreArm: Hardware safety switch"]}
{"timestamp": "2026-01-15T13:49:58.470429Z", "telemetry": {"lat": 28.7530059, "lon": 77.1179622, "satellites": 0, "altitude_gps_m": 0.28999999165534973, "groundspeed_mps": 0.04312320426106453}, "flight": {"mode": "STABILIZE", "armed": false}, "ekf": {"attitude": {"roll": 0.020915044471621513, "pitch": -0.002100481651723385, "yaw": -0.5646433234214783}, "local_position": {"x": null, "y": null, "z": null}, "status": {"flags": 135, "velocity_variance": 0.0, "pos_horiz_variance": 0.010287873446941376, "pos_vert_variance": 0.009363461285829544}}, "errors": ["PreArm: Hardware safety switch", "PreArm: Hardware safety switch"]}
{"timestamp": "2026-01-15T13:49:59.470398Z", "telemetry": {"lat": 28.7530059, "lon": 77.1179622, "satellites": 0, "altitude_gps_m": 0.28999999165534973, "groundspeed_mps": 0.04312320426106453}, "flight": {"mode": "STABILIZE", "armed": false}, "ekf": {"attitude": {"roll": 0.020915044471621513, "pitch": -0.002100481651723385, "yaw": -0.5646433234214783}, "local_position": {"x": null, "y": null, "z": null}, "status": {"flags": 135, "velocity_variance": 0.0, "pos_horiz_variance": 0.010287873446941376, "pos_vert_variance": 0.009363461285829544}}, "errors": ["PreArm: Hardware safety switch", "PreArm: Hardware safety switch"]}
{"timestamp": "2026-01-15T13:50:00.468837Z", "telemetry": {"lat": 28.7530059, "lon": 77.1179622, "satellites": 0, "altitude_gps_m": 0.28999999165534973, "groundspeed_mps": 0.04312320426106453}, "flight": {"mode": "STABILIZE", "armed": false}, "ekf": {"attitude": {"roll": 0.020915044471621513, "pitch": -0.002100481651723385, "yaw": -0.5646433234214783}, "local_position": {"x": null, "y": null, "z": null}, "status": {"flags": 135, "velocity_variance": 0.0, "pos_horiz_variance": 0.010287873446941376, "pos_vert_variance": 0.009363461285829544}}, "errors": ["PreArm: Hardware safety switch", "PreArm: Hardware safety switch"]}
{"timestamp": "2026-01-15T13:50:01.532904Z", "telemetry": {"lat": 28.7530059, "lon": 77.1179622, "satellites": 0, "altitude_gps_m": 0.28999999165534973, "groundspeed_mps": 0.04312320426106453}, "flight": {"mode": "STABILIZE", "armed": false}, "ekf": {"attitude": {"roll": 0.020915044471621513, "pitch": -0.002100481651723385, "yaw": -0.5646433234214783}, "local_position": {"x": null, "y": null, "z": null}, "status": {"flags": 135, "velocity_variance": 0.0, "pos_horiz_variance": 0.010287873446941376, "pos_vert_variance": 0.009363461285829544}}, "errors": ["PreArm: Hardware safety switch", "PreArm: Hardware safety switch"]}
{"timestamp": "2026-01-15T13:50:02.472093Z", "telemetry": {"lat": 28.7530059, "lon": 77.1179622, "satellites": 0, "altitude_gps_m": 0.28999999165534973, "groundspeed_mps": 0.04312320426106453}, "flight": {"mode": "STABILIZE", "armed": false}, "ekf": {"attitude": {"roll": 0.020915044471621513, "pitch": -0.002100481651723385, "yaw": -0.5646433234214783}, "local_position": {"x": null, "y": null, "z": null}, "status": {"flags": 135, "velocity_variance": 0.0, "pos_horiz_variance": 0.010287873446941376, "pos_vert_variance": 0.009363461285829544}}, "errors": ["PreArm: Hardware safety switch", "PreArm: Hardware safety switch"]}
{"timestamp": "2026-01-15T13:50:03.524578Z", "telemetry": {"lat": 28.7530059, "lon": 77.1179622, "satellites": 0, "altitude_gps_m": 0.28999999165534973, "groundspeed_mps": 0.04312320426106453}, "flight": {"mode": "STABILIZE", "armed": false}, "ekf": {"attitude": {"roll": 0.020915044471621513, "pitch": -0.002100481651723385, "yaw": -0.5646433234214783}, "local_position": {"x": null, "y": null, "z": null}, "status": {"flags": 135, "velocity_variance": 0.0, "pos_horiz_variance": 0.010287873446941376, "pos_vert_variance": 0.009363461285829544}}, "errors": ["PreArm: Hardware safety switch", "PreArm: Hardware safety switch"]}
{"timestamp": "2026-01-15T13:50:04.473729Z", "telemetry": {"lat": 28.7530059, "lon": 77.1179622, "satellites": 0, "altitude_gps_m": 0.28999999165534973, "groundspeed_mps": 0.03873029351234436}, "flight": {"mode": "STABILIZE", "armed": false}, "ekf": {"attitude": {"roll": 0.020885078236460686, "pitch": -0.0017793476581573486, "yaw": -0.5624961853027344}, "local_position": {"x": null, "y": null, "z": null}, "status": {"flags": 135, "velocity_variance": 0.0, "pos_horiz_variance": 0.010029706172645092, "pos_vert_variance": 0.03591466322541237}}, "errors": ["PreArm: Hardware safety switch", "PreArm: Hardware safety switch", "PreArm: Hardware safety switch"]}
{"timestamp": "2026-01-15T13:50:05.823135Z", "telemetry": {"lat": 28.7530059, "lon": 77.1179622, "satellites": 0, "altitude_gps_m": 0.28999999165534973, "groundspeed_mps": 0.036604586988687515}, "flight": {"mode": "STABILIZE", "armed": false}, "ekf": {"attitude": {"roll": 0.020796850323677063, "pitch": -0.0017932015471160412, "yaw": -0.5624974966049194}, "local_position": {"x": null, "y": null, "z": null}, "status": {"flags": 135, "velocity_variance": 0.0, "pos_horiz_variance": 0.009624716825783253, "pos_vert_variance": 0.022710327059030533}}, "errors": ["PreArm: Hardware safety switch", "PreArm: Hardware safety switch", "PreArm: Hardware safety switch", "ArduCopter V4.6.1 (57591cb8)", "ChibiOS: 88b84600", "fmuv3 00240032 33385119 36353030", "IOMCU: 420 1001 411FC231", "RCOut: PWM:1-14", "IMU0: fast sampling enabled 8.0kHz/1.0kHz", "Frame: QUAD/X"]}
