{"timestamp": "2026-01-15T13:53:04.821172Z", "telemetry": {"lat": 28.7530059, "lon": 77.1179622, "satellites": 0, "altitude_gps_m": 0.28999999165534973, "groundspeed_mps": 0.016824351623654366}, "flight": {"mode": "STABILIZE", "armed": false}, "ekf": {"attitude": {"roll": 0.021262796595692635, "pitch": -0.00019421614706516266, "yaw": -0.5532584190368652}, "local_position": {"x": null, "y": null, "z": null}, "status": {"flags": 135, "velocity_variance": 0.0, "pos_horiz_variance": 0.004376373719424009, "pos_vert_variance": 0.10738688707351685}}, "errors": []}
{"timestamp": "2026-01-15T13:53:05.889049Z", "telemetry": {"lat": 28.7530059, "lon": 77.1179622, "satellites": 0, "altitude_gps_m": 0.28999999165534973, "groundspeed_mps": 0.014624722301959991}, "flight": {"mode": "STABILIZE", "armed": false}, "ekf": {"attitude": {"roll": 0.021293314173817635, "pitch": -0.0001742960885167122, "yaw": -0.5534095764160156}, "local_position": {"x": null, "y": null, "z": null}, "status": {"flags": 135, "velocity_variance": 0.0, "pos_horiz_variance": 0.003980732522904873, "pos_vert_variance": 0.01746288128197193}}, "errors": []}
{"timestamp": "2026-01-15T13:53:06.925445Z", "telemetry": {"lat": 28.7530059, "lon": 77.1179622, "satellites": 0, "altitude_gps_m": 0.28999999165534973, "groundspeed_mps": 0.017314279451966286}, "flight": {"mode": "STABILIZE", "armed": false}, "ekf": {"attitude": {"roll": 0.021292101591825485, "pitch": -0.0004128343425691128, "yaw": -0.5534395575523376}, "local_position": {"x": null, "y": null, "z": null}, "status": {"flags": 135, "velocity_variance": 0.0, "pos_horiz_variance": 0.0038408474065363407, "pos_vert_variance": 0.0024248166009783745}}, "errors": []}
{"timestamp": "2026-01-15T13:53:07.992847Z", "telemetry": {"lat": 28.7530059, "lon": 77.1179622, "satellites": 0, "altitude_gps_m": 0.28999999165534973, "groundspeed_mps": 0.02161875180900097}, "flight": {"mode": "STABILIZE", "armed": false}, "ekf": {"attitude": {"roll": 0.021386798471212387, "pitch": -0.0006667999550700188, "yaw": -0.55343097448349}, "local_position": {"x": null, "y": null, "z": null}, "status": {"flags": 135, "velocity_variance": 0.0, "pos_horiz_variance": 0.00438879057765007, "pos_vert_variance": 0.040937285870313644}}, "errors": ["PreArm: Hardware safety switch"]}
{"timestamp": "2026-01-15T13:53:08.994744Z", "telemetry": {"lat": 28.7530059, "lon": 77.1179622, "satellites": 0, "altitude_gps_m": 0.28999999165534973, "groundspeed_mps": 0.030640287324786186}, "flight": {"mode": "STABILIZE", "armed": false}, "ekf": {"attitude": {"roll": 0.02130982093513012, "pitch": -0.0011385232210159302, "yaw": -0.553375780582428}, "local_position": {"x": null, "y": null, "z": null}, "status": {"flags": 135, "velocity_variance": 0.0, "pos_horiz_variance": 0.005201280582696199, "pos_vert_variance": 0.01940968632698059}}, "errors": ["PreArm: Hardware safety switch"]}
{"timestamp": "2026-01-15T13:53:09.996209Z", "telemetry": {"lat": 28.7530059, "lon": 77.1179622, "satellites": 0, "altitude_gps_m": 0.28999999165534973, "groundspeed_mps": 0.03492236137390137}, "flight": {"mode": "STABILIZE", "armed": false}, "ekf": {"attitude": {"roll": 0.02141628786921501, "pitch": -0.0011328104883432388, "yaw": -0.5533733367919922}, "local_position": {"x": null, "y": null, "z": null}, "status": {"flags": 135, "velocity_variance": 0.0, "pos_horiz_variance": 0.00717864790931344, "pos_vert_variance": 0.016118410974740982}}, "errors": ["PreArm: Hardware safety switch"]}
{"timestamp": "2026-01-15T13:53:10.997435Z", "telemetry": {"lat": 28.7530059, "lon": 77.1179622, "satellites": 0, "altitude_gps_m": 0.28999999165534973, "groundspeed_mps": 0.037218641489744186}, "flight": {"mode": "STABILIZE", "armed": false}, "ekf": {"attitude": {"roll": 0.02161932922899723, "pitch": -0.0012142066843807697, "yaw": -0.5534170269966125}, "local_position": {"x": null, "y": null, "z": null}, "status": {"flags": 135, "velocity_variance": 0.0, "pos_horiz_variance": 0.007875206880271435, "pos_vert_variance": 0.013652682304382324}}, "errors": ["PreArm: Hardware safety switch"]}
{"timestamp": "2026-01-15T13:53:11.997615Z", "telemetry": {"lat": 28.7530059, "lon": 77.1179622, "satellites": 0, "altitude_gps_m": 0.28999999165534973, "groundspeed_mps": 0.038898222148418427}, "flight": {"mode": "STABILIZE", "armed": false}, "ekf": {"attitude": {"roll": 0.02161266840994358, "pitch": -0.0011314121074974537, "yaw": -0.5533562898635864}, "local_position": {"x": null, "y": null, "z": null}, "status": {"flags": 135, "velocity_variance": 0.0, "pos_horiz_variance": 0.008506604470312595, "pos_vert_variance": 0.024419710040092468}}, "errors": ["PreArm: Hardware safety switch"]}
{"timestamp": "2026-01-15T13:53:12.994546Z", "telemetry": {"lat": 28.7530059, "lon": 77.1179622, "satellites": 0, "altitude_gps_m": 0.28999999165534973, "groundspeed_mps": 0.03435981273651123}, "flight": {"mode": "STABILIZE", "armed": false}, "ekf": {"attitude": {"roll": 0.0216206181794405, "pitch": -0.0010743248276412487, "yaw": -0.5535140037536621}, "local_position": {"x": null, "y": null, "z": null}, "status": {"flags": 135, "velocity_variance": 0.0, "pos_horiz_variance": 0.008732594549655914, "pos_vert_variance": 0.04283876344561577}}, "errors": ["PreArm: Hardware safety switch"]}
{"timestamp": "2026-01-15T13:53:14.023954Z", "telemetry": {"lat": 28.7530059, "lon": 77.1179622, "satellites": 0, "altitude_gps_m": 0.28999999165534973, "groundspeed_mps": 0.03380263224244118}, "flight": {"mode": "STABILIZE", "armed": false}, "ekf": {"attitude": {"roll": 0.021575359627604485, "pitch": -0.001009712927043438, "yaw": -0.55362868309021}, "local_position": {"x": null, "y": null, "z": null}, "status": {"flags": 135, "velocity_variance": 0.0, "pos_horiz_variance": 0.008329814299941063, "pos_vert_variance": 0.003568407380953431}}, "errors": ["PreArm: Hardware safety switch"]}
{"timestamp": "2026-01-15T13:53:14.969563Z", "telemetry": {"lat": 28.7530059, "lon": 77.1179622, "satellites": 0, "altitude_gps_m": 0.28999999165534973, "groundspeed_mps": 0.03450791537761688}, "flight": {"mode": "STABILIZE", "armed": false}, "ekf": {"attitude": {"roll": 0.02163495495915413, "pitch": -0.001001560129225254, "yaw": -0.55364590883255}, "local_position": {"x": null, "y": null, "z": null}, "status": {"flags": 135, "velocity_variance": 0.0, "pos_horiz_variance": 0.008212092332541943, "pos_vert_variance": 0.06728986650705338}}, "errors": ["PreArm: Hardware safety switch"]}
{"timestamp": "2026-01-15T13:53:15.999843Z", "telemetry": {"lat": 28.7530059, "lon": 77.1179622, "satellites": 0, "altitude_gps_m": 0.28999999165534973, "groundspeed_mps": 0.03462211415171623}, "flight": {"mode": "STABILIZE", "armed": false}, "ekf": {"attitude": {"roll": 0.02162313275039196, "pitch": -0.0008686068467795849, "yaw": -0.5538437366485596}, "local_position": {"x": null, "y": null, "z": null}, "status": {"flags": 135, "velocity_variance": 0.0, "pos_horiz_variance": 0.008287511765956879, "pos_vert_variance": 0.047134675085544586}}, "errors": ["PreArm: Hardware safety switch"]}
{"timestamp": "2026-01-15T13:53:17.003155Z", "telemetry": {"lat": 28.7530059, "lon": 77.1179622, "satellites": 0, "altitude_gps_m": 0.28999999165534973, "groundspeed_mps": 0.03300514072179794}, "flight": {"mode": "STABILIZE", "armed": false}, "ekf": {"attitude": {"roll": 0.021659476682543755, "pitch": -0.0007042521610856056, "yaw": -0.55381178855896}, "local_position": {"x": null, "y": null, "z": null}, "status": {"flags": 135, "velocity_variance": 0.0, "pos_horiz_variance": 0.008251231163740158, "pos_vert_variance": 0.011987362056970596}}, "errors": ["PreArm: Hardware safety switch"]}
{"timestamp": "2026-01-15T13:53:17.996632Z", "telemetry": {"lat": 28.7530059, "lon": 77.1179622, "satellites": 0, "altitude_gps_m": 0.28999999165534973, "groundspeed_mps": 0.02928732894361019}, "flight": {"mode": "STABILIZE", "armed": false}, "ekf": {"attitude": {"roll": 0.021544024348258972, "pitch": -0.0006746468134224415, "yaw": -0.5538649559020996}, "local_position": {"x": null, "y": null, "z": null}, "status": {"flags": 135, "velocity_variance": 0.0, "pos_horiz_variance": 0.007964033633470535, "pos_vert_variance": 0.047016892582178116}}, "errors": ["PreArm: Hardware safety switch"]}
{"timestamp": "2026-01-15T13:53:18.977486Z", "telemetry": {"lat": 28.7530059, "lon": 77.1179622, "satellites": 0, "altitude_gps_m": 0.28999999165534973, "groundspeed_mps": 0.02549956552684307}, "flight": {"mode": "STABILIZE", "armed": false}, "ekf": {"attitude": {"roll": 0.021485811099410057, "pitch": -0.0007021003402769566, "yaw": -0.5539044141769409}, "local_position": {"x": null, "y": null, "z": null}, "status": {"flags": 135, "velocity_variance": 0.0, "pos_horiz_variance": 0.007286197505891323, "pos_vert_variance": 0.10918265581130981}}, "errors": ["PreArm: Hardware safety switch"]}
{"timestamp": "2026-01-15T13:53:19.970487Z", "telemetry": {"lat": 28.7530059, "lon": 77.1179622, "satellites": 0, "altitude_gps_m": 0.28999999165534973, "groundspeed_mps": 0.02468632347881794}, "flight": {"mode": "STABILIZE", "armed": false}, "ekf": {"attitude": {"roll": 0.021615613251924515, "pitch": -0.0006036907434463501, "yaw": -0.5540459156036377}, "local_position": {"x": null, "y": null, "z": null}, "status": {"flags": 135, "velocity_variance": 0.0, "pos_horiz_variance": 0.006364782806485891, "pos_vert_variance": 0.10132703930139542}}, "errors": ["PreArm: Hardware safety switch"]}
{"timestamp": "2026-01-15T13:53:20.999683Z", "telemetry": {"lat": 28.7530059, "lon": 77.1179622, "satellites": 0, "altitude_gps_m": 0.28999999165534973, "groundspeed_mps": 0.024926554411649704}, "flight": {"mode": "STABILIZE", "armed": false}, "ekf": {"attitude": {"roll": 0.021625755354762077, "pitch": -0.000600314699113369, "yaw": -0.5540071725845337}, "local_position": {"x": null, "y": null, "z": null}, "status": {"flags": 135, "velocity_variance": 0.0, "pos_horiz_variance": 0.006300002336502075, "pos_vert_variance": 0.1025184690952301}}, "errors": ["PreArm: Hardware safety switch"]}
{"timestamp": "2026-01-15T13:53:21.999564Z", "telemetry": {"lat": 28.7530059, "lon": 77.1179622, "satellites": 0, "altitude_gps_m": 0.28999999165534973, "groundspeed_mps": 0.026022762060165405}, "flight": {"mode": "STABILIZE", "armed": false}, "ekf": {"attitude": {"roll": 0.02165769599378109, "pitch": -0.00046512437984347343, "yaw": -0.5538824796676636}, "local_position": {"x": null, "y": null, "z": null}, "status": {"flags": 135, "velocity_variance": 0.0, "pos_horiz_variance": 0.006346141453832388, "pos_vert_variance": 0.05578170344233513}}, "errors": ["PreArm: Hardware safety switch"]}
{"timestamp": "2026-01-15T13:53:22.999730Z", "telemetry": {"lat": 28.7530059, "lon": 77.1179622, "satellites": 0, "altitude_gps_m": 0.28999999165534973, "groundspeed_mps": 0.025072425603866577}, "flight": {"mode": "STABILIZE", "armed": false}, "ekf": {"attitude": {"roll": 0.021785685792565346, "pitch": -0.00034057674929499626, "yaw": -0.5537561178207397}, "local_position": {"x": null, "y": null, "z": null}, "status": {"flags": 135, "velocity_variance": 0.0, "pos_horiz_variance": 0.006349385716021061, "pos_vert_variance": 0.01630501262843609}}, "errors": ["PreArm: Hardware safety switch"]}
{"timestamp": "2026-01-15T13:53:23.999666Z", "telemetry": {"lat": 28.7530059, "lon": 77.1179622, "satellites": 0, "altitude_gps_m": 0.28999999165534973, "groundspeed_mps": 0.022609667852520943}, "flight": {"mode": "STABILIZE", "armed": false}, "ekf": {"attitude": {"roll": 0.02185950241982937, "pitch": -0.00016772188246250153, "yaw": -0.5538407564163208}, "local_position": {"x": null, "y": null, "z": null}, "status": {"flags": 135, "velocity_variance": 0.0, "pos_horiz_variance": 0.006184176076203585, "pos_vert_variance": 0.021318621933460236}}, "errors": ["PreArm: Hardware safety switch"]}
{"timestamp": "2026-01-15T13:53:25.003841Z", "telemetry": {"lat": 28.7530059, "lon": 77.1179622, "satellites": 0, "altitude_gps_m": 0.28999999165534973, "groundspeed_mps": 0.018354780972003937}, "flight": {"mode": "STABILIZE", "armed": false}, "ekf": {"attitude": {"roll": 0.021752167493104935, "pitch": -0.00013712234795093536, "yaw": -0.5538917183876038}, "local_position": {"x": null, "y": null, "z": null}, "status": {"flags": 135, "velocity_variance": 0.0, "pos_horiz_variance": 0.005484474822878838, "pos_vert_variance": 0.02336392179131508}}, "errors": ["PreArm: Hardware safety switch"]}
{"timestamp": "2026-01-15T13:53:26.003581Z", "telemetry": {"lat": 28.7530059, "lon": 77.1179622, "satellites": 0, "altitude_gps_m": 0.28999999165534973, "groundspeed_mps": 0.01759077049791813}, "flight": {"mode": "STABILIZE", "armed": false}, "ekf": {"attitude": {"roll": 0.021766990423202515, "pitch": -0.00018986361101269722, "yaw": -0.5539588928222656}, "local_position": {"x": null, "y": null, "z": null}, "status": {"flags": 135, "velocity_variance": 0.0, "pos_horiz_variance": 0.0047180140390992165, "pos_vert_variance": 0.039467357099056244}}, "errors": ["PreArm: Hardware safety switch"]}
{"timestamp": "2026-01-15T13:53:27.003785Z", "telemetry": {"lat": 28.7530059, "lon": 77.1179622, "satellites": 0, "altitude_gps_m": 0.28999999165534973, "groundspeed_mps": 0.01838498003780842}, "flight": {"mode": "STABILIZE", "armed": false}, "ekf": {"attitude": {"roll": 0.021749982610344887, "pitch": -0.0002170172519981861, "yaw": -0.553978681564331}, "local_position": {"x": null, "y": null, "z": null}, "status": {"flags": 135, "velocity_variance": 0.0, "pos_horiz_variance": 0.004694912116974592, "pos_vert_variance": 0.04863620549440384}}, "errors": ["PreArm: Hardware safety switch"]}
{"timestamp": "2026-01-15T13:53:28.003543Z", "telemetry": {"lat": 28.7530059, "lon": 77.1179622, "satellites": 0, "altitude_gps_m": 0.28999999165534973, "groundspeed_mps": 0.019516294822096825}, "flight": {"mode": "STABILIZE", "armed": false}, "ekf": {"attitude": {"roll": 0.021620556712150574, "pitch": -0.0002561020664870739, "yaw": -0.5540413856506348}, "local_position": {"x": null, "y": null, "z": null}, "status": {"flags": 135, "velocity_variance": 0.0, "pos_horiz_variance": 0.004785357043147087, "pos_vert_variance": 0.06403786689043045}}, "errors": ["PreArm: Hardware safety switch"]}
{"timestamp": "2026-01-15T13:53:28.974620Z", "telemetry": {"lat": 28.7530059, "lon": 77.1179622, "satellites": 0, "altitude_gps_m": 0.28999999165534973, "groundspeed_mps": 0.017934033647179604}, "flight": {"mode": "STABILIZE", "armed": false}, "ekf": {"attitude": {"roll": 0.021502256393432617, "pitch": -0.0002535092644393444, "yaw": -0.5540913939476013}, "local_position": {"x": null, "y": null, "z": null}, "status": {"flags": 135, "velocity_variance": 0.0, "pos_horiz_variance": 0.004779833368957043, "pos_vert_variance": 0.02268248051404953}}, "errors": ["PreArm: Hardware safety switch"]}
{"timestamp": "2026-01-15T13:53:29.976694Z", "telemetry": {"lat": 28.7530059, "lon": 77.1179622, "satellites": 0, "altitude_gps_m": 0.28999999165534973, "groundspeed_mps": 0.019198207184672356}, "flight": {"mode": "STABILIZE", "armed": false}, "ekf": {"attitude": {"roll": 0.02156131900846958, "pitch": -0.00015877699479460716, "yaw": -0.5542154312133789}, "local_position": {"x": null, "y": null, "z": null}, "status": {"flags": 135, "velocity_variance": 0.0, "pos_horiz_variance": 0.004647464957088232, "pos_vert_variance": 0.01808955706655979}}, "errors": ["PreArm: Hardware safety switch"]}
{"timestamp": "2026-01-15T13:53:30.987775Z", "telemetry": {"lat": 28.7530059, "lon": 77.1179622, "satellites": 0, "altitude_gps_m": 0.28999999165534973, "groundspeed_mps": 0.017927641049027443}, "flight": {"mode": "STABILIZE", "armed": false}, "ekf": {"attitude": {"roll": 0.021598542109131813, "pitch": -6.725406274199486e-05, "yaw": -0.5542615056037903}, "local_position": {"x": null, "y": null, "z": null}, "status": {"flags": 135, "velocity_variance": 0.0, "pos_horiz_variance": 0.004586335271596909, "pos_vert_variance": 0.024715112522244453}}, "errors": ["PreArm: Hardware safety switch"]}
{"timestamp": "2026-01-15T13:53:31.982812Z", "telemetry": {"lat": 28.7530059, "lon": 77.1179622, "satellites": 0, "altitude_gps_m": 0.28999999165534973, "groundspeed_mps": 0.015779154375195503}, "flight": {"mode": "STABILIZE", "armed": false}, "ekf": {"attitude": {"roll": 0.02166041173040867, "pitch": -1.760059967637062e-05, "yaw": -0.5543456673622131}, "local_position": {"x": null, "y": null, "z": null}, "status": {"flags": 135, "velocity_variance": 0.0, "pos_horiz_variance": 0.004239007830619812, "pos_vert_variance": 0.011167939752340317}}, "errors": ["PreArm: Hardware safety switch"]}
{"timestamp": "2026-01-15T13:53:33.011377Z", "telemetry": {"lat": 28.7530059, "lon": 77.1179622, "satellites": 0, "altitude_gps_m": 0.28999999165534973, "groundspeed_mps": 0.01675497740507126}, "flight": {"mode": "STABILIZE", "armed": false}, "ekf": {"attitude": {"roll": 0.021747590973973274, "pitch": 0.00017902767285704613, "yaw": -0.5545234084129333}, "local_position": {"x": null, "y": null, "z": null}, "status": {"flags": 135, "velocity_variance": 0.0, "pos_horiz_variance": 0.004087702836841345, "pos_vert_variance": 0.010426916182041168}}, "errors": ["PreArm: Hardware safety switch"]}
{"timestamp": "2026-01-15T13:53:33.983857Z", "telemetry": {"lat": 28.7530059, "lon": 77.1179622, "satellites": 0, "altitude_gps_m": 0.28999999165534973, "groundspeed_mps": 0.014865892939269543}, "flight": {"mode": "STABILIZE", "armed": false}, "ekf": {"attitude": {"roll": 0.021803490817546844, "pitch": 0.00030960701406002045, "yaw": -0.5544888973236084}, "local_position": {"x": null, "y": null, "z": null}, "status": {"flags": 135, "velocity_variance": 0.0, "pos_horiz_variance": 0.004011258017271757, "pos_vert_variance": 0.03167484700679779}}, "errors": ["PreArm: Hardware safety switch"]}
{"timestamp": "2026-01-15T13:53:35.011482Z", "telemetry": {"lat": 28.7530059, "lon": 77.1179622, "satellites": 0, "altitude_gps_m": 0.28999999165534973, "groundspeed_mps": 0.010695410892367363}, "flight": {"mode": "STABILIZE", "armed": false}, "ekf": {"attitude": {"roll": 0.0217681173235178, "pitch": 0.00038633495569229126, "yaw": -0.5543531775474548}, "local_position": {"x": null, "y": null, "z": null}, "status": {"flags": 135, "velocity_variance": 0.0, "pos_horiz_variance": 0.0035487699788063765, "pos_vert_variance": 0.05584279075264931}}, "errors": ["PreArm: Hardware safety switch"]}
{"timestamp": "2026-01-15T13:53:36.012058Z", "telemetry": {"lat": 28.7530059, "lon": 77.1179622, "satellites": 0, "altitude_gps_m": 0.28999999165534973, "groundspeed_mps": 0.007952522486448288}, "flight": {"mode": "STABILIZE", "armed": false}, "ekf": {"attitude": {"roll": 0.02178324945271015, "pitch": 0.0005310294218361378, "yaw": -0.5543840527534485}, "local_position": {"x": null, "y": null, "z": null}, "status": {"flags": 135, "velocity_variance": 0.0, "pos_horiz_variance": 0.002822702284902334, "pos_vert_variance": 0.042228665202856064}}, "errors": ["PreArm: Hardware safety switch"]}
{"timestamp": "2026-01-15T13:53:36.989587Z", "telemetry": {"lat": 28.7530059, "lon": 77.1179622, "satellites": 0, "altitude_gps_m": 0.28999999165534973, "groundspeed_mps": 0.004612523131072521}, "flight": {"mode": "STABILIZE", "armed": false}, "ekf": {"attitude": {"roll": 0.021771861240267754, "pitch": 0.0005406602285802364, "yaw": -0.5543195605278015}, "local_position": {"x": null, "y": null, "z": null}, "status": {"flags": 135, "velocity_variance": 0.0, "pos_horiz_variance": 0.002164284698665142, "pos_vert_variance": 0.0323060005903244}}, "errors": ["PreArm: Hardware safety switch"]}
{"timestamp": "2026-01-15T13:53:38.015564Z", "telemetry": {"lat": 28.7530059, "lon": 77.1179622, "satellites": 0, "altitude_gps_m": 0.28999999165534973, "groundspeed_mps": 0.006090405397117138}, "flight": {"mode": "STABILIZE", "armed": false}, "ekf": {"attitude": {"roll": 0.02186487428843975, "pitch": 0.0005196128040552139, "yaw": -0.5542882084846497}, "local_position": {"x": null, "y": null, "z": null}, "status": {"flags": 135, "velocity_variance": 0.0, "pos_horiz_variance": 0.0015943481121212244, "pos_vert_variance": 0.08569733053445816}}, "errors": ["PreArm: Hardware safety switch"]}
{"timestamp": "2026-01-15T13:53:38.988286Z", "telemetry": {"lat": 28.7530059, "lon": 77.1179622, "satellites": 0, "altitude_gps_m": 0.28999999165534973, "groundspeed_mps": 0.007386475335806608}, "flight": {"mode": "STABILIZE", "armed": false}, "ekf": {"attitude": {"roll": 0.021876169368624687, "pitch": 0.0005001225508749485, "yaw": -0.5542923808097839}, "local_position": {"x": null, "y": null, "z": null}, "status": {"flags": 135, "velocity_variance": 0.0, "pos_horiz_variance": 0.001664088456891477, "pos_vert_variance": 0.02564648725092411}}, "errors": ["PreArm: Hardware safety switch", "PreArm: Hardware safety switch"]}
{"timestamp": "2026-01-15T13:53:39.991712Z", "telemetry": {"lat": 28.7530059, "lon": 77.1179622, "satellites": 0, "altitude_gps_m": 0.28999999165534973, "groundspeed_mps": 0.010606249794363976}, "flight": {"mode": "STABILIZE", "armed": false}, "ekf": {"attitude": {"roll": 0.021909208968281746, "pitch": 0.00048466864973306656, "yaw": -0.5543298125267029}, "local_position": {"x": null, "y": null, "z": null}, "status": {"flags": 135, "velocity_variance": 0.0, "pos_horiz_variance": 0.002046925248578191, "pos_vert_variance": 0.004654849413782358}}, "errors": ["PreArm: Hardware safety switch", "PreArm: Hardware safety switch"]}
{"timestamp": "2026-01-15T13:53:40.991954Z", "telemetry": {"lat": 28.7530059, "lon": 77.1179622, "satellites": 0, "altitude_gps_m": 0.28999999165534973, "groundspeed_mps": 0.010850920341908932}, "flight": {"mode": "STABILIZE", "armed": false}, "ekf": {"attitude": {"roll": 0.02200845628976822, "pitch": 0.0003474447876214981, "yaw": -0.5543739199638367}, "local_position": {"x": null, "y": null, "z": null}, "status": {"flags": 135, "velocity_variance": 0.0, "pos_horiz_variance": 0.0024251609575003386, "pos_vert_variance": 0.07741979509592056}}, "errors": ["PreArm: Hardware safety switch", "PreArm: Hardware safety switch"]}
{"timestamp": "2026-01-15T13:53:41.991465Z", "telemetry": {"lat": 28.7530059, "lon": 77.1179622, "satellites": 0, "altitude_gps_m": 0.28999999165534973, "groundspeed_mps": 0.009832414798438549}, "flight": {"mode": "STABILIZE", "armed": false}, "ekf": {"attitude": {"roll": 0.02218046598136425, "pitch": 0.00029062479734420776, "yaw": -0.5543960332870483}, "local_position": {"x": null, "y": null, "z": null}, "status": {"flags": 135, "velocity_variance": 0.0, "pos_horiz_variance": 0.00248765223659575, "pos_vert_variance": 0.055969931185245514}}, "errors": ["PreArm: Hardware safety switch", "PreArm: Hardware safety switch"]}
{"timestamp": "2026-01-15T13:53:42.995674Z", "telemetry": {"lat": 28.7530059, "lon": 77.1179622, "satellites": 0, "altitude_gps_m": 0.28999999165534973, "groundspeed_mps": 0.010449559427797794}, "flight": {"mode": "STABILIZE", "armed": false}, "ekf": {"attitude": {"roll": 0.022218821570277214, "pitch": 0.00028188200667500496, "yaw": -0.5544860363006592}, "local_position": {"x": null, "y": null, "z": null}, "status": {"flags": 135, "velocity_variance": 0.0, "pos_horiz_variance": 0.002453146269544959, "pos_vert_variance": 0.03849548101425171}}, "errors": ["PreArm: Hardware safety switch", "PreArm: Hardware safety switch"]}
{"timestamp": "2026-01-15T13:53:43.997215Z", "telemetry": {"lat": 28.7530059, "lon": 77.1179622, "satellites": 0, "altitude_gps_m": 0.28999999165534973, "groundspeed_mps": 0.008635385893285275}, "flight": {"mode": "STABILIZE", "armed": false}, "ekf": {"attitude": {"roll": 0.022074373438954353, "pitch": 0.0004201875999569893, "yaw": -0.5546367764472961}, "local_position": {"x": null, "y": null, "z": null}, "status": {"flags": 135, "velocity_variance": 0.0, "pos_horiz_variance": 0.0023361186031252146, "pos_vert_variance": 0.021139029413461685}}, "errors": ["PreArm: Hardware safety switch", "PreArm: Hardware safety switch"]}
{"timestamp": "2026-01-15T13:53:44.990203Z", "telemetry": {"lat": 28.7530059, "lon": 77.1179622, "satellites": 0, "altitude_gps_m": 0.28999999165534973, "groundspeed_mps": 0.008907637558877468}, "flight": {"mode": "STABILIZE", "armed": false}, "ekf": {"attitude": {"roll": 0.02204054780304432, "pitch": 0.0002610539086163044, "yaw": -0.5546069741249084}, "local_position": {"x": null, "y": null, "z": null}, "status": {"flags": 135, "velocity_variance": 0.0, "pos_horiz_variance": 0.0021676409523934126, "pos_vert_variance": 0.013596826232969761}}, "errors": ["PreArm: Hardware safety switch", "PreArm: Hardware safety switch"]}
{"timestamp": "2026-01-15T13:53:45.995235Z", "telemetry": {"lat": 28.7530059, "lon": 77.1179622, "satellites": 0, "altitude_gps_m": 0.28999999165534973, "groundspeed_mps": 0.011492774821817875}, "flight": {"mode": "STABILIZE", "armed": false}, "ekf": {"attitude": {"roll": 0.022022245451807976, "pitch": 0.0002025463618338108, "yaw": -0.5545912384986877}, "local_position": {"x": null, "y": null, "z": null}, "status": {"flags": 135, "velocity_variance": 0.0, "pos_horiz_variance": 0.0023861820809543133, "pos_vert_variance": 0.012768706306815147}}, "errors": ["PreArm: Hardware safety switch", "PreArm: Hardware safety switch"]}
{"timestamp": "2026-01-15T13:53:46.997945Z", "telemetry": {"lat": 28.7530059, "lon": 77.1179622, "satellites": 0, "altitude_gps_m": 0.28999999165534973, "groundspeed_mps": 0.011541818268597126}, "flight": {"mode": "STABILIZE", "armed": false}, "ekf": {"attitude": {"roll": 0.021913276985287666, "pitch": 0.00012761680409312248, "yaw": -0.5546942949295044}, "local_position": {"x": null, "y": null, "z": null}, "status": {"flags": 135, "velocity_variance": 0.0, "pos_horiz_variance": 0.0028252233751118183, "pos_vert_variance": 0.08262953162193298}}, "errors": ["PreArm: Hardware safety switch", "PreArm: Hardware safety switch"]}
{"timestamp": "2026-01-15T13:53:47.999699Z", "telemetry": {"lat": 28.7530059, "lon": 77.1179622, "satellites": 0, "altitude_gps_m": 0.28999999165534973, "groundspeed_mps": 0.010995200835168362}, "flight": {"mode": "STABILIZE", "armed": false}, "ekf": {"attitude": {"roll": 0.021899830549955368, "pitch": -4.8626214265823364e-05, "yaw": -0.5546899437904358}, "local_position": {"x": null, "y": null, "z": null}, "status": {"flags": 135, "velocity_variance": 0.0, "pos_horiz_variance": 0.0027911195065826178, "pos_vert_variance": 0.013069775886833668}}, "errors": ["PreArm: Hardware safety switch", "PreArm: Hardware safety switch"]}
{"timestamp": "2026-01-15T13:53:48.993426Z", "telemetry": {"lat": 28.7530059, "lon": 77.1179622, "satellites": 0, "altitude_gps_m": 0.28999999165534973, "groundspeed_mps": 0.013687784783542156}, "flight": {"mode": "STABILIZE", "armed": false}, "ekf": {"attitude": {"roll": 0.021950412541627884, "pitch": -2.5443732738494873e-06, "yaw": -0.5546776652336121}, "local_position": {"x": null, "y": null, "z": null}, "status": {"flags": 135, "velocity_variance": 0.0, "pos_horiz_variance": 0.00291840429417789, "pos_vert_variance": 0.07485375553369522}}, "errors": ["PreArm: Hardware safety switch", "PreArm: Hardware safety switch"]}
{"timestamp": "2026-01-15T13:53:50.000816Z", "telemetry": {"lat": 28.7530059, "lon": 77.1179622, "satellites": 0, "altitude_gps_m": 0.28999999165534973, "groundspeed_mps": 0.014413667842745781}, "flight": {"mode": "STABILIZE", "armed": false}, "ekf": {"attitude": {"roll": 0.02207169309258461, "pitch": -0.00011255871504545212, "yaw": -0.554643452167511}, "local_position": {"x": null, "y": null, "z": null}, "status": {"flags": 135, "velocity_variance": 0.0, "pos_horiz_variance": 0.0032707946375012398, "pos_vert_variance": 0.02203628048300743}}, "errors": ["PreArm: Hardware safety switch", "PreArm: Hardware safety switch"]}
{"timestamp": "2026-01-15T13:53:51.003056Z", "telemetry": {"lat": 28.7530059, "lon": 77.1179622, "satellites": 0, "altitude_gps_m": 0.28999999165534973, "groundspeed_mps": 0.01505082193762064}, "flight": {"mode": "STABILIZE", "armed": false}, "ekf": {"attitude": {"roll": 0.02210313268005848, "pitch": -7.900968194007874e-05, "yaw": -0.5546965003013611}, "local_position": {"x": null, "y": null, "z": null}, "status": {"flags": 135, "velocity_variance": 0.0, "pos_horiz_variance": 0.003415564773604274, "pos_vert_variance": 0.015330196358263493}}, "errors": ["PreArm: Hardware safety switch", "PreArm: Hardware safety switch"]}
{"timestamp": "2026-01-15T13:53:51.995437Z", "telemetry": {"lat": 28.7530059, "lon": 77.1179622, "satellites": 0, "altitude_gps_m": 0.28999999165534973, "groundspeed_mps": 0.01634863205254078}, "flight": {"mode": "STABILIZE", "armed": false}, "ekf": {"attitude": {"roll": 0.02202295884490013, "pitch": 1.1975876986980438e-05, "yaw": -0.5547447204589844}, "local_position": {"x": null, "y": null, "z": null}, "status": {"flags": 135, "velocity_variance": 0.0, "pos_horiz_variance": 0.0037063113413751125, "pos_vert_variance": 0.010148720815777779}}, "errors": ["PreArm: Hardware safety switch", "PreArm: Hardware safety switch"]}
{"timestamp": "2026-01-15T13:53:53.004927Z", "telemetry": {"lat": 28.7530059, "lon": 77.1179622, "satellites": 0, "altitude_gps_m": 0.28999999165534973, "groundspeed_mps": 0.017201846465468407}, "flight": {"mode": "STABILIZE", "armed": false}, "ekf": {"attitude": {"roll": 0.022098451852798462, "pitch": 6.0037244111299515e-05, "yaw": -0.5549302101135254}, "local_position": {"x": null, "y": null, "z": null}, "status": {"flags": 135, "velocity_variance": 0.0, "pos_horiz_variance": 0.003995300270617008, "pos_vert_variance": 0.051512669771909714}}, "errors": ["PreArm: Hardware safety switch", "PreArm: Hardware safety switch"]}
{"timestamp": "2026-01-15T13:53:53.969449Z", "telemetry": {"lat": 28.7530059, "lon": 77.1179622, "satellites": 0, "altitude_gps_m": 0.28999999165534973, "groundspeed_mps": 0.01663764752447605}, "flight": {"mode": "STABILIZE", "armed": false}, "ekf": {"attitude": {"roll": 0.022018982097506523, "pitch": 2.1768268197774887e-05, "yaw": -0.554933488368988}, "local_position": {"x": null, "y": null, "z": null}, "status": {"flags": 135, "velocity_variance": 0.0, "pos_horiz_variance": 0.0040137264877557755, "pos_vert_variance": 0.02141246758401394}}, "errors": ["PreArm: Hardware safety switch", "PreArm: Hardware safety switch"]}
{"timestamp": "2026-01-15T13:53:54.971548Z", "telemetry": {"lat": 28.7530059, "lon": 77.1179622, "satellites": 0, "altitude_gps_m": 0.28999999165534973, "groundspeed_mps": 0.01467519998550415}, "flight": {"mode": "STABILIZE", "armed": false}, "ekf": {"attitude": {"roll": 0.021879829466342926, "pitch": -3.060605376958847e-05, "yaw": -0.554897665977478}, "local_position": {"x": null, "y": null, "z": null}, "status": {"flags": 135, "velocity_variance": 0.0, "pos_horiz_variance": 0.0037136005703359842, "pos_vert_variance": 0.029270540922880173}}, "errors": ["PreArm: Hardware safety switch", "PreArm: Hardware safety switch"]}
{"timestamp": "2026-01-15T13:53:55.999045Z", "telemetry": {"lat": 28.7530059, "lon": 77.1179622, "satellites": 0, "altitude_gps_m": 0.28999999165534973, "groundspeed_mps": 0.0153226088732481}, "flight": {"mode": "STABILIZE", "armed": false}, "ekf": {"attitude": {"roll": 0.021865345537662506, "pitch": -6.275298073887825e-05, "yaw": -0.5549009442329407}, "local_position": {"x": null, "y": null, "z": null}, "status": {"flags": 135, "velocity_variance": 0.0, "pos_horiz_variance": 0.0037176564801484346, "pos_vert_variance": 0.002199217677116394}}, "errors": ["PreArm: Hardware safety switch", "PreArm: Hardware safety switch"]}
{"timestamp": "2026-01-15T13:53:56.973688Z", "telemetry": {"lat": 28.7530059, "lon": 77.1179622, "satellites": 0, "altitude_gps_m": 0.28999999165534973, "groundspeed_mps": 0.017344098538160324}, "flight": {"mode": "STABILIZE", "armed": false}, "ekf": {"attitude": {"roll": 0.021841784939169884, "pitch": -0.0001830030232667923, "yaw": -0.5548732280731201}, "local_position": {"x": null, "y": null, "z": null}, "status": {"flags": 135, "velocity_variance": 0.0, "pos_horiz_variance": 0.003719550557434559, "pos_vert_variance": 0.008659214712679386}}, "errors": ["PreArm: Hardware safety switch", "PreArm: Hardware safety switch"]}
{"timestamp": "2026-01-15T13:53:57.998515Z", "telemetry": {"lat": 28.7530059, "lon": 77.1179622, "satellites": 0, "altitude_gps_m": 0.28999999165534973, "groundspeed_mps": 0.01747765578329563}, "flight": {"mode": "STABILIZE", "armed": false}, "ekf": {"attitude": {"roll": 0.021835822612047195, "pitch": -0.00023712730035185814, "yaw": -0.5547723770141602}, "local_position": {"x": null, "y": null, "z": null}, "status": {"flags": 135, "velocity_variance": 0.0, "pos_horiz_variance": 0.0041543468832969666, "pos_vert_variance": 0.009829585440456867}}, "errors": ["PreArm: Hardware safety switch", "PreArm: Hardware safety switch"]}
{"timestamp": "2026-01-15T13:53:59.003319Z", "telemetry": {"lat": 28.7530059, "lon": 77.1179622, "satellites": 0, "altitude_gps_m": 0.28999999165534973, "groundspeed_mps": 0.01747765578329563}, "flight": {"mode": "STABILIZE", "armed": false}, "ekf": {"attitude": {"roll": 0.021835822612047195, "pitch": -0.00023712730035185814, "yaw": -0.5547723770141602}, "local_position": {"x": null, "y": null, "z": null}, "status": {"flags": 135, "velocity_variance": 0.0, "pos_horiz_variance": 0.0041543468832969666, "pos_vert_variance": 0.009829585440456867}}, "errors": ["PreArm: Hardware safety switch", "PreArm: Hardware safety switch"]}
