{"timestamp": "2026-01-15T14:09:11.468662Z", "telemetry": {"lat": 28.7530059, "lon": 77.1179622, "satellites": 0, "altitude_gps_m": 0.28999999165534973, "groundspeed_mps": 0.00482306769117713}, "flight": {"mode": "STABILIZE", "armed": false}, "ekf": {"attitude": {"roll": 0.022952023893594742, "pitch": 0.0018148159142583609, "yaw": -0.5130528807640076}, "local_position": {"x": null, "y": null, "z": null}, "status": {"flags": 135, "velocity_variance": 0.0, "pos_horiz_variance": 0.0009009440545924008, "pos_vert_variance": 0.1389588862657547}}, "errors": []}
{"timestamp": "2026-01-15T14:09:12.510947Z", "telemetry": {"lat": 28.7530059, "lon": 77.1179622, "satellites": 0, "altitude_gps_m": 0.28999999165534973, "groundspeed_mps": 0.005975458305329084}, "flight": {"mode": "STABILIZE", "armed": false}, "ekf": {"attitude": {"roll": 0.02296546660363674, "pitch": 0.0016685295850038528, "yaw": -0.512874960899353}, "local_position": {"x": null, "y": null, "z": null}, "status": {"flags": 135, "velocity_variance": 0.0, "pos_horiz_variance": 0.001135765458457172, "pos_vert_variance": 0.002574903890490532}}, "errors": []}
{"timestamp": "2026-01-15T14:09:13.511344Z", "telemetry": {"lat": 28.7530059, "lon": 77.1179622, "satellites": 0, "altitude_gps_m": 0.28999999165534973, "groundspeed_mps": 0.006935365963727236}, "flight": {"mode": "STABILIZE", "armed": false}, "ekf": {"attitude": {"roll": 0.023205017670989037, "pitch": 0.0019482597708702087, "yaw": -0.5128988027572632}, "local_position": {"x": null, "y": null, "z": null}, "status": {"flags": 135, "velocity_variance": 0.0, "pos_horiz_variance": 0.0010913859587162733, "pos_vert_variance": 0.04634202644228935}}, "errors": []}
{"timestamp": "2026-01-15T14:09:14.511293Z", "telemetry": {"lat": 28.7530059, "lon": 77.1179622, "satellites": 0, "altitude_gps_m": 0.28999999165534973, "groundspeed_mps": 0.005350078456103802}, "flight": {"mode": "STABILIZE", "armed": false}, "ekf": {"attitude": {"roll": 0.023263484239578247, "pitch": 0.002159765688702464, "yaw": -0.5129284858703613}, "local_position": {"x": null, "y": null, "z": null}, "status": {"flags": 135, "velocity_variance": 0.0, "pos_horiz_variance": 0.001383027178235352, "pos_vert_variance": 0.02887251041829586}}, "errors": []}
{"timestamp": "2026-01-15T14:09:15.483339Z", "telemetry": {"lat": 28.7530059, "lon": 77.1179622, "satellites": 0, "altitude_gps_m": 0.28999999165534973, "groundspeed_mps": 0.004214398562908173}, "flight": {"mode": "STABILIZE", "armed": false}, "ekf": {"attitude": {"roll": 0.023206448182463646, "pitch": 0.002067573368549347, "yaw": -0.5124768614768982}, "local_position": {"x": null, "y": null, "z": null}, "status": {"flags": 135, "velocity_variance": 0.0, "pos_horiz_variance": 0.0012762342812493443, "pos_vert_variance": 0.11417655646800995}}, "errors": []}
{"timestamp": "2026-01-15T14:09:16.490333Z", "telemetry": {"lat": 28.7530059, "lon": 77.1179622, "satellites": 0, "altitude_gps_m": 0.28999999165534973, "groundspeed_mps": 0.005677352659404278}, "flight": {"mode": "STABILIZE", "armed": false}, "ekf": {"attitude": {"roll": 0.023411817848682404, "pitch": 0.00238369801081717, "yaw": -0.5123603940010071}, "local_position": {"x": null, "y": null, "z": null}, "status": {"flags": 135, "velocity_variance": 0.0, "pos_horiz_variance": 0.0009279208024963737, "pos_vert_variance": 0.04663888365030289}}, "errors": []}
{"timestamp": "2026-01-15T14:09:17.499548Z", "telemetry": {"lat": 28.7530059, "lon": 77.1179622, "satellites": 0, "altitude_gps_m": 0.28999999165534973, "groundspeed_mps": 0.005196028389036655}, "flight": {"mode": "STABILIZE", "armed": false}, "ekf": {"attitude": {"roll": 0.023463238030672073, "pitch": 0.002142001409083605, "yaw": -0.5123359560966492}, "local_position": {"x": null, "y": null, "z": null}, "status": {"flags": 135, "velocity_variance": 0.0, "pos_horiz_variance": 0.000920178834348917, "pos_vert_variance": 0.060860008001327515}}, "errors": []}
{"timestamp": "2026-01-15T14:09:18.499094Z", "telemetry": {"lat": 28.7530059, "lon": 77.1179622, "satellites": 0, "altitude_gps_m": 0.28999999165534973, "groundspeed_mps": 0.005932109896093607}, "flight": {"mode": "STABILIZE", "armed": false}, "ekf": {"attitude": {"roll": 0.023399941623210907, "pitch": 0.0022543976083397865, "yaw": -0.5126282572746277}, "local_position": {"x": null, "y": null, "z": null}, "status": {"flags": 135, "velocity_variance": 0.0, "pos_horiz_variance": 0.001225125277414918, "pos_vert_variance": 0.0034081509802490473}}, "errors": []}
{"timestamp": "2026-01-15T14:09:19.470880Z", "telemetry": {"lat": 28.7530059, "lon": 77.1179622, "satellites": 0, "altitude_gps_m": 0.28999999165534973, "groundspeed_mps": 0.006228610873222351}, "flight": {"mode": "STABILIZE", "armed": false}, "ekf": {"attitude": {"roll": 0.023499736562371254, "pitch": 0.0021716412156820297, "yaw": -0.5124791860580444}, "local_position": {"x": null, "y": null, "z": null}, "status": {"flags": 135, "velocity_variance": 0.0, "pos_horiz_variance": 0.0014556117821484804, "pos_vert_variance": 0.015943126752972603}}, "errors": []}
{"timestamp": "2026-01-15T14:09:20.474140Z", "telemetry": {"lat": 28.7530059, "lon": 77.1179622, "satellites": 0, "altitude_gps_m": 0.28999999165534973, "groundspeed_mps": 0.007266261149197817}, "flight": {"mode": "STABILIZE", "armed": false}, "ekf": {"attitude": {"roll": 0.023618532344698906, "pitch": 0.0021444016601890326, "yaw": -0.5123077630996704}, "local_position": {"x": null, "y": null, "z": null}, "status": {"flags": 135, "velocity_variance": 0.0, "pos_horiz_variance": 0.001474428572691977, "pos_vert_variance": 0.030706048011779785}}, "errors": []}
{"timestamp": "2026-01-15T14:09:21.503039Z", "telemetry": {"lat": 28.7530059, "lon": 77.1179622, "satellites": 0, "altitude_gps_m": 0.28999999165534973, "groundspeed_mps": 0.009917502291500568}, "flight": {"mode": "STABILIZE", "armed": false}, "ekf": {"attitude": {"roll": 0.023549644276499748, "pitch": 0.0022150580771267414, "yaw": -0.5123708248138428}, "local_position": {"x": null, "y": null, "z": null}, "status": {"flags": 135, "velocity_variance": 0.0, "pos_horiz_variance": 0.0017932286718860269, "pos_vert_variance": 0.016981355845928192}}, "errors": []}
{"timestamp": "2026-01-15T14:09:22.502853Z", "telemetry": {"lat": 28.7530059, "lon": 77.1179622, "satellites": 0, "altitude_gps_m": 0.28999999165534973, "groundspeed_mps": 0.0066779861226677895}, "flight": {"mode": "STABILIZE", "armed": false}, "ekf": {"attitude": {"roll": 0.02330789528787136, "pitch": 0.002433760790154338, "yaw": -0.5121924877166748}, "local_position": {"x": null, "y": null, "z": null}, "status": {"flags": 135, "velocity_variance": 0.0, "pos_horiz_variance": 0.0020307565573602915, "pos_vert_variance": 0.012047620490193367}}, "errors": []}
{"timestamp": "2026-01-15T14:09:23.502963Z", "telemetry": {"lat": 28.7530059, "lon": 77.1179622, "satellites": 0, "altitude_gps_m": 0.28999999165534973, "groundspeed_mps": 0.005827413406223059}, "flight": {"mode": "STABILIZE", "armed": false}, "ekf": {"attitude": {"roll": 0.0231874268501997, "pitch": 0.0024320802185684443, "yaw": -0.5124459862709045}, "local_position": {"x": null, "y": null, "z": null}, "status": {"flags": 135, "velocity_variance": 0.0, "pos_horiz_variance": 0.0016746276523917913, "pos_vert_variance": 0.04063187167048454}}, "errors": []}
{"timestamp": "2026-01-15T14:09:24.506740Z", "telemetry": {"lat": 28.7530059, "lon": 77.1179622, "satellites": 0, "altitude_gps_m": 0.28999999165534973, "groundspeed_mps": 0.0037856977432966232}, "flight": {"mode": "STABILIZE", "armed": false}, "ekf": {"attitude": {"roll": 0.023153720423579216, "pitch": 0.002547572134062648, "yaw": -0.5123811960220337}, "local_position": {"x": null, "y": null, "z": null}, "status": {"flags": 135, "velocity_variance": 0.0, "pos_horiz_variance": 0.0013051677960902452, "pos_vert_variance": 0.010331660509109497}}, "errors": []}
{"timestamp": "2026-01-15T14:09:25.506970Z", "telemetry": {"lat": 28.7530059, "lon": 77.1179622, "satellites": 0, "altitude_gps_m": 0.28999999165534973, "groundspeed_mps": 0.0013677052920684218}, "flight": {"mode": "STABILIZE", "armed": false}, "ekf": {"attitude": {"roll": 0.022902164608240128, "pitch": 0.0021010383497923613, "yaw": -0.5120313167572021}, "local_position": {"x": null, "y": null, "z": null}, "status": {"flags": 135, "velocity_variance": 0.0, "pos_horiz_variance": 0.0005562091246247292, "pos_vert_variance": 0.03510056808590889}}, "errors": []}
{"timestamp": "2026-01-15T14:09:26.475925Z", "telemetry": {"lat": 28.7530059, "lon": 77.1179622, "satellites": 0, "altitude_gps_m": 0.28999999165534973, "groundspeed_mps": 0.004276881460100412}, "flight": {"mode": "STABILIZE", "armed": false}, "ekf": {"attitude": {"roll": 0.022704098373651505, "pitch": 0.0016608219593763351, "yaw": -0.5119130611419678}, "local_position": {"x": null, "y": null, "z": null}, "status": {"flags": 135, "velocity_variance": 0.0, "pos_horiz_variance": 0.0003046467318199575, "pos_vert_variance": 0.1135387048125267}}, "errors": []}
{"timestamp": "2026-01-15T14:09:27.484195Z", "telemetry": {"lat": 28.7530059, "lon": 77.1179622, "satellites": 0, "altitude_gps_m": 0.28999999165534973, "groundspeed_mps": 0.006803413853049278}, "flight": {"mode": "STABILIZE", "armed": false}, "ekf": {"attitude": {"roll": 0.022806746885180473, "pitch": 0.001758707221597433, "yaw": -0.511826753616333}, "local_position": {"x": null, "y": null, "z": null}, "status": {"flags": 135, "velocity_variance": 0.0, "pos_horiz_variance": 0.0008311171550303698, "pos_vert_variance": 0.04412757232785225}}, "errors": []}
{"timestamp": "2026-01-15T14:09:28.483321Z", "telemetry": {"lat": 28.7530059, "lon": 77.1179622, "satellites": 0, "altitude_gps_m": 0.28999999165534973, "groundspeed_mps": 0.00469783553853631}, "flight": {"mode": "STABILIZE", "armed": false}, "ekf": {"attitude": {"roll": 0.02288353256881237, "pitch": 0.001614843960851431, "yaw": -0.5117087364196777}, "local_position": {"x": null, "y": null, "z": null}, "status": {"flags": 135, "velocity_variance": 0.0, "pos_horiz_variance": 0.0012752828188240528, "pos_vert_variance": 0.12456552684307098}}, "errors": []}
{"timestamp": "2026-01-15T14:09:29.488507Z", "telemetry": {"lat": 28.7530059, "lon": 77.1179622, "satellites": 0, "altitude_gps_m": 0.28999999165534973, "groundspeed_mps": 0.004798020701855421}, "flight": {"mode": "STABILIZE", "armed": false}, "ekf": {"attitude": {"roll": 0.022830765694379807, "pitch": 0.0016253802459686995, "yaw": -0.511652410030365}, "local_position": {"x": null, "y": null, "z": null}, "status": {"flags": 135, "velocity_variance": 0.0, "pos_horiz_variance": 0.0011427283752709627, "pos_vert_variance": 0.07214483618736267}}, "errors": []}
{"timestamp": "2026-01-15T14:09:30.510800Z", "telemetry": {"lat": 28.7530059, "lon": 77.1179622, "satellites": 0, "altitude_gps_m": 0.28999999165534973, "groundspeed_mps": 0.0009092678665183485}, "flight": {"mode": "STABILIZE", "armed": false}, "ekf": {"attitude": {"roll": 0.022786755114793777, "pitch": 0.0016102662775665522, "yaw": -0.5115382075309753}, "local_position": {"x": null, "y": null, "z": null}, "status": {"flags": 135, "velocity_variance": 0.0, "pos_horiz_variance": 0.0009328329470008612, "pos_vert_variance": 0.03536080941557884}}, "errors": []}
{"timestamp": "2026-01-15T14:09:31.510787Z", "telemetry": {"lat": 28.7530059, "lon": 77.1179622, "satellites": 0, "altitude_gps_m": 0.28999999165534973, "groundspeed_mps": 0.009329000487923622}, "flight": {"mode": "STABILIZE", "armed": false}, "ekf": {"attitude": {"roll": 0.022821474820375443, "pitch": 0.0014845018740743399, "yaw": -0.5114778876304626}, "local_position": {"x": null, "y": null, "z": null}, "status": {"flags": 135, "velocity_variance": 0.0, "pos_horiz_variance": 0.0009635640890337527, "pos_vert_variance": 0.009489954449236393}}, "errors": ["PreArm: Hardware safety switch", "PreArm: Battery 1 low voltage failsafe"]}
{"timestamp": "2026-01-15T14:09:32.515081Z", "telemetry": {"lat": 28.7530059, "lon": 77.1179622, "satellites": 0, "altitude_gps_m": 0.28999999165534973, "groundspeed_mps": 0.006258353590965271}, "flight": {"mode": "STABILIZE", "armed": false}, "ekf": {"attitude": {"roll": 0.02280442975461483, "pitch": 0.0015280316583812237, "yaw": -0.5113208293914795}, "local_position": {"x": null, "y": null, "z": null}, "status": {"flags": 135, "velocity_variance": 0.0, "pos_horiz_variance": 0.001357054221443832, "pos_vert_variance": 0.013458340428769588}}, "errors": ["PreArm: Hardware safety switch", "PreArm: Battery 1 low voltage failsafe"]}
{"timestamp": "2026-01-15T14:09:33.490256Z", "telemetry": {"lat": 28.7530059, "lon": 77.1179622, "satellites": 0, "altitude_gps_m": 0.28999999165534973, "groundspeed_mps": 0.008098725229501724}, "flight": {"mode": "STABILIZE", "armed": false}, "ekf": {"attitude": {"roll": 0.02284039743244648, "pitch": 0.0012610536068677902, "yaw": -0.5113524794578552}, "local_position": {"x": null, "y": null, "z": null}, "status": {"flags": 135, "velocity_variance": 0.0, "pos_horiz_variance": 0.0014746454544365406, "pos_vert_variance": 0.03266787528991699}}, "errors": ["PreArm: Hardware safety switch", "PreArm: Battery 1 low voltage failsafe"]}
{"timestamp": "2026-01-15T14:09:34.490562Z", "telemetry": {"lat": 28.7530059, "lon": 77.1179622, "satellites": 0, "altitude_gps_m": 0.28999999165534973, "groundspeed_mps": 0.012516293674707413}, "flight": {"mode": "STABILIZE", "armed": false}, "ekf": {"attitude": {"roll": 0.02295759879052639, "pitch": 0.0013558648061007261, "yaw": -0.5112662315368652}, "local_position": {"x": null, "y": null, "z": null}, "status": {"flags": 135, "velocity_variance": 0.0, "pos_horiz_variance": 0.001878119190223515, "pos_vert_variance": 0.04360868036746979}}, "errors": ["PreArm: Hardware safety switch", "PreArm: Battery 1 low voltage failsafe"]}
{"timestamp": "2026-01-15T14:09:35.492317Z", "telemetry": {"lat": 28.7530059, "lon": 77.1179622, "satellites": 0, "altitude_gps_m": 0.28999999165534973, "groundspeed_mps": 0.013199040666222572}, "flight": {"mode": "STABILIZE", "armed": false}, "ekf": {"attitude": {"roll": 0.023083245381712914, "pitch": 0.0013757983688265085, "yaw": -0.5112248659133911}, "local_position": {"x": null, "y": null, "z": null}, "status": {"flags": 135, "velocity_variance": 0.0, "pos_horiz_variance": 0.0024580557364970446, "pos_vert_variance": 0.0577048622071743}}, "errors": ["PreArm: Hardware safety switch", "PreArm: Battery 1 low voltage failsafe"]}
{"timestamp": "2026-01-15T14:09:36.493482Z", "telemetry": {"lat": 28.7530059, "lon": 77.1179622, "satellites": 0, "altitude_gps_m": 0.28999999165534973, "groundspeed_mps": 0.01120856124907732}, "flight": {"mode": "STABILIZE", "armed": false}, "ekf": {"attitude": {"roll": 0.0230296291410923, "pitch": 0.0014040546957403421, "yaw": -0.5112345814704895}, "local_position": {"x": null, "y": null, "z": null}, "status": {"flags": 135, "velocity_variance": 0.0, "pos_horiz_variance": 0.002754182554781437, "pos_vert_variance": 0.06326141208410263}}, "errors": ["PreArm: Hardware safety switch", "PreArm: Battery 1 low voltage failsafe"]}
{"timestamp": "2026-01-15T14:09:37.475226Z", "telemetry": {"lat": 28.7530059, "lon": 77.1179622, "satellites": 0, "altitude_gps_m": 0.28999999165534973, "groundspeed_mps": 0.009259025566279888}, "flight": {"mode": "STABILIZE", "armed": false}, "ekf": {"attitude": {"roll": 0.02300359681248665, "pitch": 0.0015208381228148937, "yaw": -0.5112621784210205}, "local_position": {"x": null, "y": null, "z": null}, "status": {"flags": 135, "velocity_variance": 0.0, "pos_horiz_variance": 0.0025027780793607235, "pos_vert_variance": 0.10913413763046265}}, "errors": ["PreArm: Hardware safety switch", "PreArm: Battery 1 low voltage failsafe"]}
{"timestamp": "2026-01-15T14:09:38.495384Z", "telemetry": {"lat": 28.7530059, "lon": 77.1179622, "satellites": 0, "altitude_gps_m": 0.28999999165534973, "groundspeed_mps": 0.006899771746248007}, "flight": {"mode": "STABILIZE", "armed": false}, "ekf": {"attitude": {"roll": 0.022839291021227837, "pitch": 0.0016452849376946688, "yaw": -0.5111964344978333}, "local_position": {"x": null, "y": null, "z": null}, "status": {"flags": 135, "velocity_variance": 0.0, "pos_horiz_variance": 0.0022193524055182934, "pos_vert_variance": 0.0027620545588433743}}, "errors": ["PreArm: Hardware safety switch", "PreArm: Battery 1 low voltage failsafe"]}
{"timestamp": "2026-01-15T14:09:39.495022Z", "telemetry": {"lat": 28.7530059, "lon": 77.1179622, "satellites": 0, "altitude_gps_m": 0.28999999165534973, "groundspeed_mps": 0.005742934066802263}, "flight": {"mode": "STABILIZE", "armed": false}, "ekf": {"attitude": {"roll": 0.022760137915611267, "pitch": 0.0017113788053393364, "yaw": -0.5111316442489624}, "local_position": {"x": null, "y": null, "z": null}, "status": {"flags": 135, "velocity_variance": 0.0, "pos_horiz_variance": 0.0019441298209130764, "pos_vert_variance": 0.0338575579226017}}, "errors": ["PreArm: Hardware safety switch", "PreArm: Battery 1 low voltage failsafe"]}
{"timestamp": "2026-01-15T14:09:40.491197Z", "telemetry": {"lat": 28.7530059, "lon": 77.1179622, "satellites": 0, "altitude_gps_m": 0.28999999165534973, "groundspeed_mps": 0.003985143732279539}, "flight": {"mode": "STABILIZE", "armed": false}, "ekf": {"attitude": {"roll": 0.02268875017762184, "pitch": 0.0018903880845755339, "yaw": -0.5111922025680542}, "local_position": {"x": null, "y": null, "z": null}, "status": {"flags": 135, "velocity_variance": 0.0, "pos_horiz_variance": 0.001339317881502211, "pos_vert_variance": 0.05393902212381363}}, "errors": ["PreArm: Hardware safety switch", "PreArm: Battery 1 low voltage failsafe"]}
{"timestamp": "2026-01-15T14:09:41.499773Z", "telemetry": {"lat": 28.7530059, "lon": 77.1179622, "satellites": 0, "altitude_gps_m": 0.28999999165534973, "groundspeed_mps": 0.0030718736816197634}, "flight": {"mode": "STABILIZE", "armed": false}, "ekf": {"attitude": {"roll": 0.022644950076937675, "pitch": 0.0018492655362933874, "yaw": -0.5111809968948364}, "local_position": {"x": null, "y": null, "z": null}, "status": {"flags": 135, "velocity_variance": 0.0, "pos_horiz_variance": 0.001339317881502211, "pos_vert_variance": 0.05393902212381363}}, "errors": ["PreArm: Hardware safety switch", "PreArm: Battery 1 low voltage failsafe"]}
