{"timestamp": "2025-12-27T10:17:26.303247Z", "telemetry": {"lat": 28.7531578, "lon": 77.1177107, "satellites": 9, "altitude_gps_m": 203.87998962402344, "groundspeed_mps": 0.006827764678746462}, "flight": {"mode": "STABILIZE", "armed": false}, "ekf": {"attitude": {"roll": 0.05105159059166908, "pitch": 0.005478074308484793, "yaw": 1.16702401638031}, "local_position": {"x": null, "y": null, "z": null}, "status": {"flags": 135, "velocity_variance": 0.0, "pos_horiz_variance": 0.001563051249831915, "pos_vert_variance": 0.02744179219007492}}, "errors": []}
{"timestamp": "2025-12-27T10:17:27.299696Z", "telemetry": {"lat": 28.753163, "lon": 77.1177024, "satellites": 10, "altitude_gps_m": 205.1999969482422, "groundspeed_mps": 0.004848914686590433}, "flight": {"mode": "STABILIZE", "armed": false}, "ekf": {"attitude": {"roll": 0.05100327730178833, "pitch": 0.005598223768174648, "yaw": 1.16693115234375}, "local_position": {"x": null, "y": null, "z": null}, "status": {"flags": 135, "velocity_variance": 0.0, "pos_horiz_variance": 0.001517384429462254, "pos_vert_variance": 0.002156318398192525}}, "errors": []}
{"timestamp": "2025-12-27T10:17:28.298714Z", "telemetry": {"lat": 28.7531705, "lon": 77.117699, "satellites": 10, "altitude_gps_m": 205.6999969482422, "groundspeed_mps": 0.0016563208773732185}, "flight": {"mode": "STABILIZE", "armed": false}, "ekf": {"attitude": {"roll": 0.051031313836574554, "pitch": 0.005452169105410576, "yaw": 1.1668281555175781}, "local_position": {"x": null, "y": null, "z": null}, "status": {"flags": 135, "velocity_variance": 0.0, "pos_horiz_variance": 0.0012011630460619926, "pos_vert_variance": 0.032945044338703156}}, "errors": []}
{"timestamp": "2025-12-27T10:17:29.298742Z", "telemetry": {"lat": 28.7531754, "lon": 77.1176912, "satellites": 10, "altitude_gps_m": 207.19000244140625, "groundspeed_mps": 0.002876237267628312}, "flight": {"mode": "STABILIZE", "armed": false}, "ekf": {"attitude": {"roll": 0.051755063235759735, "pitch": 0.004018251784145832, "yaw": 1.1670979261398315}, "local_position": {"x": null, "y": null, "z": null}, "status": {"flags": 135, "velocity_variance": 0.0, "pos_horiz_variance": 0.0007103047100827098, "pos_vert_variance": 0.02617821656167507}}, "errors": []}
{"timestamp": "2025-12-27T10:17:30.298937Z", "telemetry": {"lat": 28.7531785, "lon": 77.1176845, "satellites": 10, "altitude_gps_m": 208.34999084472656, "groundspeed_mps": 0.0031505743972957134}, "flight": {"mode": "STABILIZE", "armed": false}, "ekf": {"attitude": {"roll": 0.05200708284974098, "pitch": 0.003897381480783224, "yaw": 1.1672414541244507}, "local_position": {"x": null, "y": null, "z": null}, "status": {"flags": 135, "velocity_variance": 0.0, "pos_horiz_variance": 0.0002582371234893799, "pos_vert_variance": 0.06292085349559784}}, "errors": []}
{"timestamp": "2025-12-27T10:17:31.299098Z", "telemetry": {"lat": 28.7531789, "lon": 77.1176722, "satellites": 10, "altitude_gps_m": 210.52999877929688, "groundspeed_mps": 0.0029268183279782534}, "flight": {"mode": "STABILIZE", "armed": false}, "ekf": {"attitude": {"roll": 0.05200888589024544, "pitch": 0.003709639422595501, "yaw": 1.1672701835632324}, "local_position": {"x": null, "y": null, "z": null}, "status": {"flags": 135, "velocity_variance": 0.0, "pos_horiz_variance": 0.00019207449804525822, "pos_vert_variance": 0.020104538649320602}}, "errors": []}
{"timestamp": "2025-12-27T10:17:32.300487Z", "telemetry": {"lat": 28.7531843, "lon": 77.1176681, "satellites": 10, "altitude_gps_m": 211.22000122070312, "groundspeed_mps": 0.0025895140133798122}, "flight": {"mode": "STABILIZE", "armed": false}, "ekf": {"attitude": {"roll": 0.05205592140555382, "pitch": 0.0035810673143714666, "yaw": 1.167244791984558}, "local_position": {"x": null, "y": null, "z": null}, "status": {"flags": 135, "velocity_variance": 0.0, "pos_horiz_variance": 0.00015628118126187474, "pos_vert_variance": 0.047116469591856}}, "errors": []}
{"timestamp": "2025-12-27T10:17:33.298811Z", "telemetry": {"lat": 28.7531884, "lon": 77.1176593, "satellites": 10, "altitude_gps_m": 212.6699981689453, "groundspeed_mps": 0.006608661264181137}, "flight": {"mode": "STABILIZE", "armed": false}, "ekf": {"attitude": {"roll": 0.05206194892525673, "pitch": 0.003669462166726589, "yaw": 1.167243480682373}, "local_position": {"x": null, "y": null, "z": null}, "status": {"flags": 135, "velocity_variance": 0.0, "pos_horiz_variance": 0.0006979834288358688, "pos_vert_variance": 0.037465665489435196}}, "errors": []}
{"timestamp": "2025-12-27T10:17:34.299963Z", "telemetry": {"lat": 28.7531917, "lon": 77.117653, "satellites": 10, "altitude_gps_m": 213.44000244140625, "groundspeed_mps": 0.008075899444520473}, "flight": {"mode": "STABILIZE", "armed": false}, "ekf": {"attitude": {"roll": 0.052039679139852524, "pitch": 0.00372048607096076, "yaw": 1.1670112609863281}, "local_position": {"x": null, "y": null, "z": null}, "status": {"flags": 135, "velocity_variance": 0.0, "pos_horiz_variance": 0.0015260400250554085, "pos_vert_variance": 0.05421232804656029}}, "errors": ["PreArm: Hardware safety switch"]}
{"timestamp": "2025-12-27T10:17:35.298320Z", "telemetry": {"lat": 28.7531956, "lon": 77.1176556, "satellites": 10, "altitude_gps_m": 212.75, "groundspeed_mps": 0.009414791129529476}, "flight": {"mode": "STABILIZE", "armed": false}, "ekf": {"attitude": {"roll": 0.051933806389570236, "pitch": 0.0036950227804481983, "yaw": 1.1670132875442505}, "local_position": {"x": null, "y": null, "z": null}, "status": {"flags": 135, "velocity_variance": 0.0, "pos_horiz_variance": 0.002067781751975417, "pos_vert_variance": 0.041448794305324554}}, "errors": ["PreArm: Hardware safety switch"]}
{"timestamp": "2025-12-27T10:17:36.298451Z", "telemetry": {"lat": 28.7531995, "lon": 77.1176536, "satellites": 10, "altitude_gps_m": 212.72000122070312, "groundspeed_mps": 0.009276067838072777}, "flight": {"mode": "STABILIZE", "armed": false}, "ekf": {"attitude": {"roll": 0.05196002870798111, "pitch": 0.003732834942638874, "yaw": 1.16707181930542}, "local_position": {"x": null, "y": null, "z": null}, "status": {"flags": 135, "velocity_variance": 0.0, "pos_horiz_variance": 0.0023549930192530155, "pos_vert_variance": 0.006828909739851952}}, "errors": ["PreArm: Hardware safety switch"]}
{"timestamp": "2025-12-27T10:17:37.301538Z", "telemetry": {"lat": 28.7532068, "lon": 77.1176603, "satellites": 10, "altitude_gps_m": 211.26998901367188, "groundspeed_mps": 0.005975286941975355}, "flight": {"mode": "STABILIZE", "armed": false}, "ekf": {"attitude": {"roll": 0.05207841470837593, "pitch": 0.003595164977014065, "yaw": 1.1670904159545898}, "local_position": {"x": null, "y": null, "z": null}, "status": {"flags": 135, "velocity_variance": 0.0, "pos_horiz_variance": 0.0022085304372012615, "pos_vert_variance": 0.04774683713912964}}, "errors": ["PreArm: Hardware safety switch"]}
{"timestamp": "2025-12-27T10:17:38.298348Z", "telemetry": {"lat": 28.7532127, "lon": 77.1176645, "satellites": 10, "altitude_gps_m": 210.52999877929688, "groundspeed_mps": 0.0066488622687757015}, "flight": {"mode": "STABILIZE", "armed": false}, "ekf": {"attitude": {"roll": 0.05208650231361389, "pitch": 0.0035397554747760296, "yaw": 1.1667760610580444}, "local_position": {"x": null, "y": null, "z": null}, "status": {"flags": 135, "velocity_variance": 0.0, "pos_horiz_variance": 0.001975314924493432, "pos_vert_variance": 0.02115027979016304}}, "errors": ["PreArm: Hardware safety switch"]}
{"timestamp": "2025-12-27T10:17:39.299429Z", "telemetry": {"lat": 28.7532202, "lon": 77.117673, "satellites": 10, "altitude_gps_m": 209.42999267578125, "groundspeed_mps": 0.007113147526979446}, "flight": {"mode": "STABILIZE", "armed": false}, "ekf": {"attitude": {"roll": 0.052126407623291016, "pitch": 0.003595073241740465, "yaw": 1.166597604751587}, "local_position": {"x": null, "y": null, "z": null}, "status": {"flags": 135, "velocity_variance": 0.0, "pos_horiz_variance": 0.002001206623390317, "pos_vert_variance": 0.01234219130128622}}, "errors": ["PreArm: Hardware safety switch"]}
{"timestamp": "2025-12-27T10:17:40.298666Z", "telemetry": {"lat": 28.7532313, "lon": 77.1176741, "satellites": 10, "altitude_gps_m": 208.9499969482422, "groundspeed_mps": 0.005981509108096361}, "flight": {"mode": "STABILIZE", "armed": false}, "ekf": {"attitude": {"roll": 0.05223826691508293, "pitch": 0.00361682940274477, "yaw": 1.1666098833084106}, "local_position": {"x": null, "y": null, "z": null}, "status": {"flags": 135, "velocity_variance": 0.0, "pos_horiz_variance": 0.001823380938731134, "pos_vert_variance": 0.00925847701728344}}, "errors": ["PreArm: Hardware safety switch"]}
{"timestamp": "2025-12-27T10:17:41.298518Z", "telemetry": {"lat": 28.7532345, "lon": 77.1176746, "satellites": 10, "altitude_gps_m": 208.34999084472656, "groundspeed_mps": 0.008098316378891468}, "flight": {"mode": "STABILIZE", "armed": false}, "ekf": {"attitude": {"roll": 0.0524362176656723, "pitch": 0.0034983742516487837, "yaw": 1.1666187047958374}, "local_position": {"x": null, "y": null, "z": null}, "status": {"flags": 135, "velocity_variance": 0.0, "pos_horiz_variance": 0.0019309667404741049, "pos_vert_variance": 0.030690811574459076}}, "errors": ["PreArm: Hardware safety switch"]}
{"timestamp": "2025-12-27T10:17:42.298445Z", "telemetry": {"lat": 28.7532372, "lon": 77.1176757, "satellites": 10, "altitude_gps_m": 208.17999267578125, "groundspeed_mps": 0.010970273986458778}, "flight": {"mode": "STABILIZE", "armed": false}, "ekf": {"attitude": {"roll": 0.05243673920631409, "pitch": 0.0034036398865282536, "yaw": 1.1665438413619995}, "local_position": {"x": null, "y": null, "z": null}, "status": {"flags": 135, "velocity_variance": 0.0, "pos_horiz_variance": 0.002466783858835697, "pos_vert_variance": 0.0038920617662370205}}, "errors": ["PreArm: Hardware safety switch"]}
{"timestamp": "2025-12-27T10:17:43.298252Z", "telemetry": {"lat": 28.7532404, "lon": 77.11768, "satellites": 10, "altitude_gps_m": 206.67999267578125, "groundspeed_mps": 0.010871028527617455}, "flight": {"mode": "STABILIZE", "armed": false}, "ekf": {"attitude": {"roll": 0.05236879363656044, "pitch": 0.003501106286421418, "yaw": 1.166272521018982}, "local_position": {"x": null, "y": null, "z": null}, "status": {"flags": 135, "velocity_variance": 0.0, "pos_horiz_variance": 0.0026605960447341204, "pos_vert_variance": 0.022894805297255516}}, "errors": ["PreArm: Hardware safety switch"]}
{"timestamp": "2025-12-27T10:17:44.298209Z", "telemetry": {"lat": 28.753242, "lon": 77.1176846, "satellites": 10, "altitude_gps_m": 205.5, "groundspeed_mps": 0.01343729067593813}, "flight": {"mode": "STABILIZE", "armed": false}, "ekf": {"attitude": {"roll": 0.05213483050465584, "pitch": 0.0037320663686841726, "yaw": 1.1662147045135498}, "local_position": {"x": null, "y": null, "z": null}, "status": {"flags": 135, "velocity_variance": 0.0, "pos_horiz_variance": 0.0029089609161019325, "pos_vert_variance": 0.022776443511247635}}, "errors": ["PreArm: Hardware safety switch"]}
{"timestamp": "2025-12-27T10:17:45.298249Z", "telemetry": {"lat": 28.753246, "lon": 77.1176872, "satellites": 10, "altitude_gps_m": 205.14999389648438, "groundspeed_mps": 0.012691582553088665}, "flight": {"mode": "STABILIZE", "armed": false}, "ekf": {"attitude": {"roll": 0.05166711285710335, "pitch": 0.0050748116336762905, "yaw": 1.1657934188842773}, "local_position": {"x": null, "y": null, "z": null}, "status": {"flags": 135, "velocity_variance": 0.0, "pos_horiz_variance": 0.003461910178884864, "pos_vert_variance": 0.04042152315378189}}, "errors": ["PreArm: Hardware safety switch"]}
{"timestamp": "2025-12-27T10:17:46.304467Z", "telemetry": {"lat": 28.7532443, "lon": 77.1176789, "satellites": 10, "altitude_gps_m": 206.7899932861328, "groundspeed_mps": 0.012211456894874573}, "flight": {"mode": "STABILIZE", "armed": false}, "ekf": {"attitude": {"roll": 0.05195006728172302, "pitch": 0.004244539886713028, "yaw": 1.1659760475158691}, "local_position": {"x": null, "y": null, "z": null}, "status": {"flags": 135, "velocity_variance": 0.0, "pos_horiz_variance": 0.0034816747065633535, "pos_vert_variance": 0.04002545028924942}}, "errors": ["PreArm: Hardware safety switch"]}
{"timestamp": "2025-12-27T10:17:47.301266Z", "telemetry": {"lat": 28.7532328, "lon": 77.1176535, "satellites": 10, "altitude_gps_m": 210.69000244140625, "groundspeed_mps": 0.009218718856573105}, "flight": {"mode": "STABILIZE", "armed": false}, "ekf": {"attitude": {"roll": 0.051903609186410904, "pitch": 0.004163769539445639, "yaw": 1.1662428379058838}, "local_position": {"x": null, "y": null, "z": null}, "status": {"flags": 135, "velocity_variance": 0.0, "pos_horiz_variance": 0.0031510191038250923, "pos_vert_variance": 0.009528342634439468}}, "errors": ["PreArm: Hardware safety switch"]}
{"timestamp": "2025-12-27T10:17:48.300474Z", "telemetry": {"lat": 28.7532262, "lon": 77.1176349, "satellites": 9, "altitude_gps_m": 213.22000122070312, "groundspeed_mps": 0.008395172655582428}, "flight": {"mode": "STABILIZE", "armed": false}, "ekf": {"attitude": {"roll": 0.05203213542699814, "pitch": 0.0038954373449087143, "yaw": 1.1663873195648193}, "local_position": {"x": null, "y": null, "z": null}, "status": {"flags": 135, "velocity_variance": 0.0, "pos_horiz_variance": 0.002865958260372281, "pos_vert_variance": 0.08219315856695175}}, "errors": ["PreArm: Hardware safety switch"]}
{"timestamp": "2025-12-27T10:17:49.298432Z", "telemetry": {"lat": 28.7532241, "lon": 77.1176238, "satellites": 8, "altitude_gps_m": 215.13999938964844, "groundspeed_mps": 0.0076374756172299385}, "flight": {"mode": "STABILIZE", "armed": false}, "ekf": {"attitude": {"roll": 0.05220355466008186, "pitch": 0.003821619786322117, "yaw": 1.1666640043258667}, "local_position": {"x": null, "y": null, "z": null}, "status": {"flags": 135, "velocity_variance": 0.0, "pos_horiz_variance": 0.0026661711744964123, "pos_vert_variance": 0.038203660398721695}}, "errors": ["PreArm: Hardware safety switch"]}
{"timestamp": "2025-12-27T10:17:50.299032Z", "telemetry": {"lat": 28.7532214, "lon": 77.1176151, "satellites": 8, "altitude_gps_m": 216.5800018310547, "groundspeed_mps": 0.007302581332623959}, "flight": {"mode": "STABILIZE", "armed": false}, "ekf": {"attitude": {"roll": 0.05209947004914284, "pitch": 0.003911808133125305, "yaw": 1.1665735244750977}, "local_position": {"x": null, "y": null, "z": null}, "status": {"flags": 135, "velocity_variance": 0.0, "pos_horiz_variance": 0.0025590737350285053, "pos_vert_variance": 0.06664040684700012}}, "errors": ["PreArm: Hardware safety switch"]}
{"timestamp": "2025-12-27T10:17:51.298798Z", "telemetry": {"lat": 28.7532167, "lon": 77.1176017, "satellites": 8, "altitude_gps_m": 218.739990234375, "groundspeed_mps": 0.007381098810583353}, "flight": {"mode": "STABILIZE", "armed": false}, "ekf": {"attitude": {"roll": 0.05221402272582054, "pitch": 0.003839324228465557, "yaw": 1.166513204574585}, "local_position": {"x": null, "y": null, "z": null}, "status": {"flags": 135, "velocity_variance": 0.0, "pos_horiz_variance": 0.0023677984718233347, "pos_vert_variance": 0.0416097417473793}}, "errors": ["PreArm: Hardware safety switch"]}
{"timestamp": "2025-12-27T10:17:52.298375Z", "telemetry": {"lat": 28.7532133, "lon": 77.1175909, "satellites": 8, "altitude_gps_m": 220.27999877929688, "groundspeed_mps": 0.009546692483127117}, "flight": {"mode": "STABILIZE", "armed": false}, "ekf": {"attitude": {"roll": 0.05223061144351959, "pitch": 0.003957010339945555, "yaw": 1.1665167808532715}, "local_position": {"x": null, "y": null, "z": null}, "status": {"flags": 135, "velocity_variance": 0.0, "pos_horiz_variance": 0.002474207663908601, "pos_vert_variance": 0.03487211465835571}}, "errors": ["PreArm: Hardware safety switch"]}
{"timestamp": "2025-12-27T10:17:53.298858Z", "telemetry": {"lat": 28.7532107, "lon": 77.1175849, "satellites": 8, "altitude_gps_m": 221.37998962402344, "groundspeed_mps": 0.012836326844990253}, "flight": {"mode": "STABILIZE", "armed": false}, "ekf": {"attitude": {"roll": 0.05209662765264511, "pitch": 0.004001724533736706, "yaw": 1.166412115097046}, "local_position": {"x": null, "y": null, "z": null}, "status": {"flags": 135, "velocity_variance": 0.0, "pos_horiz_variance": 0.0029467411804944277, "pos_vert_variance": 0.107623390853405}}, "errors": ["PreArm: Hardware safety switch"]}
{"timestamp": "2025-12-27T10:17:54.299112Z", "telemetry": {"lat": 28.7532094, "lon": 77.1175764, "satellites": 8, "altitude_gps_m": 223.1199951171875, "groundspeed_mps": 0.012141874991357327}, "flight": {"mode": "STABILIZE", "armed": false}, "ekf": {"attitude": {"roll": 0.05186398699879646, "pitch": 0.00414830818772316, "yaw": 1.1662325859069824}, "local_position": {"x": null, "y": null, "z": null}, "status": {"flags": 135, "velocity_variance": 0.0, "pos_horiz_variance": 0.003380510024726391, "pos_vert_variance": 0.014522045850753784}}, "errors": ["PreArm: Hardware safety switch"]}
{"timestamp": "2025-12-27T10:17:55.298182Z", "telemetry": {"lat": 28.7532055, "lon": 77.1175595, "satellites": 8, "altitude_gps_m": 226.1599884033203, "groundspeed_mps": 0.014701317064464092}, "flight": {"mode": "STABILIZE", "armed": false}, "ekf": {"attitude": {"roll": 0.05194513127207756, "pitch": 0.004112076945602894, "yaw": 1.1662261486053467}, "local_position": {"x": null, "y": null, "z": null}, "status": {"flags": 135, "velocity_variance": 0.0, "pos_horiz_variance": 0.0039266133680939674, "pos_vert_variance": 0.012717211619019508}}, "errors": ["PreArm: Hardware safety switch"]}
{"timestamp": "2025-12-27T10:17:56.298601Z", "telemetry": {"lat": 28.7532013, "lon": 77.117549, "satellites": 8, "altitude_gps_m": 227.6199951171875, "groundspeed_mps": 0.01407681405544281}, "flight": {"mode": "STABILIZE", "armed": false}, "ekf": {"attitude": {"roll": 0.05191069468855858, "pitch": 0.0040186140686273575, "yaw": 1.166337251663208}, "local_position": {"x": null, "y": null, "z": null}, "status": {"flags": 135, "velocity_variance": 0.0, "pos_horiz_variance": 0.0039520771242678165, "pos_vert_variance": 0.02310950867831707}}, "errors": ["PreArm: Hardware safety switch"]}
{"timestamp": "2025-12-27T10:17:57.304522Z", "telemetry": {"lat": 28.7531996, "lon": 77.1175392, "satellites": 8, "altitude_gps_m": 229.44000244140625, "groundspeed_mps": 0.011863082647323608}, "flight": {"mode": "STABILIZE", "armed": false}, "ekf": {"attitude": {"roll": 0.05193060636520386, "pitch": 0.0039581675082445145, "yaw": 1.166298270225525}, "local_position": {"x": null, "y": null, "z": null}, "status": {"flags": 135, "velocity_variance": 0.0, "pos_horiz_variance": 0.0037740219850093126, "pos_vert_variance": 0.013255283236503601}}, "errors": ["PreArm: Hardware safety switch"]}
{"timestamp": "2025-12-27T10:17:58.300185Z", "telemetry": {"lat": 28.7531803, "lon": 77.1175099, "satellites": 10, "altitude_gps_m": 233.70999145507812, "groundspeed_mps": 0.011354848742485046}, "flight": {"mode": "STABILIZE", "armed": false}, "ekf": {"attitude": {"roll": 0.05185285955667496, "pitch": 0.003859656397253275, "yaw": 1.1663296222686768}, "local_position": {"x": null, "y": null, "z": null}, "status": {"flags": 135, "velocity_variance": 0.0, "pos_horiz_variance": 0.003397117368876934, "pos_vert_variance": 0.06309707462787628}}, "errors": ["PreArm: Hardware safety switch"]}
{"timestamp": "2025-12-27T10:17:59.299116Z", "telemetry": {"lat": 28.7531652, "lon": 77.1174813, "satellites": 10, "altitude_gps_m": 238.54998779296875, "groundspeed_mps": 0.010265829041600227}, "flight": {"mode": "STABILIZE", "armed": false}, "ekf": {"attitude": {"roll": 0.051850203424692154, "pitch": 0.0037311213091015816, "yaw": 1.1663551330566406}, "local_position": {"x": null, "y": null, "z": null}, "status": {"flags": 135, "velocity_variance": 0.0, "pos_horiz_variance": 0.0031707535963505507, "pos_vert_variance": 0.03228936344385147}}, "errors": ["PreArm: Hardware safety switch"]}
{"timestamp": "2025-12-27T10:18:00.298831Z", "telemetry": {"lat": 28.7531482, "lon": 77.1174595, "satellites": 10, "altitude_gps_m": 243.13999938964844, "groundspeed_mps": 0.009656231850385666}, "flight": {"mode": "STABILIZE", "armed": false}, "ekf": {"attitude": {"roll": 0.051461540162563324, "pitch": 0.004459710326045752, "yaw": 1.1660804748535156}, "local_position": {"x": null, "y": null, "z": null}, "status": {"flags": 135, "velocity_variance": 0.0, "pos_horiz_variance": 0.002912041498348117, "pos_vert_variance": 0.0888107568025589}}, "errors": ["PreArm: Hardware safety switch"]}
{"timestamp": "2025-12-27T10:18:01.298424Z", "telemetry": {"lat": 28.7531439, "lon": 77.1174464, "satellites": 9, "altitude_gps_m": 244.37998962402344, "groundspeed_mps": 0.00933311227709055}, "flight": {"mode": "STABILIZE", "armed": false}, "ekf": {"attitude": {"roll": 0.05121553689241409, "pitch": 0.0049910396337509155, "yaw": 1.1658895015716553}, "local_position": {"x": null, "y": null, "z": null}, "status": {"flags": 135, "velocity_variance": 0.0, "pos_horiz_variance": 0.002604367909952998, "pos_vert_variance": 0.01238448265939951}}, "errors": ["PreArm: Hardware safety switch"]}
{"timestamp": "2025-12-27T10:18:02.299012Z", "telemetry": {"lat": 28.753144, "lon": 77.1174398, "satellites": 9, "altitude_gps_m": 245.77999877929688, "groundspeed_mps": 0.007344706449657679}, "flight": {"mode": "STABILIZE", "armed": false}, "ekf": {"attitude": {"roll": 0.051023777574300766, "pitch": 0.0050821187905967236, "yaw": 1.1660127639770508}, "local_position": {"x": null, "y": null, "z": null}, "status": {"flags": 135, "velocity_variance": 0.0, "pos_horiz_variance": 0.002279187086969614, "pos_vert_variance": 0.029308170080184937}}, "errors": ["PreArm: Hardware safety switch"]}
{"timestamp": "2025-12-27T10:18:03.298188Z", "telemetry": {"lat": 28.7531415, "lon": 77.1174326, "satellites": 9, "altitude_gps_m": 246.51998901367188, "groundspeed_mps": 0.009701975621283054}, "flight": {"mode": "STABILIZE", "armed": false}, "ekf": {"attitude": {"roll": 0.05107233673334122, "pitch": 0.004931641276925802, "yaw": 1.1659247875213623}, "local_position": {"x": null, "y": null, "z": null}, "status": {"flags": 135, "velocity_variance": 0.0, "pos_horiz_variance": 0.0021164717618376017, "pos_vert_variance": 0.01925145834684372}}, "errors": ["PreArm: Hardware safety switch"]}
{"timestamp": "2025-12-27T10:18:04.298382Z", "telemetry": {"lat": 28.7531412, "lon": 77.1174306, "satellites": 9, "altitude_gps_m": 246.6899871826172, "groundspeed_mps": 0.007760655600577593}, "flight": {"mode": "STABILIZE", "armed": false}, "ekf": {"attitude": {"roll": 0.0510103739798069, "pitch": 0.005233537405729294, "yaw": 1.1658269166946411}, "local_position": {"x": null, "y": null, "z": null}, "status": {"flags": 135, "velocity_variance": 0.0, "pos_horiz_variance": 0.0022081565111875534, "pos_vert_variance": 0.061551086604595184}}, "errors": ["PreArm: Hardware safety switch"]}
{"timestamp": "2025-12-27T10:18:05.298239Z", "telemetry": {"lat": 28.7531423, "lon": 77.1174273, "satellites": 9, "altitude_gps_m": 247.02999877929688, "groundspeed_mps": 0.00711017893627286}, "flight": {"mode": "STABILIZE", "armed": false}, "ekf": {"attitude": {"roll": 0.05110342800617218, "pitch": 0.005025964230298996, "yaw": 1.1659735441207886}, "local_position": {"x": null, "y": null, "z": null}, "status": {"flags": 135, "velocity_variance": 0.0, "pos_horiz_variance": 0.002065986394882202, "pos_vert_variance": 0.0726567879319191}}, "errors": ["PreArm: Hardware safety switch", "PreArm: Hardware safety switch"]}
{"timestamp": "2025-12-27T10:18:06.298829Z", "telemetry": {"lat": 28.7531432, "lon": 77.1174176, "satellites": 9, "altitude_gps_m": 248.87998962402344, "groundspeed_mps": 0.0064963893964886665}, "flight": {"mode": "STABILIZE", "armed": false}, "ekf": {"attitude": {"roll": 0.051305752247571945, "pitch": 0.004912876524031162, "yaw": 1.1659958362579346}, "local_position": {"x": null, "y": null, "z": null}, "status": {"flags": 135, "velocity_variance": 0.0, "pos_horiz_variance": 0.0018489465583115816, "pos_vert_variance": 0.02116842195391655}}, "errors": ["PreArm: Hardware safety switch", "PreArm: Hardware safety switch"]}
{"timestamp": "2025-12-27T10:18:07.304083Z", "telemetry": {"lat": 28.7531424, "lon": 77.1174128, "satellites": 9, "altitude_gps_m": 250.22000122070312, "groundspeed_mps": 0.006302058696746826}, "flight": {"mode": "STABILIZE", "armed": false}, "ekf": {"attitude": {"roll": 0.051384441554546356, "pitch": 0.004824022762477398, "yaw": 1.166109323501587}, "local_position": {"x": null, "y": null, "z": null}, "status": {"flags": 135, "velocity_variance": 0.0, "pos_horiz_variance": 0.0016807971987873316, "pos_vert_variance": 0.027571527287364006}}, "errors": ["PreArm: Hardware safety switch", "PreArm: Hardware safety switch"]}
{"timestamp": "2025-12-27T10:18:08.301456Z", "telemetry": {"lat": 28.7531342, "lon": 77.1174002, "satellites": 9, "altitude_gps_m": 251.29998779296875, "groundspeed_mps": 0.002189178019762039}, "flight": {"mode": "STABILIZE", "armed": false}, "ekf": {"attitude": {"roll": 0.05144919455051422, "pitch": 0.004866963252425194, "yaw": 1.166011929512024}, "local_position": {"x": null, "y": null, "z": null}, "status": {"flags": 135, "velocity_variance": 0.0, "pos_horiz_variance": 0.00130477175116539, "pos_vert_variance": 0.05397576093673706}}, "errors": ["PreArm: Hardware safety switch", "PreArm: Hardware safety switch"]}
{"timestamp": "2025-12-27T10:18:09.298653Z", "telemetry": {"lat": 28.7531353, "lon": 77.1174026, "satellites": 9, "altitude_gps_m": 250.58999633789062, "groundspeed_mps": 0.0027567821089178324}, "flight": {"mode": "STABILIZE", "armed": false}, "ekf": {"attitude": {"roll": 0.0512150377035141, "pitch": 0.004945366643369198, "yaw": 1.165858507156372}, "local_position": {"x": null, "y": null, "z": null}, "status": {"flags": 135, "velocity_variance": 0.0, "pos_horiz_variance": 0.0005497789243236184, "pos_vert_variance": 0.04370613396167755}}, "errors": ["PreArm: Hardware safety switch", "PreArm: Hardware safety switch"]}
{"timestamp": "2025-12-27T10:18:10.298533Z", "telemetry": {"lat": 28.7531388, "lon": 77.1174083, "satellites": 9, "altitude_gps_m": 249.79998779296875, "groundspeed_mps": 0.000727195234503597}, "flight": {"mode": "STABILIZE", "armed": false}, "ekf": {"attitude": {"roll": 0.05121738091111183, "pitch": 0.004507943522185087, "yaw": 1.1657723188400269}, "local_position": {"x": null, "y": null, "z": null}, "status": {"flags": 135, "velocity_variance": 0.0, "pos_horiz_variance": 5.778505146736279e-05, "pos_vert_variance": 0.07649736851453781}}, "errors": ["PreArm: Hardware safety switch", "PreArm: Hardware safety switch"]}
{"timestamp": "2025-12-27T10:18:11.298575Z", "telemetry": {"lat": 28.7531414, "lon": 77.1174167, "satellites": 9, "altitude_gps_m": 248.5, "groundspeed_mps": 0.002712750108912587}, "flight": {"mode": "STABILIZE", "armed": false}, "ekf": {"attitude": {"roll": 0.05107500031590462, "pitch": 0.004851339850574732, "yaw": 1.1655629873275757}, "local_position": {"x": null, "y": null, "z": null}, "status": {"flags": 135, "velocity_variance": 0.0, "pos_horiz_variance": 0.00024389768077526242, "pos_vert_variance": 0.00031604760442860425}}, "errors": ["PreArm: Hardware safety switch", "PreArm: Hardware safety switch"]}
{"timestamp": "2025-12-27T10:18:12.298477Z", "telemetry": {"lat": 28.7531478, "lon": 77.1174253, "satellites": 9, "altitude_gps_m": 246.27999877929688, "groundspeed_mps": 0.00998665764927864}, "flight": {"mode": "STABILIZE", "armed": false}, "ekf": {"attitude": {"roll": 0.05130003020167351, "pitch": 0.004474847577512264, "yaw": 1.165661334991455}, "local_position": {"x": null, "y": null, "z": null}, "status": {"flags": 135, "velocity_variance": 0.0, "pos_horiz_variance": 0.0009901917073875666, "pos_vert_variance": 0.024213450029492378}}, "errors": ["PreArm: Hardware safety switch", "PreArm: Hardware safety switch"]}
{"timestamp": "2025-12-27T10:18:13.298399Z", "telemetry": {"lat": 28.7531484, "lon": 77.1174288, "satellites": 9, "altitude_gps_m": 244.97999572753906, "groundspeed_mps": 0.009578488767147064}, "flight": {"mode": "STABILIZE", "armed": false}, "ekf": {"attitude": {"roll": 0.05132067948579788, "pitch": 0.004575524479150772, "yaw": 1.165453553199768}, "local_position": {"x": null, "y": null, "z": null}, "status": {"flags": 135, "velocity_variance": 0.0, "pos_horiz_variance": 0.0018857751274481416, "pos_vert_variance": 0.06568256765604019}}, "errors": ["PreArm: Hardware safety switch", "PreArm: Hardware safety switch"]}
{"timestamp": "2025-12-27T10:18:14.299004Z", "telemetry": {"lat": 28.7531559, "lon": 77.1174351, "satellites": 9, "altitude_gps_m": 243.4099884033203, "groundspeed_mps": 0.011121438816189766}, "flight": {"mode": "STABILIZE", "armed": false}, "ekf": {"attitude": {"roll": 0.05155987665057182, "pitch": 0.0042810398153960705, "yaw": 1.165643572807312}, "local_position": {"x": null, "y": null, "z": null}, "status": {"flags": 135, "velocity_variance": 0.0, "pos_horiz_variance": 0.0024952045641839504, "pos_vert_variance": 0.02228711172938347}}, "errors": ["PreArm: Hardware safety switch", "PreArm: Hardware safety switch"]}
{"timestamp": "2025-12-27T10:18:15.299129Z", "telemetry": {"lat": 28.7531616, "lon": 77.1174459, "satellites": 9, "altitude_gps_m": 242.17999267578125, "groundspeed_mps": 0.013560608960688114}, "flight": {"mode": "STABILIZE", "armed": false}, "ekf": {"attitude": {"roll": 0.051474329084157944, "pitch": 0.004639672115445137, "yaw": 1.1656749248504639}, "local_position": {"x": null, "y": null, "z": null}, "status": {"flags": 135, "velocity_variance": 0.0, "pos_horiz_variance": 0.002826365642249584, "pos_vert_variance": 0.09109044075012207}}, "errors": ["PreArm: Hardware safety switch", "PreArm: Hardware safety switch"]}
{"timestamp": "2025-12-27T10:18:16.298759Z", "telemetry": {"lat": 28.7531558, "lon": 77.1174497, "satellites": 9, "altitude_gps_m": 241.97999572753906, "groundspeed_mps": 0.009910396300256252}, "flight": {"mode": "STABILIZE", "armed": false}, "ekf": {"attitude": {"roll": 0.05218110606074333, "pitch": 0.0036433194763958454, "yaw": 1.1659951210021973}, "local_position": {"x": null, "y": null, "z": null}, "status": {"flags": 135, "velocity_variance": 0.0, "pos_horiz_variance": 0.0033342083916068077, "pos_vert_variance": 0.0009870295180007815}}, "errors": ["PreArm: Hardware safety switch", "PreArm: Hardware safety switch"]}
{"timestamp": "2025-12-27T10:18:17.298648Z", "telemetry": {"lat": 28.7531564, "lon": 77.1174543, "satellites": 9, "altitude_gps_m": 241.17999267578125, "groundspeed_mps": 0.009308219887316227}, "flight": {"mode": "STABILIZE", "armed": false}, "ekf": {"attitude": {"roll": 0.05232425779104233, "pitch": 0.0035309724044054747, "yaw": 1.1660490036010742}, "local_position": {"x": null, "y": null, "z": null}, "status": {"flags": 135, "velocity_variance": 0.0, "pos_horiz_variance": 0.0028516296297311783, "pos_vert_variance": 0.029894281178712845}}, "errors": ["PreArm: Hardware safety switch", "PreArm: Hardware safety switch"]}
{"timestamp": "2025-12-27T10:18:18.303769Z", "telemetry": {"lat": 28.7531574, "lon": 77.1174488, "satellites": 8, "altitude_gps_m": 241.5699920654297, "groundspeed_mps": 0.010355652309954166}, "flight": {"mode": "STABILIZE", "armed": false}, "ekf": {"attitude": {"roll": 0.05236784368753433, "pitch": 0.0035894676111638546, "yaw": 1.1661920547485352}, "local_position": {"x": null, "y": null, "z": null}, "status": {"flags": 135, "velocity_variance": 0.0, "pos_horiz_variance": 0.0025158801581710577, "pos_vert_variance": 0.02428998239338398}}, "errors": ["PreArm: Hardware safety switch", "PreArm: Hardware safety switch"]}
{"timestamp": "2025-12-27T10:18:19.298610Z", "telemetry": {"lat": 28.753159, "lon": 77.1174542, "satellites": 8, "altitude_gps_m": 240.87998962402344, "groundspeed_mps": 0.010604203678667545}, "flight": {"mode": "STABILIZE", "armed": false}, "ekf": {"attitude": {"roll": 0.052390605211257935, "pitch": 0.003534607822075486, "yaw": 1.1662471294403076}, "local_position": {"x": null, "y": null, "z": null}, "status": {"flags": 135, "velocity_variance": 0.0, "pos_horiz_variance": 0.002412100089713931, "pos_vert_variance": 0.11820507049560547}}, "errors": ["PreArm: Hardware safety switch", "PreArm: Hardware safety switch"]}
{"timestamp": "2025-12-27T10:18:20.304326Z", "telemetry": {"lat": 28.7531616, "lon": 77.1174477, "satellites": 8, "altitude_gps_m": 242.02999877929688, "groundspeed_mps": 0.012187802232801914}, "flight": {"mode": "STABILIZE", "armed": false}, "ekf": {"attitude": {"roll": 0.0524790957570076, "pitch": 0.003506165463477373, "yaw": 1.1660724878311157}, "local_position": {"x": null, "y": null, "z": null}, "status": {"flags": 135, "velocity_variance": 0.0, "pos_horiz_variance": 0.0027480763383209705, "pos_vert_variance": 0.01135044265538454}}, "errors": ["PreArm: Hardware safety switch", "PreArm: Hardware safety switch"]}
{"timestamp": "2025-12-27T10:18:21.299143Z", "telemetry": {"lat": 28.7531707, "lon": 77.1174594, "satellites": 9, "altitude_gps_m": 240.17999267578125, "groundspeed_mps": 0.014175569638609886}, "flight": {"mode": "STABILIZE", "armed": false}, "ekf": {"attitude": {"roll": 0.052526138722896576, "pitch": 0.0035110078752040863, "yaw": 1.1661531925201416}, "local_position": {"x": null, "y": null, "z": null}, "status": {"flags": 135, "velocity_variance": 0.0, "pos_horiz_variance": 0.003302494529634714, "pos_vert_variance": 0.03400358185172081}}, "errors": ["PreArm: Hardware safety switch", "PreArm: Hardware safety switch"]}
{"timestamp": "2025-12-27T10:18:22.298644Z", "telemetry": {"lat": 28.7531766, "lon": 77.1174623, "satellites": 9, "altitude_gps_m": 240.0, "groundspeed_mps": 0.012135731056332588}, "flight": {"mode": "STABILIZE", "armed": false}, "ekf": {"attitude": {"roll": 0.05235365033149719, "pitch": 0.0034997249022126198, "yaw": 1.1660629510879517}, "local_position": {"x": null, "y": null, "z": null}, "status": {"flags": 135, "velocity_variance": 0.0, "pos_horiz_variance": 0.0036281279753893614, "pos_vert_variance": 0.03137198090553284}}, "errors": ["PreArm: Hardware safety switch", "PreArm: Hardware safety switch"]}
{"timestamp": "2025-12-27T10:18:23.299021Z", "telemetry": {"lat": 28.7531827, "lon": 77.1174678, "satellites": 9, "altitude_gps_m": 239.25, "groundspeed_mps": 0.009295531548559666}, "flight": {"mode": "STABILIZE", "armed": false}, "ekf": {"attitude": {"roll": 0.052364006638526917, "pitch": 0.003519461490213871, "yaw": 1.1660914421081543}, "local_position": {"x": null, "y": null, "z": null}, "status": {"flags": 135, "velocity_variance": 0.0, "pos_horiz_variance": 0.0033482362050563097, "pos_vert_variance": 0.01155571173876524}}, "errors": ["PreArm: Hardware safety switch", "PreArm: Hardware safety switch"]}
{"timestamp": "2025-12-27T10:18:24.298952Z", "telemetry": {"lat": 28.7531919, "lon": 77.117469, "satellites": 9, "altitude_gps_m": 239.87998962402344, "groundspeed_mps": 0.006463884375989437}, "flight": {"mode": "STABILIZE", "armed": false}, "ekf": {"attitude": {"roll": 0.0524328388273716, "pitch": 0.003354978747665882, "yaw": 1.1659562587738037}, "local_position": {"x": null, "y": null, "z": null}, "status": {"flags": 135, "velocity_variance": 0.0, "pos_horiz_variance": 0.0025723055005073547, "pos_vert_variance": 0.010774772614240646}}, "errors": ["PreArm: Hardware safety switch", "PreArm: Hardware safety switch"]}
{"timestamp": "2025-12-27T10:18:25.298787Z", "telemetry": {"lat": 28.7531963, "lon": 77.1174682, "satellites": 9, "altitude_gps_m": 240.0699920654297, "groundspeed_mps": 0.007261958438903093}, "flight": {"mode": "STABILIZE", "armed": false}, "ekf": {"attitude": {"roll": 0.05236702412366867, "pitch": 0.003286862513050437, "yaw": 1.1659919023513794}, "local_position": {"x": null, "y": null, "z": null}, "status": {"flags": 135, "velocity_variance": 0.0, "pos_horiz_variance": 0.0021184366196393967, "pos_vert_variance": 0.03707028180360794}}, "errors": ["PreArm: Hardware safety switch", "PreArm: Hardware safety switch"]}
{"timestamp": "2025-12-27T10:18:26.298965Z", "telemetry": {"lat": 28.7531966, "lon": 77.1174652, "satellites": 9, "altitude_gps_m": 240.36000061035156, "groundspeed_mps": 0.008577297441661358}, "flight": {"mode": "STABILIZE", "armed": false}, "ekf": {"attitude": {"roll": 0.052427858114242554, "pitch": 0.00335114193148911, "yaw": 1.1659531593322754}, "local_position": {"x": null, "y": null, "z": null}, "status": {"flags": 135, "velocity_variance": 0.0, "pos_horiz_variance": 0.002218735171481967, "pos_vert_variance": 0.04207037761807442}}, "errors": ["PreArm: Hardware safety switch", "PreArm: Hardware safety switch"]}
{"timestamp": "2025-12-27T10:18:27.298714Z", "telemetry": {"lat": 28.7531967, "lon": 77.1174633, "satellites": 9, "altitude_gps_m": 240.1199951171875, "groundspeed_mps": 0.010294594801962376}, "flight": {"mode": "STABILIZE", "armed": false}, "ekf": {"attitude": {"roll": 0.052448585629463196, "pitch": 0.0031713831704109907, "yaw": 1.1658968925476074}, "local_position": {"x": null, "y": null, "z": null}, "status": {"flags": 135, "velocity_variance": 0.0, "pos_horiz_variance": 0.0023334326688200235, "pos_vert_variance": 0.05754851549863815}}, "errors": ["PreArm: Hardware safety switch", "PreArm: Hardware safety switch"]}
{"timestamp": "2025-12-27T10:18:28.303511Z", "telemetry": {"lat": 28.753205, "lon": 77.1174702, "satellites": 8, "altitude_gps_m": 239.72000122070312, "groundspeed_mps": 0.015061230398714542}, "flight": {"mode": "STABILIZE", "armed": false}, "ekf": {"attitude": {"roll": 0.052437569946050644, "pitch": 0.0030062375590205193, "yaw": 1.1658046245574951}, "local_position": {"x": null, "y": null, "z": null}, "status": {"flags": 135, "velocity_variance": 0.0, "pos_horiz_variance": 0.00293699000030756, "pos_vert_variance": 0.004116422031074762}}, "errors": ["PreArm: Hardware safety switch", "PreArm: Hardware safety switch"]}
{"timestamp": "2025-12-27T10:18:29.302972Z", "telemetry": {"lat": 28.7532122, "lon": 77.1174813, "satellites": 6, "altitude_gps_m": 238.54998779296875, "groundspeed_mps": 0.020113779231905937}, "flight": {"mode": "STABILIZE", "armed": false}, "ekf": {"attitude": {"roll": 0.05239012464880943, "pitch": 0.003102413145825267, "yaw": 1.1656616926193237}, "local_position": {"x": null, "y": null, "z": null}, "status": {"flags": 135, "velocity_variance": 0.0, "pos_horiz_variance": 0.004012122284621, "pos_vert_variance": 0.028976071625947952}}, "errors": ["PreArm: Hardware safety switch", "PreArm: Hardware safety switch"]}
{"timestamp": "2025-12-27T10:18:30.299297Z", "telemetry": {"lat": 28.7532168, "lon": 77.1174873, "satellites": 5, "altitude_gps_m": 237.70999145507812, "groundspeed_mps": 0.022081967443227768}, "flight": {"mode": "STABILIZE", "armed": false}, "ekf": {"attitude": {"roll": 0.05233281850814819, "pitch": 0.0030482180882245302, "yaw": 1.165649652481079}, "local_position": {"x": null, "y": null, "z": null}, "status": {"flags": 135, "velocity_variance": 0.0, "pos_horiz_variance": 0.005035318899899721, "pos_vert_variance": 0.03628893569111824}}, "errors": ["PreArm: Hardware safety switch", "PreArm: Hardware safety switch"]}
{"timestamp": "2025-12-27T10:18:31.298830Z", "telemetry": {"lat": 28.7532183, "lon": 77.1174872, "satellites": 5, "altitude_gps_m": 237.80999755859375, "groundspeed_mps": 0.020373983308672905}, "flight": {"mode": "STABILIZE", "armed": false}, "ekf": {"attitude": {"roll": 0.052340440452098846, "pitch": 0.003182898508384824, "yaw": 1.1655436754226685}, "local_position": {"x": null, "y": null, "z": null}, "status": {"flags": 135, "velocity_variance": 0.0, "pos_horiz_variance": 0.005611977074295282, "pos_vert_variance": 0.049722664058208466}}, "errors": ["PreArm: Hardware safety switch", "PreArm: Hardware safety switch"]}
{"timestamp": "2025-12-27T10:18:32.298482Z", "telemetry": {"lat": 28.7532187, "lon": 77.1174903, "satellites": 7, "altitude_gps_m": 237.4199981689453, "groundspeed_mps": 0.017284223809838295}, "flight": {"mode": "STABILIZE", "armed": false}, "ekf": {"attitude": {"roll": 0.05222013592720032, "pitch": 0.0032823169603943825, "yaw": 1.1655454635620117}, "local_position": {"x": null, "y": null, "z": null}, "status": {"flags": 135, "velocity_variance": 0.0, "pos_horiz_variance": 0.00552348280325532, "pos_vert_variance": 0.09613163769245148}}, "errors": ["PreArm: Hardware safety switch", "PreArm: Hardware safety switch"]}
{"timestamp": "2025-12-27T10:18:33.298904Z", "telemetry": {"lat": 28.7532206, "lon": 77.117499, "satellites": 7, "altitude_gps_m": 236.5399932861328, "groundspeed_mps": 0.015562242828309536}, "flight": {"mode": "STABILIZE", "armed": false}, "ekf": {"attitude": {"roll": 0.05210597440600395, "pitch": 0.0033571263775229454, "yaw": 1.1654231548309326}, "local_position": {"x": null, "y": null, "z": null}, "status": {"flags": 135, "velocity_variance": 0.0, "pos_horiz_variance": 0.005138169974088669, "pos_vert_variance": 0.09482972323894501}}, "errors": ["PreArm: Hardware safety switch", "PreArm: Hardware safety switch"]}
{"timestamp": "2025-12-27T10:18:34.298395Z", "telemetry": {"lat": 28.7532203, "lon": 77.1175063, "satellites": 7, "altitude_gps_m": 234.1699981689453, "groundspeed_mps": 0.012624013237655163}, "flight": {"mode": "STABILIZE", "armed": false}, "ekf": {"attitude": {"roll": 0.05203058570623398, "pitch": 0.003480931743979454, "yaw": 1.1652162075042725}, "local_position": {"x": null, "y": null, "z": null}, "status": {"flags": 135, "velocity_variance": 0.0, "pos_horiz_variance": 0.00469046737998724, "pos_vert_variance": 0.06648551672697067}}, "errors": ["PreArm: Hardware safety switch", "PreArm: Hardware safety switch"]}
{"timestamp": "2025-12-27T10:18:35.298787Z", "telemetry": {"lat": 28.7532241, "lon": 77.117529, "satellites": 8, "altitude_gps_m": 230.52999877929688, "groundspeed_mps": 0.008645249530673027}, "flight": {"mode": "STABILIZE", "armed": false}, "ekf": {"attitude": {"roll": 0.05200417339801788, "pitch": 0.0035759960301220417, "yaw": 1.165205955505371}, "local_position": {"x": null, "y": null, "z": null}, "status": {"flags": 135, "velocity_variance": 0.0, "pos_horiz_variance": 0.0037501694168895483, "pos_vert_variance": 0.014373499900102615}}, "errors": ["PreArm: Hardware safety switch", "PreArm: Hardware safety switch"]}
{"timestamp": "2025-12-27T10:18:36.299264Z", "telemetry": {"lat": 28.7532244, "lon": 77.1175464, "satellites": 8, "altitude_gps_m": 226.6999969482422, "groundspeed_mps": 0.005206328351050615}, "flight": {"mode": "STABILIZE", "armed": false}, "ekf": {"attitude": {"roll": 0.05195244029164314, "pitch": 0.0036173290573060513, "yaw": 1.165230631828308}, "local_position": {"x": null, "y": null, "z": null}, "status": {"flags": 135, "velocity_variance": 0.0, "pos_horiz_variance": 0.002722320845350623, "pos_vert_variance": 0.0014913196209818125}}, "errors": ["PreArm: Hardware safety switch", "PreArm: Hardware safety switch", "PreArm: Hardware safety switch"]}
{"timestamp": "2025-12-27T10:18:37.298367Z", "telemetry": {"lat": 28.7532239, "lon": 77.1175514, "satellites": 8, "altitude_gps_m": 224.6999969482422, "groundspeed_mps": 0.0008497484959661961}, "flight": {"mode": "STABILIZE", "armed": false}, "ekf": {"attitude": {"roll": 0.05192479118704796, "pitch": 0.0036991657689213753, "yaw": 1.164978265762329}, "local_position": {"x": null, "y": null, "z": null}, "status": {"flags": 135, "velocity_variance": 0.0, "pos_horiz_variance": 0.0018053014064207673, "pos_vert_variance": 0.03466908261179924}}, "errors": ["PreArm: Hardware safety switch", "PreArm: Hardware safety switch", "PreArm: Hardware safety switch"]}
{"timestamp": "2025-12-27T10:18:38.300854Z", "telemetry": {"lat": 28.7532243, "lon": 77.1175541, "satellites": 8, "altitude_gps_m": 224.3199920654297, "groundspeed_mps": 0.003249158151447773}, "flight": {"mode": "STABILIZE", "armed": false}, "ekf": {"attitude": {"roll": 0.05199049413204193, "pitch": 0.0037815868854522705, "yaw": 1.1648850440979004}, "local_position": {"x": null, "y": null, "z": null}, "status": {"flags": 135, "velocity_variance": 0.0, "pos_horiz_variance": 0.0009366678423248231, "pos_vert_variance": 0.014615857973694801}}, "errors": ["PreArm: Hardware safety switch", "PreArm: Hardware safety switch", "PreArm: Hardware safety switch"]}
{"timestamp": "2025-12-27T10:18:39.298774Z", "telemetry": {"lat": 28.7532282, "lon": 77.1175573, "satellites": 8, "altitude_gps_m": 224.6599884033203, "groundspeed_mps": 0.00435001403093338}, "flight": {"mode": "STABILIZE", "armed": false}, "ekf": {"attitude": {"roll": 0.052016790956258774, "pitch": 0.003807070665061474, "yaw": 1.1648828983306885}, "local_position": {"x": null, "y": null, "z": null}, "status": {"flags": 135, "velocity_variance": 0.0, "pos_horiz_variance": 0.0007558341603726149, "pos_vert_variance": 0.10178133845329285}}, "errors": ["PreArm: Hardware safety switch", "PreArm: Hardware safety switch", "PreArm: Hardware safety switch"]}
{"timestamp": "2025-12-27T10:18:40.298674Z", "telemetry": {"lat": 28.7532291, "lon": 77.1175579, "satellites": 8, "altitude_gps_m": 224.92999267578125, "groundspeed_mps": 0.0037789656780660152}, "flight": {"mode": "STABILIZE", "armed": false}, "ekf": {"attitude": {"roll": 0.05216977000236511, "pitch": 0.003756224177777767, "yaw": 1.1647942066192627}, "local_position": {"x": null, "y": null, "z": null}, "status": {"flags": 135, "velocity_variance": 0.0, "pos_horiz_variance": 0.0008822153904475272, "pos_vert_variance": 0.1026342511177063}}, "errors": ["PreArm: Hardware safety switch", "PreArm: Hardware safety switch", "PreArm: Hardware safety switch"]}
{"timestamp": "2025-12-27T10:18:41.299012Z", "telemetry": {"lat": 28.7532287, "lon": 77.1175552, "satellites": 8, "altitude_gps_m": 225.20999145507812, "groundspeed_mps": 0.001561358803883195}, "flight": {"mode": "STABILIZE", "armed": false}, "ekf": {"attitude": {"roll": 0.0519990473985672, "pitch": 0.003694338258355856, "yaw": 1.164800763130188}, "local_position": {"x": null, "y": null, "z": null}, "status": {"flags": 135, "velocity_variance": 0.0, "pos_horiz_variance": 0.0006619405467063189, "pos_vert_variance": 0.04168800637125969}}, "errors": ["PreArm: Hardware safety switch", "PreArm: Hardware safety switch", "PreArm: Hardware safety switch"]}
{"timestamp": "2025-12-27T10:18:42.298341Z", "telemetry": {"lat": 28.7532258, "lon": 77.1175493, "satellites": 8, "altitude_gps_m": 225.64999389648438, "groundspeed_mps": 0.001389132346957922}, "flight": {"mode": "STABILIZE", "armed": false}, "ekf": {"attitude": {"roll": 0.05198885127902031, "pitch": 0.00366108026355505, "yaw": 1.1647329330444336}, "local_position": {"x": null, "y": null, "z": null}, "status": {"flags": 135, "velocity_variance": 0.0, "pos_horiz_variance": 0.00031002916512079537, "pos_vert_variance": 0.05977220460772514}}, "errors": ["PreArm: Hardware safety switch", "PreArm: Hardware safety switch", "PreArm: Hardware safety switch"]}
{"timestamp": "2025-12-27T10:18:43.299319Z", "telemetry": {"lat": 28.7532225, "lon": 77.1175467, "satellites": 8, "altitude_gps_m": 225.8300018310547, "groundspeed_mps": 0.0026556074153631926}, "flight": {"mode": "STABILIZE", "armed": false}, "ekf": {"attitude": {"roll": 0.05171692371368408, "pitch": 0.003592520486563444, "yaw": 1.1646802425384521}, "local_position": {"x": null, "y": null, "z": null}, "status": {"flags": 135, "velocity_variance": 0.0, "pos_horiz_variance": 0.00018749151786323637, "pos_vert_variance": 0.026669004932045937}}, "errors": ["PreArm: Hardware safety switch", "PreArm: Hardware safety switch", "PreArm: Hardware safety switch"]}
{"timestamp": "2025-12-27T10:18:44.298329Z", "telemetry": {"lat": 28.7532166, "lon": 77.1175433, "satellites": 8, "altitude_gps_m": 225.6999969482422, "groundspeed_mps": 0.005434123799204826}, "flight": {"mode": "STABILIZE", "armed": false}, "ekf": {"attitude": {"roll": 0.05165215954184532, "pitch": 0.003605435835197568, "yaw": 1.1647090911865234}, "local_position": {"x": null, "y": null, "z": null}, "status": {"flags": 135, "velocity_variance": 0.0, "pos_horiz_variance": 0.0004942431696690619, "pos_vert_variance": 0.01749921590089798}}, "errors": ["PreArm: Hardware safety switch", "PreArm: Hardware safety switch", "PreArm: Hardware safety switch"]}
{"timestamp": "2025-12-27T10:18:45.299059Z", "telemetry": {"lat": 28.7532116, "lon": 77.1175405, "satellites": 8, "altitude_gps_m": 225.8699951171875, "groundspeed_mps": 0.008373304270207882}, "flight": {"mode": "STABILIZE", "armed": false}, "ekf": {"attitude": {"roll": 0.05151064693927765, "pitch": 0.003875650931149721, "yaw": 1.1646095514297485}, "local_position": {"x": null, "y": null, "z": null}, "status": {"flags": 135, "velocity_variance": 0.0, "pos_horiz_variance": 0.0010761504527181387, "pos_vert_variance": 0.002034503733739257}}, "errors": ["PreArm: Hardware safety switch", "PreArm: Hardware safety switch", "PreArm: Hardware safety switch"]}
{"timestamp": "2025-12-27T10:18:46.304040Z", "telemetry": {"lat": 28.7532097, "lon": 77.1175401, "satellites": 7, "altitude_gps_m": 225.95999145507812, "groundspeed_mps": 0.010026245377957821}, "flight": {"mode": "STABILIZE", "armed": false}, "ekf": {"attitude": {"roll": 0.05160832777619362, "pitch": 0.0038465741090476513, "yaw": 1.1646251678466797}, "local_position": {"x": null, "y": null, "z": null}, "status": {"flags": 135, "velocity_variance": 0.0, "pos_horiz_variance": 0.0018940300215035677, "pos_vert_variance": 0.035678211599588394}}, "errors": ["PreArm: Hardware safety switch", "PreArm: Hardware safety switch", "PreArm: Hardware safety switch"]}
{"timestamp": "2025-12-27T10:18:47.299791Z", "telemetry": {"lat": 28.7532017, "lon": 77.1175382, "satellites": 7, "altitude_gps_m": 224.88999938964844, "groundspeed_mps": 0.010623946785926819}, "flight": {"mode": "STABILIZE", "armed": false}, "ekf": {"attitude": {"roll": 0.05157577991485596, "pitch": 0.0037855945993214846, "yaw": 1.1645512580871582}, "local_position": {"x": null, "y": null, "z": null}, "status": {"flags": 135, "velocity_variance": 0.0, "pos_horiz_variance": 0.0024200528860092163, "pos_vert_variance": 0.011672471649944782}}, "errors": ["PreArm: Hardware safety switch", "PreArm: Hardware safety switch", "PreArm: Hardware safety switch"]}
{"timestamp": "2025-12-27T10:18:48.298314Z", "telemetry": {"lat": 28.7531928, "lon": 77.117535, "satellites": 8, "altitude_gps_m": 223.84999084472656, "groundspeed_mps": 0.012223027646541595}, "flight": {"mode": "STABILIZE", "armed": false}, "ekf": {"attitude": {"roll": 0.05172683298587799, "pitch": 0.00371658056974411, "yaw": 1.1644829511642456}, "local_position": {"x": null, "y": null, "z": null}, "status": {"flags": 135, "velocity_variance": 0.0, "pos_horiz_variance": 0.0027375887148082256, "pos_vert_variance": 0.023030636832118034}}, "errors": ["PreArm: Hardware safety switch", "PreArm: Hardware safety switch", "PreArm: Hardware safety switch"]}
{"timestamp": "2025-12-27T10:18:49.299089Z", "telemetry": {"lat": 28.753185, "lon": 77.1175347, "satellites": 7, "altitude_gps_m": 221.70999145507812, "groundspeed_mps": 0.011823071166872978}, "flight": {"mode": "STABILIZE", "armed": false}, "ekf": {"attitude": {"roll": 0.05207445099949837, "pitch": 0.00344006041996181, "yaw": 1.1645046472549438}, "local_position": {"x": null, "y": null, "z": null}, "status": {"flags": 135, "velocity_variance": 0.0, "pos_horiz_variance": 0.0031455259304493666, "pos_vert_variance": 0.08629301935434341}}, "errors": ["PreArm: Hardware safety switch", "PreArm: Hardware safety switch", "PreArm: Hardware safety switch"]}
{"timestamp": "2025-12-27T10:18:50.299111Z", "telemetry": {"lat": 28.7531778, "lon": 77.1175351, "satellites": 7, "altitude_gps_m": 220.489990234375, "groundspeed_mps": 0.00980235543102026}, "flight": {"mode": "STABILIZE", "armed": false}, "ekf": {"attitude": {"roll": 0.052178896963596344, "pitch": 0.00351075641810894, "yaw": 1.164628505706787}, "local_position": {"x": null, "y": null, "z": null}, "status": {"flags": 135, "velocity_variance": 0.0, "pos_horiz_variance": 0.003036495530977845, "pos_vert_variance": 0.009708690457046032}}, "errors": ["PreArm: Hardware safety switch", "PreArm: Hardware safety switch", "PreArm: Hardware safety switch"]}
{"timestamp": "2025-12-27T10:18:51.299203Z", "telemetry": {"lat": 28.7531705, "lon": 77.1175373, "satellites": 7, "altitude_gps_m": 219.3300018310547, "groundspeed_mps": 0.01031060516834259}, "flight": {"mode": "STABILIZE", "armed": false}, "ekf": {"attitude": {"roll": 0.05219343304634094, "pitch": 0.0036343554966151714, "yaw": 1.1646267175674438}, "local_position": {"x": null, "y": null, "z": null}, "status": {"flags": 135, "velocity_variance": 0.0, "pos_horiz_variance": 0.002979142824187875, "pos_vert_variance": 0.01253355573862791}}, "errors": ["PreArm: Hardware safety switch", "PreArm: Hardware safety switch", "PreArm: Hardware safety switch"]}
{"timestamp": "2025-12-27T10:18:52.299148Z", "telemetry": {"lat": 28.7531683, "lon": 77.1175388, "satellites": 9, "altitude_gps_m": 218.72000122070312, "groundspeed_mps": 0.007246965542435646}, "flight": {"mode": "STABILIZE", "armed": false}, "ekf": {"attitude": {"roll": 0.05221967399120331, "pitch": 0.0035396695602685213, "yaw": 1.1646050214767456}, "local_position": {"x": null, "y": null, "z": null}, "status": {"flags": 135, "velocity_variance": 0.0, "pos_horiz_variance": 0.002585418988019228, "pos_vert_variance": 0.03958067670464516}}, "errors": ["PreArm: Hardware safety switch", "PreArm: Hardware safety switch", "PreArm: Hardware safety switch"]}
{"timestamp": "2025-12-27T10:18:53.298759Z", "telemetry": {"lat": 28.7531682, "lon": 77.1175412, "satellites": 9, "altitude_gps_m": 218.55999755859375, "groundspeed_mps": 0.005423055030405521}, "flight": {"mode": "STABILIZE", "armed": false}, "ekf": {"attitude": {"roll": 0.05215507745742798, "pitch": 0.0034414802212268114, "yaw": 1.164712905883789}, "local_position": {"x": null, "y": null, "z": null}, "status": {"flags": 135, "velocity_variance": 0.0, "pos_horiz_variance": 0.001858856063336134, "pos_vert_variance": 0.05409806966781616}}, "errors": ["PreArm: Hardware safety switch", "PreArm: Hardware safety switch", "PreArm: Hardware safety switch"]}
{"timestamp": "2025-12-27T10:18:54.298792Z", "telemetry": {"lat": 28.753167, "lon": 77.1175426, "satellites": 9, "altitude_gps_m": 218.17999267578125, "groundspeed_mps": 0.007534230127930641}, "flight": {"mode": "STABILIZE", "armed": false}, "ekf": {"attitude": {"roll": 0.05230385810136795, "pitch": 0.003327814396470785, "yaw": 1.1646835803985596}, "local_position": {"x": null, "y": null, "z": null}, "status": {"flags": 135, "velocity_variance": 0.0, "pos_horiz_variance": 0.0015463781310245395, "pos_vert_variance": 0.03147547319531441}}, "errors": ["PreArm: Hardware safety switch", "PreArm: Hardware safety switch", "PreArm: Hardware safety switch"]}
{"timestamp": "2025-12-27T10:18:55.303230Z", "telemetry": {"lat": 28.7531668, "lon": 77.1175444, "satellites": 9, "altitude_gps_m": 217.75999450683594, "groundspeed_mps": 0.009487873874604702}, "flight": {"mode": "STABILIZE", "armed": false}, "ekf": {"attitude": {"roll": 0.05218198150396347, "pitch": 0.0032990749459713697, "yaw": 1.164831280708313}, "local_position": {"x": null, "y": null, "z": null}, "status": {"flags": 135, "velocity_variance": 0.0, "pos_horiz_variance": 0.0020325526129454374, "pos_vert_variance": 0.0069606308825314045}}, "errors": ["PreArm: Hardware safety switch", "PreArm: Hardware safety switch", "PreArm: Hardware safety switch"]}
{"timestamp": "2025-12-27T10:18:56.299588Z", "telemetry": {"lat": 28.7531681, "lon": 77.117548, "satellites": 9, "altitude_gps_m": 217.3699951171875, "groundspeed_mps": 0.009292284958064556}, "flight": {"mode": "STABILIZE", "armed": false}, "ekf": {"attitude": {"roll": 0.05221506208181381, "pitch": 0.003288205713033676, "yaw": 1.164823055267334}, "local_position": {"x": null, "y": null, "z": null}, "status": {"flags": 135, "velocity_variance": 0.0, "pos_horiz_variance": 0.002264902228489518, "pos_vert_variance": 0.07428306341171265}}, "errors": ["PreArm: Hardware safety switch", "PreArm: Hardware safety switch", "PreArm: Hardware safety switch"]}
{"timestamp": "2025-12-27T10:18:57.299614Z", "telemetry": {"lat": 28.7531656, "lon": 77.1175513, "satellites": 10, "altitude_gps_m": 216.67999267578125, "groundspeed_mps": 0.009731789119541645}, "flight": {"mode": "STABILIZE", "armed": false}, "ekf": {"attitude": {"roll": 0.052251044660806656, "pitch": 0.0031737235840409994, "yaw": 1.1648861169815063}, "local_position": {"x": null, "y": null, "z": null}, "status": {"flags": 135, "velocity_variance": 0.0, "pos_horiz_variance": 0.002495477208867669, "pos_vert_variance": 0.0007106417324393988}}, "errors": ["PreArm: Hardware safety switch", "PreArm: Hardware safety switch", "PreArm: Hardware safety switch"]}
{"timestamp": "2025-12-27T10:18:58.299044Z", "telemetry": {"lat": 28.7531682, "lon": 77.1175585, "satellites": 9, "altitude_gps_m": 216.5800018310547, "groundspeed_mps": 0.009385241195559502}, "flight": {"mode": "STABILIZE", "armed": false}, "ekf": {"attitude": {"roll": 0.052107349038124084, "pitch": 0.003391666803508997, "yaw": 1.164797067642212}, "local_position": {"x": null, "y": null, "z": null}, "status": {"flags": 135, "velocity_variance": 0.0, "pos_horiz_variance": 0.0025379867292940617, "pos_vert_variance": 0.005572071298956871}}, "errors": ["PreArm: Hardware safety switch", "PreArm: Hardware safety switch", "PreArm: Hardware safety switch"]}
{"timestamp": "2025-12-27T10:18:59.298606Z", "telemetry": {"lat": 28.7531648, "lon": 77.1175626, "satellites": 9, "altitude_gps_m": 215.88999938964844, "groundspeed_mps": 0.007452859543263912}, "flight": {"mode": "STABILIZE", "armed": false}, "ekf": {"attitude": {"roll": 0.05210398510098457, "pitch": 0.003414339618757367, "yaw": 1.1648553609848022}, "local_position": {"x": null, "y": null, "z": null}, "status": {"flags": 135, "velocity_variance": 0.0, "pos_horiz_variance": 0.002433113055303693, "pos_vert_variance": 0.05224640294909477}}, "errors": ["PreArm: Hardware safety switch", "PreArm: Hardware safety switch", "PreArm: Hardware safety switch"]}
{"timestamp": "2025-12-27T10:19:00.298482Z", "telemetry": {"lat": 28.7531647, "lon": 77.1175671, "satellites": 9, "altitude_gps_m": 215.4199981689453, "groundspeed_mps": 0.011005675420165062}, "flight": {"mode": "STABILIZE", "armed": false}, "ekf": {"attitude": {"roll": 0.052073314785957336, "pitch": 0.0032488368451595306, "yaw": 1.164918303489685}, "local_position": {"x": null, "y": null, "z": null}, "status": {"flags": 135, "velocity_variance": 0.0, "pos_horiz_variance": 0.00236247549764812, "pos_vert_variance": 0.031399693340063095}}, "errors": ["PreArm: Hardware safety switch", "PreArm: Hardware safety switch", "PreArm: Hardware safety switch"]}
{"timestamp": "2025-12-27T10:19:01.298462Z", "telemetry": {"lat": 28.7531704, "lon": 77.117572, "satellites": 9, "altitude_gps_m": 216.02999877929688, "groundspeed_mps": 0.010988565161824226}, "flight": {"mode": "STABILIZE", "armed": false}, "ekf": {"attitude": {"roll": 0.052102815359830856, "pitch": 0.0033418689854443073, "yaw": 1.1648139953613281}, "local_position": {"x": null, "y": null, "z": null}, "status": {"flags": 135, "velocity_variance": 0.0, "pos_horiz_variance": 0.002737897215411067, "pos_vert_variance": 0.010523896664381027}}, "errors": ["PreArm: Hardware safety switch", "PreArm: Hardware safety switch", "PreArm: Hardware safety switch"]}
{"timestamp": "2025-12-27T10:19:02.298637Z", "telemetry": {"lat": 28.7531751, "lon": 77.1175735, "satellites": 9, "altitude_gps_m": 217.36000061035156, "groundspeed_mps": 0.010680013336241245}, "flight": {"mode": "STABILIZE", "armed": false}, "ekf": {"attitude": {"roll": 0.0522250160574913, "pitch": 0.0032321899197995663, "yaw": 1.1649119853973389}, "local_position": {"x": null, "y": null, "z": null}, "status": {"flags": 135, "velocity_variance": 0.0, "pos_horiz_variance": 0.0029502243269234896, "pos_vert_variance": 0.06482666730880737}}, "errors": ["PreArm: Hardware safety switch", "PreArm: Hardware safety switch", "PreArm: Hardware safety switch"]}
