{"timestamp": "2025-12-28T11:11:28.795647Z", "telemetry": {"lat": 28.7531881, "lon": 77.1178448, "satellites": 10, "altitude_gps_m": 214.489990234375, "groundspeed_mps": 1.34221351146698}, "flight": {"mode": "STABILIZE", "armed": false}, "ekf": {"attitude": {"roll": -0.03780968859791756, "pitch": -0.01590435579419136, "yaw": 3.0478568077087402}, "local_position": {"x": 13.174155235290527, "y": -4.066348552703857, "z": -5.561038970947266}, "status": {"flags": 33599, "velocity_variance": 0.2886931002140045, "pos_horiz_variance": 0.020324597135186195, "pos_vert_variance": 0.047765351831912994}}, "errors": []}
{"timestamp": "2025-12-28T11:11:29.846759Z", "telemetry": {"lat": 28.7531868, "lon": 77.1178558, "satellites": 10, "altitude_gps_m": 214.489990234375, "groundspeed_mps": 1.3385727405548096}, "flight": {"mode": "STABILIZE", "armed": false}, "ekf": {"attitude": {"roll": -0.03803156688809395, "pitch": -0.014453547075390816, "yaw": 3.0479328632354736}, "local_position": {"x": 12.842886924743652, "y": -3.177341938018799, "z": -5.570616722106934}, "status": {"flags": 33599, "velocity_variance": 0.20440679788589478, "pos_horiz_variance": 0.02083401568233967, "pos_vert_variance": 0.01581566035747528}}, "errors": []}
{"timestamp": "2025-12-28T11:11:30.867866Z", "telemetry": {"lat": 28.7531854, "lon": 77.1178658, "satellites": 10, "altitude_gps_m": 214.47999572753906, "groundspeed_mps": 1.4014477729797363}, "flight": {"mode": "STABILIZE", "armed": false}, "ekf": {"attitude": {"roll": -0.03829098865389824, "pitch": -0.014456400647759438, "yaw": 3.048102617263794}, "local_position": {"x": 12.215275764465332, "y": -2.226461172103882, "z": -5.552124977111816}, "status": {"flags": 33599, "velocity_variance": 0.4205974340438843, "pos_horiz_variance": 0.019507048651576042, "pos_vert_variance": 0.026865597814321518}}, "errors": []}
{"timestamp": "2025-12-28T11:11:31.867997Z", "telemetry": {"lat": 28.753182, "lon": 77.1178746, "satellites": 9, "altitude_gps_m": 214.4099884033203, "groundspeed_mps": 1.4716243743896484}, "flight": {"mode": "STABILIZE", "armed": false}, "ekf": {"attitude": {"roll": -0.038602564483881, "pitch": -0.014118870720267296, "yaw": 3.048255443572998}, "local_position": {"x": 11.576665878295898, "y": -1.2281529903411865, "z": -5.484805107116699}, "status": {"flags": 33599, "velocity_variance": 0.46001189947128296, "pos_horiz_variance": 0.017693234607577324, "pos_vert_variance": 0.05843837559223175}}, "errors": []}
{"timestamp": "2025-12-28T11:11:32.867887Z", "telemetry": {"lat": 28.75319, "lon": 77.1178692, "satellites": 9, "altitude_gps_m": 214.3300018310547, "groundspeed_mps": 1.2929787635803223}, "flight": {"mode": "STABILIZE", "armed": false}, "ekf": {"attitude": {"roll": -0.03446992114186287, "pitch": -0.008392518386244774, "yaw": 3.0484936237335205}, "local_position": {"x": 11.653400421142578, "y": -0.8484562039375305, "z": -5.407027721405029}, "status": {"flags": 33599, "velocity_variance": 0.6520824432373047, "pos_horiz_variance": 0.01369702722877264, "pos_vert_variance": 0.036312174052000046}}, "errors": []}
{"timestamp": "2025-12-28T11:11:33.867874Z", "telemetry": {"lat": 28.7531943, "lon": 77.1178625, "satellites": 9, "altitude_gps_m": 214.29998779296875, "groundspeed_mps": 0.883611261844635}, "flight": {"mode": "STABILIZE", "armed": false}, "ekf": {"attitude": {"roll": -0.032209139317274094, "pitch": -0.007169852498918772, "yaw": 3.0486133098602295}, "local_position": {"x": 11.779227256774902, "y": -0.8128589987754822, "z": -5.425853729248047}, "status": {"flags": 33599, "velocity_variance": 0.6053382754325867, "pos_horiz_variance": 0.019143512472510338, "pos_vert_variance": 0.07187902927398682}}, "errors": []}
{"timestamp": "2025-12-28T11:11:34.867918Z", "telemetry": {"lat": 28.7531918, "lon": 77.1178604, "satellites": 9, "altitude_gps_m": 214.38999938964844, "groundspeed_mps": 0.7006910443305969}, "flight": {"mode": "STABILIZE", "armed": false}, "ekf": {"attitude": {"roll": -0.03008916601538658, "pitch": -0.005242581944912672, "yaw": 3.0485739707946777}, "local_position": {"x": 11.668913841247559, "y": -0.9917334914207458, "z": -5.462992191314697}, "status": {"flags": 33599, "velocity_variance": 0.3690218925476074, "pos_horiz_variance": 0.018010254949331284, "pos_vert_variance": 0.009877274744212627}}, "errors": ["PreArm: Hardware safety switch", "PreArm: Internal errors 0x100000 l:66 flow_of_ctrl"]}
{"timestamp": "2025-12-28T11:11:35.868527Z", "telemetry": {"lat": 28.7531872, "lon": 77.1178628, "satellites": 10, "altitude_gps_m": 214.4099884033203, "groundspeed_mps": 0.4257441759109497}, "flight": {"mode": "STABILIZE", "armed": false}, "ekf": {"attitude": {"roll": -0.027922485023736954, "pitch": -0.0030671092681586742, "yaw": 3.0484702587127686}, "local_position": {"x": 11.898682594299316, "y": -1.1225714683532715, "z": -5.48240852355957}, "status": {"flags": 33599, "velocity_variance": 0.21444983780384064, "pos_horiz_variance": 0.008232343010604382, "pos_vert_variance": 0.031244181096553802}}, "errors": ["PreArm: Hardware safety switch", "PreArm: Internal errors 0x100000 l:66 flow_of_ctrl"]}
{"timestamp": "2025-12-28T11:11:36.868573Z", "telemetry": {"lat": 28.7531867, "lon": 77.1178633, "satellites": 9, "altitude_gps_m": 214.4099884033203, "groundspeed_mps": 0.21006862819194794}, "flight": {"mode": "STABILIZE", "armed": false}, "ekf": {"attitude": {"roll": -0.026308361440896988, "pitch": -0.0009699291549623013, "yaw": 3.0484671592712402}, "local_position": {"x": 12.00243854522705, "y": -1.2895056009292603, "z": -5.481036186218262}, "status": {"flags": 33599, "velocity_variance": 0.22166341543197632, "pos_horiz_variance": 0.005579781252890825, "pos_vert_variance": 0.01895630545914173}}, "errors": ["PreArm: Hardware safety switch", "PreArm: Internal errors 0x100000 l:66 flow_of_ctrl"]}
{"timestamp": "2025-12-28T11:11:37.868547Z", "telemetry": {"lat": 28.7531871, "lon": 77.1178659, "satellites": 9, "altitude_gps_m": 214.4099884033203, "groundspeed_mps": 0.050598472356796265}, "flight": {"mode": "STABILIZE", "armed": false}, "ekf": {"attitude": {"roll": -0.025457587093114853, "pitch": 0.0004029148258268833, "yaw": 3.048306465148926}, "local_position": {"x": 12.249773025512695, "y": -1.3436212539672852, "z": -5.481895446777344}, "status": {"flags": 33599, "velocity_variance": 0.3804689943790436, "pos_horiz_variance": 0.005185685586184263, "pos_vert_variance": 0.10617227852344513}}, "errors": ["PreArm: Hardware safety switch", "PreArm: Internal errors 0x100000 l:66 flow_of_ctrl"]}
{"timestamp": "2025-12-28T11:11:38.867801Z", "telemetry": {"lat": 28.7531893, "lon": 77.1178612, "satellites": 9, "altitude_gps_m": 214.45999145507812, "groundspeed_mps": 0.18746644258499146}, "flight": {"mode": "STABILIZE", "armed": false}, "ekf": {"attitude": {"roll": -0.023387182503938675, "pitch": 0.0018633659929037094, "yaw": 3.0478553771972656}, "local_position": {"x": 12.423100471496582, "y": -1.615736484527588, "z": -5.540157794952393}, "status": {"flags": 33599, "velocity_variance": 0.31681758165359497, "pos_horiz_variance": 0.004494121763855219, "pos_vert_variance": 0.04304235428571701}}, "errors": ["PreArm: Hardware safety switch", "PreArm: Internal errors 0x100000 l:66 flow_of_ctrl"]}
{"timestamp": "2025-12-28T11:11:39.868266Z", "telemetry": {"lat": 28.7531913, "lon": 77.1178607, "satellites": 9, "altitude_gps_m": 214.5, "groundspeed_mps": 0.34448814392089844}, "flight": {"mode": "STABILIZE", "armed": false}, "ekf": {"attitude": {"roll": -0.02263541892170906, "pitch": 0.003228467423468828, "yaw": 3.0475986003875732}, "local_position": {"x": 12.870779037475586, "y": -1.9756052494049072, "z": -5.578444480895996}, "status": {"flags": 33599, "velocity_variance": 0.15376311540603638, "pos_horiz_variance": 0.006038730498403311, "pos_vert_variance": 0.006417440250515938}}, "errors": ["PreArm: Hardware safety switch", "PreArm: Internal errors 0x100000 l:66 flow_of_ctrl"]}
{"timestamp": "2025-12-28T11:11:40.867793Z", "telemetry": {"lat": 28.7531913, "lon": 77.1178618, "satellites": 10, "altitude_gps_m": 214.4499969482422, "groundspeed_mps": 0.40224745869636536}, "flight": {"mode": "STABILIZE", "armed": false}, "ekf": {"attitude": {"roll": -0.0232689268887043, "pitch": 0.00320790009573102, "yaw": 3.0471463203430176}, "local_position": {"x": 13.021023750305176, "y": -1.9390392303466797, "z": -5.523202896118164}, "status": {"flags": 33599, "velocity_variance": 0.12709306180477142, "pos_horiz_variance": 0.006911725737154484, "pos_vert_variance": 0.062023863196372986}}, "errors": ["PreArm: Hardware safety switch", "PreArm: Internal errors 0x100000 l:66 flow_of_ctrl"]}
{"timestamp": "2025-12-28T11:11:41.868314Z", "telemetry": {"lat": 28.7531861, "lon": 77.1178694, "satellites": 9, "altitude_gps_m": 214.37998962402344, "groundspeed_mps": 0.3489886224269867}, "flight": {"mode": "STABILIZE", "armed": false}, "ekf": {"attitude": {"roll": -0.02486756071448326, "pitch": 0.00266161747276783, "yaw": 3.0468287467956543}, "local_position": {"x": 12.909088134765625, "y": -1.567765712738037, "z": -5.44221830368042}, "status": {"flags": 33599, "velocity_variance": 0.2188681662082672, "pos_horiz_variance": 0.014733739197254181, "pos_vert_variance": 0.03822401165962219}}, "errors": ["PreArm: Hardware safety switch", "PreArm: Internal errors 0x100000 l:66 flow_of_ctrl"]}
{"timestamp": "2025-12-28T11:11:42.867951Z", "telemetry": {"lat": 28.7531909, "lon": 77.1178625, "satellites": 9, "altitude_gps_m": 214.3699951171875, "groundspeed_mps": 0.46895596385002136}, "flight": {"mode": "STABILIZE", "armed": false}, "ekf": {"attitude": {"roll": -0.024070169776678085, "pitch": 0.003335320856422186, "yaw": 3.0465574264526367}, "local_position": {"x": 13.142702102661133, "y": -1.6317766904830933, "z": -5.434525966644287}, "status": {"flags": 33599, "velocity_variance": 0.24015147984027863, "pos_horiz_variance": 0.006196021568030119, "pos_vert_variance": 0.005106120835989714}}, "errors": ["PreArm: Hardware safety switch", "PreArm: Internal errors 0x100000 l:66 flow_of_ctrl"]}
{"timestamp": "2025-12-28T11:11:43.868583Z", "telemetry": {"lat": 28.7531921, "lon": 77.1178539, "satellites": 9, "altitude_gps_m": 214.38999938964844, "groundspeed_mps": 0.5851688981056213}, "flight": {"mode": "STABILIZE", "armed": false}, "ekf": {"attitude": {"roll": -0.023088816553354263, "pitch": 0.003037546994164586, "yaw": 3.046164035797119}, "local_position": {"x": 13.378007888793945, "y": -2.1147501468658447, "z": -5.441873550415039}, "status": {"flags": 33599, "velocity_variance": 0.25276046991348267, "pos_horiz_variance": 0.005465004593133926, "pos_vert_variance": 0.03432920575141907}}, "errors": ["PreArm: Hardware safety switch", "PreArm: Internal errors 0x100000 l:66 flow_of_ctrl"]}
{"timestamp": "2025-12-28T11:11:44.868440Z", "telemetry": {"lat": 28.7531985, "lon": 77.1178391, "satellites": 9, "altitude_gps_m": 214.4199981689453, "groundspeed_mps": 0.7493845224380493}, "flight": {"mode": "STABILIZE", "armed": false}, "ekf": {"attitude": {"roll": -0.02186603471636772, "pitch": 0.0035747510846704245, "yaw": 3.0457968711853027}, "local_position": {"x": 13.562946319580078, "y": -2.857860565185547, "z": -5.486912727355957}, "status": {"flags": 33599, "velocity_variance": 0.28070908784866333, "pos_horiz_variance": 0.009751105681061745, "pos_vert_variance": 0.05477316305041313}}, "errors": ["PreArm: Hardware safety switch", "PreArm: Internal errors 0x100000 l:66 flow_of_ctrl"]}
{"timestamp": "2025-12-28T11:11:45.867958Z", "telemetry": {"lat": 28.7532018, "lon": 77.1178311, "satellites": 9, "altitude_gps_m": 214.38999938964844, "groundspeed_mps": 0.9700157046318054}, "flight": {"mode": "STABILIZE", "armed": false}, "ekf": {"attitude": {"roll": -0.020986605435609818, "pitch": 0.004496551584452391, "yaw": 3.0455265045166016}, "local_position": {"x": 14.303058624267578, "y": -3.8682703971862793, "z": -5.475571155548096}, "status": {"flags": 33599, "velocity_variance": 0.15939810872077942, "pos_horiz_variance": 0.010228400118649006, "pos_vert_variance": 0.04894131049513817}}, "errors": ["PreArm: Hardware safety switch", "PreArm: Internal errors 0x100000 l:66 flow_of_ctrl"]}
{"timestamp": "2025-12-28T11:11:46.868133Z", "telemetry": {"lat": 28.7531992, "lon": 77.1178271, "satellites": 9, "altitude_gps_m": 214.38999938964844, "groundspeed_mps": 0.9765644073486328}, "flight": {"mode": "STABILIZE", "armed": false}, "ekf": {"attitude": {"roll": -0.021457891911268234, "pitch": 0.0033026672899723053, "yaw": 3.045207977294922}, "local_position": {"x": 14.455232620239258, "y": -4.598453521728516, "z": -5.46249532699585}, "status": {"flags": 33599, "velocity_variance": 0.2917547821998596, "pos_horiz_variance": 0.010115335695445538, "pos_vert_variance": 0.03933553397655487}}, "errors": ["PreArm: Hardware safety switch", "PreArm: Internal errors 0x100000 l:66 flow_of_ctrl"]}
{"timestamp": "2025-12-28T11:11:47.868286Z", "telemetry": {"lat": 28.7531969, "lon": 77.1178258, "satellites": 9, "altitude_gps_m": 214.33999633789062, "groundspeed_mps": 0.9490169286727905}, "flight": {"mode": "STABILIZE", "armed": false}, "ekf": {"attitude": {"roll": -0.022633228451013565, "pitch": 0.0023888705763965845, "yaw": 3.044936180114746}, "local_position": {"x": 14.519110679626465, "y": -5.0077080726623535, "z": -5.417501926422119}, "status": {"flags": 33599, "velocity_variance": 0.09293028712272644, "pos_horiz_variance": 0.014641321264207363, "pos_vert_variance": 0.030150743201375008}}, "errors": ["PreArm: Hardware safety switch", "PreArm: Internal errors 0x100000 l:66 flow_of_ctrl"]}
{"timestamp": "2025-12-28T11:11:48.868306Z", "telemetry": {"lat": 28.7531962, "lon": 77.1178215, "satellites": 8, "altitude_gps_m": 214.2899932861328, "groundspeed_mps": 0.8870217800140381}, "flight": {"mode": "STABILIZE", "armed": false}, "ekf": {"attitude": {"roll": -0.02376982942223549, "pitch": 0.0009778039529919624, "yaw": 3.04482364654541}, "local_position": {"x": 14.463762283325195, "y": -5.379183769226074, "z": -5.367466926574707}, "status": {"flags": 33599, "velocity_variance": 0.32927408814430237, "pos_horiz_variance": 0.015359404496848583, "pos_vert_variance": 0.00033810228342190385}}, "errors": ["PreArm: Hardware safety switch", "PreArm: Internal errors 0x100000 l:66 flow_of_ctrl"]}
{"timestamp": "2025-12-28T11:11:49.868039Z", "telemetry": {"lat": 28.7531898, "lon": 77.1178236, "satellites": 8, "altitude_gps_m": 214.29998779296875, "groundspeed_mps": 0.7096520662307739}, "flight": {"mode": "STABILIZE", "armed": false}, "ekf": {"attitude": {"roll": -0.025982234627008438, "pitch": -0.0014470051974058151, "yaw": 3.044609785079956}, "local_position": {"x": 14.09521198272705, "y": -5.380706787109375, "z": -5.373103141784668}, "status": {"flags": 33599, "velocity_variance": 0.34049785137176514, "pos_horiz_variance": 0.021969018504023552, "pos_vert_variance": 0.08968055248260498}}, "errors": ["PreArm: Hardware safety switch", "PreArm: Internal errors 0x100000 l:66 flow_of_ctrl"]}
{"timestamp": "2025-12-28T11:11:50.868097Z", "telemetry": {"lat": 28.7531841, "lon": 77.1178214, "satellites": 9, "altitude_gps_m": 214.25999450683594, "groundspeed_mps": 0.5088215470314026}, "flight": {"mode": "STABILIZE", "armed": false}, "ekf": {"attitude": {"roll": -0.02836420014500618, "pitch": -0.004459884483367205, "yaw": 3.0445330142974854}, "local_position": {"x": 13.384411811828613, "y": -5.384359359741211, "z": -5.358154296875}, "status": {"flags": 33599, "velocity_variance": 0.17327553033828735, "pos_horiz_variance": 0.02098187245428562, "pos_vert_variance": 0.004575653467327356}}, "errors": ["PreArm: Hardware safety switch", "PreArm: Internal errors 0x100000 l:66 flow_of_ctrl"]}
{"timestamp": "2025-12-28T11:11:51.868324Z", "telemetry": {"lat": 28.753184, "lon": 77.1178199, "satellites": 9, "altitude_gps_m": 214.22000122070312, "groundspeed_mps": 0.4271849989891052}, "flight": {"mode": "STABILIZE", "armed": false}, "ekf": {"attitude": {"roll": -0.02974875643849373, "pitch": -0.0048676454462111, "yaw": 3.04455304145813}, "local_position": {"x": 13.077129364013672, "y": -5.4753499031066895, "z": -5.299804210662842}, "status": {"flags": 33599, "velocity_variance": 0.1753070056438446, "pos_horiz_variance": 0.017428025603294373, "pos_vert_variance": 0.04666028544306755}}, "errors": ["PreArm: Hardware safety switch", "PreArm: Internal errors 0x100000 l:66 flow_of_ctrl"]}
{"timestamp": "2025-12-28T11:11:52.869017Z", "telemetry": {"lat": 28.7531815, "lon": 77.1178195, "satellites": 9, "altitude_gps_m": 214.25999450683594, "groundspeed_mps": 0.33912932872772217}, "flight": {"mode": "STABILIZE", "armed": false}, "ekf": {"attitude": {"roll": -0.03107186034321785, "pitch": -0.006185565609484911, "yaw": 3.044567108154297}, "local_position": {"x": 12.782242774963379, "y": -5.456231117248535, "z": -5.3331379890441895}, "status": {"flags": 33599, "velocity_variance": 0.24961306154727936, "pos_horiz_variance": 0.017049504444003105, "pos_vert_variance": 0.0112739447504282}}, "errors": ["PreArm: Hardware safety switch", "PreArm: Internal errors 0x100000 l:66 flow_of_ctrl"]}
{"timestamp": "2025-12-28T11:11:53.868816Z", "telemetry": {"lat": 28.7531867, "lon": 77.1178126, "satellites": 9, "altitude_gps_m": 214.30999755859375, "groundspeed_mps": 0.27761781215667725}, "flight": {"mode": "STABILIZE", "armed": false}, "ekf": {"attitude": {"roll": -0.032205451279878616, "pitch": -0.005476642865687609, "yaw": 3.0444653034210205}, "local_position": {"x": 12.679132461547852, "y": -5.705901145935059, "z": -5.403228759765625}, "status": {"flags": 33599, "velocity_variance": 0.36046484112739563, "pos_horiz_variance": 0.00997103564441204, "pos_vert_variance": 0.012240832671523094}}, "errors": ["PreArm: Hardware safety switch", "PreArm: Internal errors 0x100000 l:66 flow_of_ctrl"]}
{"timestamp": "2025-12-28T11:11:54.867968Z", "telemetry": {"lat": 28.7531869, "lon": 77.1178109, "satellites": 9, "altitude_gps_m": 214.3300018310547, "groundspeed_mps": 0.24435511231422424}, "flight": {"mode": "STABILIZE", "armed": false}, "ekf": {"attitude": {"roll": -0.03238927200436592, "pitch": -0.005564735736697912, "yaw": 3.0446057319641113}, "local_position": {"x": 12.82447338104248, "y": -5.816336631774902, "z": -5.406304359436035}, "status": {"flags": 33599, "velocity_variance": 0.09553464502096176, "pos_horiz_variance": 0.0102537227794528, "pos_vert_variance": 0.008032768964767456}}, "errors": ["PreArm: Hardware safety switch", "PreArm: Internal errors 0x100000 l:66 flow_of_ctrl"]}
{"timestamp": "2025-12-28T11:11:55.871026Z", "telemetry": {"lat": 28.753187, "lon": 77.1178093, "satellites": 9, "altitude_gps_m": 214.3300018310547, "groundspeed_mps": 0.21996594965457916}, "flight": {"mode": "STABILIZE", "armed": false}, "ekf": {"attitude": {"roll": -0.032940369099378586, "pitch": -0.005459399428218603, "yaw": 3.0446743965148926}, "local_position": {"x": 12.75205135345459, "y": -6.060722351074219, "z": -5.405060291290283}, "status": {"flags": 33599, "velocity_variance": 0.31782951951026917, "pos_horiz_variance": 0.008450329303741455, "pos_vert_variance": 0.03686295077204704}}, "errors": ["PreArm: Hardware safety switch", "PreArm: Internal errors 0x100000 l:66 flow_of_ctrl"]}
{"timestamp": "2025-12-28T11:11:56.868806Z", "telemetry": {"lat": 28.7531896, "lon": 77.1178056, "satellites": 9, "altitude_gps_m": 214.34999084472656, "groundspeed_mps": 0.1146475076675415}, "flight": {"mode": "STABILIZE", "armed": false}, "ekf": {"attitude": {"roll": -0.0348023883998394, "pitch": -0.006576491054147482, "yaw": 3.0448060035705566}, "local_position": {"x": 12.484395027160645, "y": -5.952032566070557, "z": -5.407613277435303}, "status": {"flags": 33599, "velocity_variance": 0.1524057388305664, "pos_horiz_variance": 0.010629468597471714, "pos_vert_variance": 0.03170537203550339}}, "errors": ["PreArm: Hardware safety switch", "PreArm: Internal errors 0x100000 l:66 flow_of_ctrl"]}
{"timestamp": "2025-12-28T11:11:57.868071Z", "telemetry": {"lat": 28.7531916, "lon": 77.1178035, "satellites": 8, "altitude_gps_m": 214.37998962402344, "groundspeed_mps": 0.06830909848213196}, "flight": {"mode": "STABILIZE", "armed": false}, "ekf": {"attitude": {"roll": -0.03492116555571556, "pitch": -0.005785892251878977, "yaw": 3.044842481613159}, "local_position": {"x": 12.503990173339844, "y": -6.010298728942871, "z": -5.437678337097168}, "status": {"flags": 33599, "velocity_variance": 0.23323893547058105, "pos_horiz_variance": 0.01610712707042694, "pos_vert_variance": 0.04723510518670082}}, "errors": ["PreArm: Hardware safety switch", "PreArm: Internal errors 0x100000 l:66 flow_of_ctrl"]}
{"timestamp": "2025-12-28T11:11:58.870505Z", "telemetry": {"lat": 28.7531972, "lon": 77.1178013, "satellites": 9, "altitude_gps_m": 214.37998962402344, "groundspeed_mps": 0.05216957628726959}, "flight": {"mode": "STABILIZE", "armed": false}, "ekf": {"attitude": {"roll": -0.03597022220492363, "pitch": -0.005074175540357828, "yaw": 3.0448784828186035}, "local_position": {"x": 12.946308135986328, "y": -6.221045970916748, "z": -5.4431986808776855}, "status": {"flags": 33599, "velocity_variance": 0.11228267103433609, "pos_horiz_variance": 0.017365796491503716, "pos_vert_variance": 0.0764368399977684}}, "errors": ["PreArm: Hardware safety switch", "PreArm: Internal errors 0x100000 l:66 flow_of_ctrl"]}
{"timestamp": "2025-12-28T11:11:59.868611Z", "telemetry": {"lat": 28.7532026, "lon": 77.1177929, "satellites": 9, "altitude_gps_m": 214.4099884033203, "groundspeed_mps": 0.13069607317447662}, "flight": {"mode": "STABILIZE", "armed": false}, "ekf": {"attitude": {"roll": -0.035315897315740585, "pitch": -0.004354726057499647, "yaw": 3.0451502799987793}, "local_position": {"x": 13.354108810424805, "y": -6.455311298370361, "z": -5.474042892456055}, "status": {"flags": 33599, "velocity_variance": 0.14224861562252045, "pos_horiz_variance": 0.024316132068634033, "pos_vert_variance": 0.01089996937662363}}, "errors": ["PreArm: Hardware safety switch", "PreArm: Internal errors 0x100000 l:66 flow_of_ctrl"]}
{"timestamp": "2025-12-28T11:12:00.868078Z", "telemetry": {"lat": 28.7531991, "lon": 77.117798, "satellites": 10, "altitude_gps_m": 214.38999938964844, "groundspeed_mps": 0.1604539155960083}, "flight": {"mode": "STABILIZE", "armed": false}, "ekf": {"attitude": {"roll": -0.03479733690619469, "pitch": -0.004093583207577467, "yaw": 3.0453197956085205}, "local_position": {"x": 13.51108169555664, "y": -6.871735095977783, "z": -5.472875118255615}, "status": {"flags": 33599, "velocity_variance": 0.26314577460289, "pos_horiz_variance": 0.012065288610756397, "pos_vert_variance": 0.07646350562572479}}, "errors": ["PreArm: Hardware safety switch", "PreArm: Internal errors 0x100000 l:66 flow_of_ctrl"]}
{"timestamp": "2025-12-28T11:12:01.868511Z", "telemetry": {"lat": 28.7531985, "lon": 77.1177962, "satellites": 10, "altitude_gps_m": 214.37998962402344, "groundspeed_mps": 0.13706517219543457}, "flight": {"mode": "STABILIZE", "armed": false}, "ekf": {"attitude": {"roll": -0.03424448147416115, "pitch": -0.005254579242318869, "yaw": 3.0455169677734375}, "local_position": {"x": 13.620285987854004, "y": -7.3021674156188965, "z": -5.46462345123291}, "status": {"flags": 33599, "velocity_variance": 0.25022342801094055, "pos_horiz_variance": 0.007522127125412226, "pos_vert_variance": 0.02669629268348217}}, "errors": ["PreArm: Hardware safety switch", "PreArm: Internal errors 0x100000 l:66 flow_of_ctrl"]}
{"timestamp": "2025-12-28T11:12:02.868484Z", "telemetry": {"lat": 28.753194, "lon": 77.117797, "satellites": 9, "altitude_gps_m": 214.3699951171875, "groundspeed_mps": 0.09948842227458954}, "flight": {"mode": "STABILIZE", "armed": false}, "ekf": {"attitude": {"roll": -0.034313034266233444, "pitch": -0.005919160787016153, "yaw": 3.045652151107788}, "local_position": {"x": 13.311625480651855, "y": -7.479137897491455, "z": -5.447356700897217}, "status": {"flags": 33599, "velocity_variance": 0.0781833827495575, "pos_horiz_variance": 0.004403348546475172, "pos_vert_variance": 0.016129422932863235}}, "errors": ["PreArm: Hardware safety switch", "PreArm: Internal errors 0x100000 l:66 flow_of_ctrl"]}
{"timestamp": "2025-12-28T11:12:03.867847Z", "telemetry": {"lat": 28.7531953, "lon": 77.1177938, "satellites": 9, "altitude_gps_m": 214.4199981689453, "groundspeed_mps": 0.12460745126008987}, "flight": {"mode": "STABILIZE", "armed": false}, "ekf": {"attitude": {"roll": -0.03401463106274605, "pitch": -0.005114657338708639, "yaw": 3.0457515716552734}, "local_position": {"x": 13.45185375213623, "y": -7.701713562011719, "z": -5.496228218078613}, "status": {"flags": 33599, "velocity_variance": 0.12020374834537506, "pos_horiz_variance": 0.005514235235750675, "pos_vert_variance": 0.05500159412622452}}, "errors": ["PreArm: Hardware safety switch", "PreArm: Internal errors 0x100000 l:66 flow_of_ctrl"]}
{"timestamp": "2025-12-28T11:12:04.868010Z", "telemetry": {"lat": 28.7531935, "lon": 77.1177982, "satellites": 10, "altitude_gps_m": 214.4499969482422, "groundspeed_mps": 0.10618069767951965}, "flight": {"mode": "STABILIZE", "armed": false}, "ekf": {"attitude": {"roll": -0.03420348837971687, "pitch": -0.005264506209641695, "yaw": 3.045860528945923}, "local_position": {"x": 13.49845027923584, "y": -7.875252723693848, "z": -5.524186611175537}, "status": {"flags": 33599, "velocity_variance": 0.148860901594162, "pos_horiz_variance": 0.007281966507434845, "pos_vert_variance": 0.027101783081889153}}, "errors": ["PreArm: Hardware safety switch", "PreArm: Internal errors 0x100000 l:66 flow_of_ctrl", "PreArm: Hardware safety switch", "PreArm: Internal errors 0x100000 l:66 flow_of_ctrl"]}
{"timestamp": "2025-12-28T11:12:05.868594Z", "telemetry": {"lat": 28.7531919, "lon": 77.1178018, "satellites": 9, "altitude_gps_m": 214.44000244140625, "groundspeed_mps": 0.010969326831400394}, "flight": {"mode": "STABILIZE", "armed": false}, "ekf": {"attitude": {"roll": -0.0351068489253521, "pitch": -0.006002205889672041, "yaw": 3.0459935665130615}, "local_position": {"x": 13.323114395141602, "y": -7.6277899742126465, "z": -5.518402099609375}, "status": {"flags": 33599, "velocity_variance": 0.3770405650138855, "pos_horiz_variance": 0.008836404420435429, "pos_vert_variance": 0.0009004721650853753}}, "errors": ["PreArm: Hardware safety switch", "PreArm: Internal errors 0x100000 l:66 flow_of_ctrl", "PreArm: Hardware safety switch", "PreArm: Internal errors 0x100000 l:66 flow_of_ctrl"]}
{"timestamp": "2025-12-28T11:12:06.868850Z", "telemetry": {"lat": 28.7531844, "lon": 77.1178063, "satellites": 10, "altitude_gps_m": 214.3699951171875, "groundspeed_mps": 0.13204313814640045}, "flight": {"mode": "STABILIZE", "armed": false}, "ekf": {"attitude": {"roll": -0.035273704677820206, "pitch": -0.0071791536174714565, "yaw": 3.046358108520508}, "local_position": {"x": 12.857397079467773, "y": -7.350314140319824, "z": -5.44855260848999}, "status": {"flags": 33599, "velocity_variance": 0.18395277857780457, "pos_horiz_variance": 0.015156317502260208, "pos_vert_variance": 0.0013796716229990125}}, "errors": ["PreArm: Hardware safety switch", "PreArm: Internal errors 0x100000 l:66 flow_of_ctrl", "PreArm: Hardware safety switch", "PreArm: Internal errors 0x100000 l:66 flow_of_ctrl"]}
{"timestamp": "2025-12-28T11:12:07.867887Z", "telemetry": {"lat": 28.753194, "lon": 77.1177952, "satellites": 10, "altitude_gps_m": 214.37998962402344, "groundspeed_mps": 0.10955039411783218}, "flight": {"mode": "STABILIZE", "armed": false}, "ekf": {"attitude": {"roll": -0.033358048647642136, "pitch": -0.005177679937332869, "yaw": 3.0464301109313965}, "local_position": {"x": 13.002518653869629, "y": -8.025712013244629, "z": -5.481717586517334}, "status": {"flags": 33599, "velocity_variance": 0.28255924582481384, "pos_horiz_variance": 0.004223603289574385, "pos_vert_variance": 0.032367777079343796}}, "errors": ["PreArm: Hardware safety switch", "PreArm: Internal errors 0x100000 l:66 flow_of_ctrl", "PreArm: Hardware safety switch", "PreArm: Internal errors 0x100000 l:66 flow_of_ctrl"]}
{"timestamp": "2025-12-28T11:12:08.868680Z", "telemetry": {"lat": 28.7531921, "lon": 77.1178044, "satellites": 10, "altitude_gps_m": 214.34999084472656, "groundspeed_mps": 0.15577693283557892}, "flight": {"mode": "STABILIZE", "armed": false}, "ekf": {"attitude": {"roll": -0.03340080752968788, "pitch": -0.0037875459529459476, "yaw": 3.0463974475860596}, "local_position": {"x": 13.495332717895508, "y": -8.177486419677734, "z": -5.428171157836914}, "status": {"flags": 33599, "velocity_variance": 0.36654892563819885, "pos_horiz_variance": 0.01934860646724701, "pos_vert_variance": 0.016194568946957588}}, "errors": ["PreArm: Hardware safety switch", "PreArm: Internal errors 0x100000 l:66 flow_of_ctrl", "PreArm: Hardware safety switch", "PreArm: Internal errors 0x100000 l:66 flow_of_ctrl"]}
{"timestamp": "2025-12-28T11:12:09.868250Z", "telemetry": {"lat": 28.7531867, "lon": 77.1178103, "satellites": 10, "altitude_gps_m": 214.38999938964844, "groundspeed_mps": 0.10448580235242844}, "flight": {"mode": "STABILIZE", "armed": false}, "ekf": {"attitude": {"roll": -0.03345576301217079, "pitch": -0.004496211651712656, "yaw": 3.046356678009033}, "local_position": {"x": 13.3746919631958, "y": -8.055380821228027, "z": -5.448594093322754}, "status": {"flags": 33599, "velocity_variance": 0.246003657579422, "pos_horiz_variance": 0.030042745172977448, "pos_vert_variance": 0.07306218892335892}}, "errors": ["PreArm: Hardware safety switch", "PreArm: Internal errors 0x100000 l:66 flow_of_ctrl", "PreArm: Hardware safety switch", "PreArm: Internal errors 0x100000 l:66 flow_of_ctrl"]}
{"timestamp": "2025-12-28T11:12:10.867842Z", "telemetry": {"lat": 28.7531752, "lon": 77.1178186, "satellites": 9, "altitude_gps_m": 214.37998962402344, "groundspeed_mps": 0.07983320206403732}, "flight": {"mode": "STABILIZE", "armed": false}, "ekf": {"attitude": {"roll": -0.03454132750630379, "pitch": -0.006317624356597662, "yaw": 3.0465548038482666}, "local_position": {"x": 12.868871688842773, "y": -7.580667018890381, "z": -5.459000110626221}, "status": {"flags": 33599, "velocity_variance": 0.3042962849140167, "pos_horiz_variance": 0.041980914771556854, "pos_vert_variance": 0.006594439968466759}}, "errors": ["PreArm: Hardware safety switch", "PreArm: Internal errors 0x100000 l:66 flow_of_ctrl", "PreArm: Hardware safety switch", "PreArm: Internal errors 0x100000 l:66 flow_of_ctrl"]}
{"timestamp": "2025-12-28T11:12:11.868513Z", "telemetry": {"lat": 28.7531643, "lon": 77.1178256, "satellites": 10, "altitude_gps_m": 214.33999633789062, "groundspeed_mps": 0.30533233284950256}, "flight": {"mode": "STABILIZE", "armed": false}, "ekf": {"attitude": {"roll": -0.03632799908518791, "pitch": -0.008242575451731682, "yaw": 3.0467488765716553}, "local_position": {"x": 12.071649551391602, "y": -7.074278831481934, "z": -5.429225921630859}, "status": {"flags": 33599, "velocity_variance": 0.6334484815597534, "pos_horiz_variance": 0.049539532512426376, "pos_vert_variance": 0.02193133905529976}}, "errors": ["PreArm: Hardware safety switch", "PreArm: Internal errors 0x100000 l:66 flow_of_ctrl", "PreArm: Hardware safety switch", "PreArm: Internal errors 0x100000 l:66 flow_of_ctrl"]}
{"timestamp": "2025-12-28T11:12:12.868495Z", "telemetry": {"lat": 28.7531548, "lon": 77.1178403, "satellites": 9, "altitude_gps_m": 214.4499969482422, "groundspeed_mps": 0.47149667143821716}, "flight": {"mode": "STABILIZE", "armed": false}, "ekf": {"attitude": {"roll": -0.036792051047086716, "pitch": -0.008292267099022865, "yaw": 3.0469517707824707}, "local_position": {"x": 11.217910766601562, "y": -5.884411811828613, "z": -5.483569145202637}, "status": {"flags": 33599, "velocity_variance": 0.4695380926132202, "pos_horiz_variance": 0.05482051894068718, "pos_vert_variance": 0.0727396234869957}}, "errors": ["PreArm: Hardware safety switch", "PreArm: Internal errors 0x100000 l:66 flow_of_ctrl", "PreArm: Hardware safety switch", "PreArm: Internal errors 0x100000 l:66 flow_of_ctrl"]}
{"timestamp": "2025-12-28T11:12:13.868426Z", "telemetry": {"lat": 28.7531526, "lon": 77.1178489, "satellites": 9, "altitude_gps_m": 214.4499969482422, "groundspeed_mps": 0.6875073313713074}, "flight": {"mode": "STABILIZE", "armed": false}, "ekf": {"attitude": {"roll": -0.03861496224999428, "pitch": -0.009111469611525536, "yaw": 3.047192335128784}, "local_position": {"x": 10.46457290649414, "y": -4.736236572265625, "z": -5.529397964477539}, "status": {"flags": 33599, "velocity_variance": 0.17291486263275146, "pos_horiz_variance": 0.045728713274002075, "pos_vert_variance": 0.06840313971042633}}, "errors": ["PreArm: Hardware safety switch", "PreArm: Internal errors 0x100000 l:66 flow_of_ctrl", "PreArm: Hardware safety switch", "PreArm: Internal errors 0x100000 l:66 flow_of_ctrl"]}
{"timestamp": "2025-12-28T11:12:14.868698Z", "telemetry": {"lat": 28.7531504, "lon": 77.1178366, "satellites": 9, "altitude_gps_m": 214.4499969482422, "groundspeed_mps": 0.620059072971344}, "flight": {"mode": "STABILIZE", "armed": false}, "ekf": {"attitude": {"roll": -0.036126334220170975, "pitch": -0.008591925725340843, "yaw": 3.047342538833618}, "local_position": {"x": 9.73454761505127, "y": -4.655070781707764, "z": -5.529253959655762}, "status": {"flags": 33599, "velocity_variance": 0.26288217306137085, "pos_horiz_variance": 0.02812238037586212, "pos_vert_variance": 0.03185689076781273}}, "errors": ["PreArm: Hardware safety switch", "PreArm: Internal errors 0x100000 l:66 flow_of_ctrl", "PreArm: Hardware safety switch", "PreArm: Internal errors 0x100000 l:66 flow_of_ctrl"]}
{"timestamp": "2025-12-28T11:12:15.867904Z", "telemetry": {"lat": 28.7531578, "lon": 77.117835, "satellites": 9, "altitude_gps_m": 214.3699951171875, "groundspeed_mps": 0.5012000799179077}, "flight": {"mode": "STABILIZE", "armed": false}, "ekf": {"attitude": {"roll": -0.0356760211288929, "pitch": -0.005825269501656294, "yaw": 3.0473341941833496}, "local_position": {"x": 9.601622581481934, "y": -4.38103723526001, "z": -5.459827899932861}, "status": {"flags": 33599, "velocity_variance": 0.5994682908058167, "pos_horiz_variance": 0.01141079980880022, "pos_vert_variance": 0.07677759975194931}}, "errors": ["PreArm: Hardware safety switch", "PreArm: Internal errors 0x100000 l:66 flow_of_ctrl", "PreArm: Hardware safety switch", "PreArm: Internal errors 0x100000 l:66 flow_of_ctrl"]}
{"timestamp": "2025-12-28T11:12:16.868617Z", "telemetry": {"lat": 28.7531574, "lon": 77.1178392, "satellites": 9, "altitude_gps_m": 214.4099884033203, "groundspeed_mps": 0.47413355112075806}, "flight": {"mode": "STABILIZE", "armed": false}, "ekf": {"attitude": {"roll": -0.03590129688382149, "pitch": -0.005328092258423567, "yaw": 3.0473732948303223}, "local_position": {"x": 9.711814880371094, "y": -4.055805206298828, "z": -5.489133358001709}, "status": {"flags": 33599, "velocity_variance": 0.22125285863876343, "pos_horiz_variance": 0.012991574592888355, "pos_vert_variance": 0.009238114580512047}}, "errors": ["PreArm: Hardware safety switch", "PreArm: Internal errors 0x100000 l:66 flow_of_ctrl", "PreArm: Hardware safety switch", "PreArm: Internal errors 0x100000 l:66 flow_of_ctrl"]}
{"timestamp": "2025-12-28T11:12:17.868531Z", "telemetry": {"lat": 28.7531624, "lon": 77.1178332, "satellites": 9, "altitude_gps_m": 214.4199981689453, "groundspeed_mps": 0.40891188383102417}, "flight": {"mode": "STABILIZE", "armed": false}, "ekf": {"attitude": {"roll": -0.034174997359514236, "pitch": -0.003299557138234377, "yaw": 3.0474400520324707}, "local_position": {"x": 9.752943992614746, "y": -3.8524909019470215, "z": -5.491612434387207}, "status": {"flags": 33599, "velocity_variance": 0.43033045530319214, "pos_horiz_variance": 0.0030149794183671474, "pos_vert_variance": 0.020072342827916145}}, "errors": ["PreArm: Hardware safety switch", "PreArm: Internal errors 0x100000 l:66 flow_of_ctrl", "PreArm: Hardware safety switch", "PreArm: Internal errors 0x100000 l:66 flow_of_ctrl"]}
{"timestamp": "2025-12-28T11:12:18.868545Z", "telemetry": {"lat": 28.7531666, "lon": 77.1178234, "satellites": 9, "altitude_gps_m": 214.51998901367188, "groundspeed_mps": 0.16426755487918854}, "flight": {"mode": "STABILIZE", "armed": false}, "ekf": {"attitude": {"roll": -0.03164735808968544, "pitch": -0.002814242150634527, "yaw": 3.0474393367767334}, "local_position": {"x": 10.047624588012695, "y": -4.279327392578125, "z": -5.565600872039795}, "status": {"flags": 33599, "velocity_variance": 0.42165789008140564, "pos_horiz_variance": 0.010878195986151695, "pos_vert_variance": 0.05970856919884682}}, "errors": ["PreArm: Hardware safety switch", "PreArm: Internal errors 0x100000 l:66 flow_of_ctrl", "PreArm: Hardware safety switch", "PreArm: Internal errors 0x100000 l:66 flow_of_ctrl"]}
{"timestamp": "2025-12-28T11:12:19.868244Z", "telemetry": {"lat": 28.7531683, "lon": 77.1178204, "satellites": 9, "altitude_gps_m": 214.52999877929688, "groundspeed_mps": 0.11514399200677872}, "flight": {"mode": "STABILIZE", "armed": false}, "ekf": {"attitude": {"roll": -0.03157491609454155, "pitch": -0.002388700842857361, "yaw": 3.0472590923309326}, "local_position": {"x": 9.973305702209473, "y": -4.502534866333008, "z": -5.605412483215332}, "status": {"flags": 33599, "velocity_variance": 0.07748795300722122, "pos_horiz_variance": 0.013487732969224453, "pos_vert_variance": 0.030332138761878014}}, "errors": ["PreArm: Hardware safety switch", "PreArm: Internal errors 0x100000 l:66 flow_of_ctrl", "PreArm: Hardware safety switch", "PreArm: Internal errors 0x100000 l:66 flow_of_ctrl"]}
{"timestamp": "2025-12-28T11:12:20.868581Z", "telemetry": {"lat": 28.7531738, "lon": 77.1178176, "satellites": 9, "altitude_gps_m": 214.55999755859375, "groundspeed_mps": 0.12772582471370697}, "flight": {"mode": "STABILIZE", "armed": false}, "ekf": {"attitude": {"roll": -0.03100944682955742, "pitch": -0.0006152396090328693, "yaw": 3.0471978187561035}, "local_position": {"x": 10.28735065460205, "y": -4.694432735443115, "z": -5.604889869689941}, "status": {"flags": 33599, "velocity_variance": 0.16110186278820038, "pos_horiz_variance": 0.015859410166740417, "pos_vert_variance": 0.012988921254873276}}, "errors": ["PreArm: Hardware safety switch", "PreArm: Internal errors 0x100000 l:66 flow_of_ctrl", "PreArm: Hardware safety switch", "PreArm: Internal errors 0x100000 l:66 flow_of_ctrl"]}
{"timestamp": "2025-12-28T11:12:21.867999Z", "telemetry": {"lat": 28.7531782, "lon": 77.1178158, "satellites": 9, "altitude_gps_m": 214.58999633789062, "groundspeed_mps": 0.17908966541290283}, "flight": {"mode": "STABILIZE", "armed": false}, "ekf": {"attitude": {"roll": -0.030169371515512466, "pitch": -0.0002967757172882557, "yaw": 3.0471410751342773}, "local_position": {"x": 10.65223503112793, "y": -4.7063775062561035, "z": -5.666839122772217}, "status": {"flags": 33599, "velocity_variance": 0.3426417112350464, "pos_horiz_variance": 0.019572826102375984, "pos_vert_variance": 0.016333168372511864}}, "errors": ["PreArm: Hardware safety switch", "PreArm: Internal errors 0x100000 l:66 flow_of_ctrl", "PreArm: Hardware safety switch", "PreArm: Internal errors 0x100000 l:66 flow_of_ctrl"]}
{"timestamp": "2025-12-28T11:12:22.868517Z", "telemetry": {"lat": 28.7531805, "lon": 77.1178104, "satellites": 9, "altitude_gps_m": 214.55999755859375, "groundspeed_mps": 0.286369264125824}, "flight": {"mode": "STABILIZE", "armed": false}, "ekf": {"attitude": {"roll": -0.029413316398859024, "pitch": 0.00039928965270519257, "yaw": 3.047022819519043}, "local_position": {"x": 10.97225284576416, "y": -5.405176162719727, "z": -5.63841438293457}, "status": {"flags": 33599, "velocity_variance": 0.24719657003879547, "pos_horiz_variance": 0.01738954335451126, "pos_vert_variance": 0.038056131452322006}}, "errors": ["PreArm: Hardware safety switch", "PreArm: Internal errors 0x100000 l:66 flow_of_ctrl", "PreArm: Hardware safety switch", "PreArm: Internal errors 0x100000 l:66 flow_of_ctrl"]}
{"timestamp": "2025-12-28T11:12:23.868429Z", "telemetry": {"lat": 28.7531824, "lon": 77.1178114, "satellites": 8, "altitude_gps_m": 214.489990234375, "groundspeed_mps": 0.39852356910705566}, "flight": {"mode": "STABILIZE", "armed": false}, "ekf": {"attitude": {"roll": -0.029145199805498123, "pitch": 0.0013781627640128136, "yaw": 3.046867847442627}, "local_position": {"x": 11.428486824035645, "y": -5.6465911865234375, "z": -5.580671787261963}, "status": {"flags": 33599, "velocity_variance": 0.0730857402086258, "pos_horiz_variance": 0.011785704642534256, "pos_vert_variance": 0.054666079580783844}}, "errors": ["PreArm: Hardware safety switch", "PreArm: Internal errors 0x100000 l:66 flow_of_ctrl", "PreArm: Hardware safety switch", "PreArm: Internal errors 0x100000 l:66 flow_of_ctrl"]}
{"timestamp": "2025-12-28T11:12:24.868361Z", "telemetry": {"lat": 28.7531853, "lon": 77.1178093, "satellites": 8, "altitude_gps_m": 214.4199981689453, "groundspeed_mps": 0.4595484137535095}, "flight": {"mode": "STABILIZE", "armed": false}, "ekf": {"attitude": {"roll": -0.029319409281015396, "pitch": 0.0020074211061000824, "yaw": 3.0468647480010986}, "local_position": {"x": 11.932318687438965, "y": -5.953511714935303, "z": -5.490230560302734}, "status": {"flags": 33599, "velocity_variance": 0.1697114259004593, "pos_horiz_variance": 0.009358329698443413, "pos_vert_variance": 0.03486350551247597}}, "errors": ["PreArm: Hardware safety switch", "PreArm: Internal errors 0x100000 l:66 flow_of_ctrl", "PreArm: Hardware safety switch", "PreArm: Internal errors 0x100000 l:66 flow_of_ctrl"]}
{"timestamp": "2025-12-28T11:12:25.868572Z", "telemetry": {"lat": 28.7531932, "lon": 77.1178063, "satellites": 8, "altitude_gps_m": 214.33999633789062, "groundspeed_mps": 0.6277250647544861}, "flight": {"mode": "STABILIZE", "armed": false}, "ekf": {"attitude": {"roll": -0.02950359508395195, "pitch": 0.002943685743957758, "yaw": 3.046891927719116}, "local_position": {"x": 12.74415397644043, "y": -6.3053059577941895, "z": -5.423511505126953}, "status": {"flags": 33599, "velocity_variance": 0.4837407171726227, "pos_horiz_variance": 0.00887988694012165, "pos_vert_variance": 0.03577438369393349}}, "errors": ["PreArm: Hardware safety switch", "PreArm: Internal errors 0x100000 l:66 flow_of_ctrl", "PreArm: Hardware safety switch", "PreArm: Internal errors 0x100000 l:66 flow_of_ctrl"]}
{"timestamp": "2025-12-28T11:12:26.868044Z", "telemetry": {"lat": 28.7531961, "lon": 77.1178034, "satellites": 9, "altitude_gps_m": 214.30999755859375, "groundspeed_mps": 0.6794207692146301}, "flight": {"mode": "STABILIZE", "armed": false}, "ekf": {"attitude": {"roll": -0.029147010296583176, "pitch": 0.0029507288709282875, "yaw": 3.0467793941497803}, "local_position": {"x": 13.299715995788574, "y": -6.542368412017822, "z": -5.383015155792236}, "status": {"flags": 33599, "velocity_variance": 0.20136021077632904, "pos_horiz_variance": 0.007875598035752773, "pos_vert_variance": 0.08792541176080704}}, "errors": ["PreArm: Hardware safety switch", "PreArm: Internal errors 0x100000 l:66 flow_of_ctrl", "PreArm: Hardware safety switch", "PreArm: Internal errors 0x100000 l:66 flow_of_ctrl"]}
{"timestamp": "2025-12-28T11:12:27.868736Z", "telemetry": {"lat": 28.7531957, "lon": 77.1178015, "satellites": 9, "altitude_gps_m": 214.25, "groundspeed_mps": 0.6794921159744263}, "flight": {"mode": "STABILIZE", "armed": false}, "ekf": {"attitude": {"roll": -0.029170256108045578, "pitch": 0.00191154470667243, "yaw": 3.046487331390381}, "local_position": {"x": 13.570272445678711, "y": -7.03938627243042, "z": -5.350677490234375}, "status": {"flags": 33599, "velocity_variance": 0.47340020537376404, "pos_horiz_variance": 0.005103433504700661, "pos_vert_variance": 0.05607571825385094}}, "errors": ["PreArm: Hardware safety switch", "PreArm: Internal errors 0x100000 l:66 flow_of_ctrl", "PreArm: Hardware safety switch", "PreArm: Internal errors 0x100000 l:66 flow_of_ctrl"]}
{"timestamp": "2025-12-28T11:12:28.868466Z", "telemetry": {"lat": 28.753192, "lon": 77.1178068, "satellites": 9, "altitude_gps_m": 214.239990234375, "groundspeed_mps": 0.5919381976127625}, "flight": {"mode": "STABILIZE", "armed": false}, "ekf": {"attitude": {"roll": -0.029880482703447342, "pitch": 0.00039214547723531723, "yaw": 3.0461883544921875}, "local_position": {"x": 13.684067726135254, "y": -7.100228309631348, "z": -5.3039655685424805}, "status": {"flags": 33599, "velocity_variance": 0.4641836881637573, "pos_horiz_variance": 0.008644506335258484, "pos_vert_variance": 0.07683194428682327}}, "errors": ["PreArm: Hardware safety switch", "PreArm: Internal errors 0x100000 l:66 flow_of_ctrl", "PreArm: Hardware safety switch", "PreArm: Internal errors 0x100000 l:66 flow_of_ctrl"]}
{"timestamp": "2025-12-28T11:12:29.872753Z", "telemetry": {"lat": 28.7531943, "lon": 77.1178066, "satellites": 9, "altitude_gps_m": 214.20999145507812, "groundspeed_mps": 0.5649264454841614}, "flight": {"mode": "STABILIZE", "armed": false}, "ekf": {"attitude": {"roll": -0.029776427894830704, "pitch": -0.00014454824849963188, "yaw": 3.046204090118408}, "local_position": {"x": 13.776041984558105, "y": -7.09628963470459, "z": -5.282683849334717}, "status": {"flags": 33599, "velocity_variance": 0.23644357919692993, "pos_horiz_variance": 0.00792003609240055, "pos_vert_variance": 0.07045309990644455}}, "errors": ["PreArm: Hardware safety switch", "PreArm: Internal errors 0x100000 l:66 flow_of_ctrl", "PreArm: Hardware safety switch", "PreArm: Internal errors 0x100000 l:66 flow_of_ctrl"]}
{"timestamp": "2025-12-28T11:12:30.868340Z", "telemetry": {"lat": 28.7531905, "lon": 77.1178158, "satellites": 9, "altitude_gps_m": 214.19000244140625, "groundspeed_mps": 0.5118894577026367}, "flight": {"mode": "STABILIZE", "armed": false}, "ekf": {"attitude": {"roll": -0.030915122479200363, "pitch": -0.0011200234293937683, "yaw": 3.046146869659424}, "local_position": {"x": 13.865838050842285, "y": -6.991724491119385, "z": -5.2600417137146}, "status": {"flags": 33599, "velocity_variance": 0.3791179358959198, "pos_horiz_variance": 0.018911829218268394, "pos_vert_variance": 0.042182959616184235}}, "errors": ["PreArm: Hardware safety switch", "PreArm: Internal errors 0x100000 l:66 flow_of_ctrl", "PreArm: Hardware safety switch", "PreArm: Internal errors 0x100000 l:66 flow_of_ctrl"]}
{"timestamp": "2025-12-28T11:12:31.868363Z", "telemetry": {"lat": 28.7531889, "lon": 77.1178196, "satellites": 9, "altitude_gps_m": 214.13999938964844, "groundspeed_mps": 0.4139200448989868}, "flight": {"mode": "STABILIZE", "armed": false}, "ekf": {"attitude": {"roll": -0.03133455291390419, "pitch": -0.0021365536376833916, "yaw": 3.0462827682495117}, "local_position": {"x": 13.820716857910156, "y": -6.65273380279541, "z": -5.187511920928955}, "status": {"flags": 33599, "velocity_variance": 0.12937690317630768, "pos_horiz_variance": 0.02015465497970581, "pos_vert_variance": 0.016884315758943558}}, "errors": ["PreArm: Hardware safety switch", "PreArm: Internal errors 0x100000 l:66 flow_of_ctrl", "PreArm: Hardware safety switch", "PreArm: Internal errors 0x100000 l:66 flow_of_ctrl"]}
{"timestamp": "2025-12-28T11:12:32.870244Z", "telemetry": {"lat": 28.7531908, "lon": 77.117824, "satellites": 9, "altitude_gps_m": 214.26998901367188, "groundspeed_mps": 0.4026508629322052}, "flight": {"mode": "STABILIZE", "armed": false}, "ekf": {"attitude": {"roll": -0.03254413232207298, "pitch": -0.002641958650201559, "yaw": 3.0462534427642822}, "local_position": {"x": 14.061016082763672, "y": -6.57116174697876, "z": -5.339017391204834}, "status": {"flags": 33599, "velocity_variance": 0.509641706943512, "pos_horiz_variance": 0.02374391257762909, "pos_vert_variance": 0.0008312150603160262}}, "errors": ["PreArm: Hardware safety switch", "PreArm: Internal errors 0x100000 l:66 flow_of_ctrl", "PreArm: Hardware safety switch", "PreArm: Internal errors 0x100000 l:66 flow_of_ctrl"]}
{"timestamp": "2025-12-28T11:12:33.868224Z", "telemetry": {"lat": 28.7531977, "lon": 77.1178239, "satellites": 9, "altitude_gps_m": 214.2899932861328, "groundspeed_mps": 0.39219731092453003}, "flight": {"mode": "STABILIZE", "armed": false}, "ekf": {"attitude": {"roll": -0.03297163173556328, "pitch": -0.0028309677727520466, "yaw": 3.0462944507598877}, "local_position": {"x": 14.190974235534668, "y": -5.883286952972412, "z": -5.361518383026123}, "status": {"flags": 33599, "velocity_variance": 0.24894434213638306, "pos_horiz_variance": 0.012347681447863579, "pos_vert_variance": 0.04541920870542526}}, "errors": ["PreArm: Hardware safety switch", "PreArm: Internal errors 0x100000 l:66 flow_of_ctrl", "PreArm: Hardware safety switch", "PreArm: Internal errors 0x100000 l:66 flow_of_ctrl"]}
{"timestamp": "2025-12-28T11:12:34.868324Z", "telemetry": {"lat": 28.7532082, "lon": 77.1178122, "satellites": 9, "altitude_gps_m": 214.2899932861328, "groundspeed_mps": 0.447174996137619}, "flight": {"mode": "STABILIZE", "armed": false}, "ekf": {"attitude": {"roll": -0.03233608230948448, "pitch": -0.002403386402875185, "yaw": 3.0462889671325684}, "local_position": {"x": 14.691800117492676, "y": -6.112630844116211, "z": -5.384425640106201}, "status": {"flags": 33599, "velocity_variance": 0.1472136676311493, "pos_horiz_variance": 0.0012485828483477235, "pos_vert_variance": 0.004050966817885637}}, "errors": ["PreArm: Hardware safety switch", "PreArm: Internal errors 0x100000 l:66 flow_of_ctrl", "PreArm: Hardware safety switch", "PreArm: Internal errors 0x100000 l:66 flow_of_ctrl", "PreArm: Hardware safety switch", "PreArm: Internal errors 0x100000 l:66 flow_of_ctrl"]}
{"timestamp": "2025-12-28T11:12:35.870344Z", "telemetry": {"lat": 28.7531946, "lon": 77.1178324, "satellites": 9, "altitude_gps_m": 214.30999755859375, "groundspeed_mps": 0.3269743025302887}, "flight": {"mode": "STABILIZE", "armed": false}, "ekf": {"attitude": {"roll": -0.03463946655392647, "pitch": -0.0053853257559239864, "yaw": 3.046304702758789}, "local_position": {"x": 14.574393272399902, "y": -5.49824333190918, "z": -5.389605522155762}, "status": {"flags": 33599, "velocity_variance": 0.6172669529914856, "pos_horiz_variance": 0.020719284191727638, "pos_vert_variance": 0.0010445410152897239}}, "errors": ["PreArm: Hardware safety switch", "PreArm: Internal errors 0x100000 l:66 flow_of_ctrl", "PreArm: Hardware safety switch", "PreArm: Internal errors 0x100000 l:66 flow_of_ctrl", "PreArm: Hardware safety switch", "PreArm: Internal errors 0x100000 l:66 flow_of_ctrl"]}
{"timestamp": "2025-12-28T11:12:36.868676Z", "telemetry": {"lat": 28.7531952, "lon": 77.1178332, "satellites": 9, "altitude_gps_m": 214.3300018310547, "groundspeed_mps": 0.323646605014801}, "flight": {"mode": "STABILIZE", "armed": false}, "ekf": {"attitude": {"roll": -0.03494000807404518, "pitch": -0.005627478938549757, "yaw": 3.0464847087860107}, "local_position": {"x": 14.27525520324707, "y": -4.7972025871276855, "z": -5.402233600616455}, "status": {"flags": 33599, "velocity_variance": 0.33935999870300293, "pos_horiz_variance": 0.014207843691110611, "pos_vert_variance": 0.04785948246717453}}, "errors": ["PreArm: Hardware safety switch", "PreArm: Internal errors 0x100000 l:66 flow_of_ctrl", "PreArm: Hardware safety switch", "PreArm: Internal errors 0x100000 l:66 flow_of_ctrl", "PreArm: Hardware safety switch", "PreArm: Internal errors 0x100000 l:66 flow_of_ctrl"]}
{"timestamp": "2025-12-28T11:12:37.868170Z", "telemetry": {"lat": 28.7531992, "lon": 77.1178299, "satellites": 9, "altitude_gps_m": 214.39999389648438, "groundspeed_mps": 0.2835226058959961}, "flight": {"mode": "STABILIZE", "armed": false}, "ekf": {"attitude": {"roll": -0.033652592450380325, "pitch": -0.005554450210183859, "yaw": 3.0466604232788086}, "local_position": {"x": 14.496910095214844, "y": -4.79337739944458, "z": -5.487494468688965}, "status": {"flags": 33599, "velocity_variance": 0.22420576214790344, "pos_horiz_variance": 0.009758827276527882, "pos_vert_variance": 0.02862210012972355}}, "errors": ["PreArm: Hardware safety switch", "PreArm: Internal errors 0x100000 l:66 flow_of_ctrl", "PreArm: Hardware safety switch", "PreArm: Internal errors 0x100000 l:66 flow_of_ctrl", "PreArm: Hardware safety switch", "PreArm: Internal errors 0x100000 l:66 flow_of_ctrl"]}
{"timestamp": "2025-12-28T11:12:38.868557Z", "telemetry": {"lat": 28.7531993, "lon": 77.1178335, "satellites": 9, "altitude_gps_m": 214.42999267578125, "groundspeed_mps": 0.27843913435935974}, "flight": {"mode": "STABILIZE", "armed": false}, "ekf": {"attitude": {"roll": -0.03379219397902489, "pitch": -0.00614413945004344, "yaw": 3.0467989444732666}, "local_position": {"x": 14.567359924316406, "y": -4.563570976257324, "z": -5.497057914733887}, "status": {"flags": 33599, "velocity_variance": 0.2247026115655899, "pos_horiz_variance": 0.010381244122982025, "pos_vert_variance": 0.022259173914790154}}, "errors": ["PreArm: Hardware safety switch", "PreArm: Internal errors 0x100000 l:66 flow_of_ctrl", "PreArm: Hardware safety switch", "PreArm: Internal errors 0x100000 l:66 flow_of_ctrl", "PreArm: Hardware safety switch", "PreArm: Internal errors 0x100000 l:66 flow_of_ctrl"]}
{"timestamp": "2025-12-28T11:12:39.868449Z", "telemetry": {"lat": 28.753208, "lon": 77.1178273, "satellites": 8, "altitude_gps_m": 214.4499969482422, "groundspeed_mps": 0.2873440682888031}, "flight": {"mode": "STABILIZE", "armed": false}, "ekf": {"attitude": {"roll": -0.03288702294230461, "pitch": -0.004940093029290438, "yaw": 3.0469629764556885}, "local_position": {"x": 14.951375961303711, "y": -4.706993579864502, "z": -5.5273919105529785}, "status": {"flags": 33599, "velocity_variance": 0.21943499147891998, "pos_horiz_variance": 0.002892147284001112, "pos_vert_variance": 0.03344038128852844}}, "errors": ["PreArm: Hardware safety switch", "PreArm: Internal errors 0x100000 l:66 flow_of_ctrl", "PreArm: Hardware safety switch", "PreArm: Internal errors 0x100000 l:66 flow_of_ctrl", "PreArm: Hardware safety switch", "PreArm: Internal errors 0x100000 l:66 flow_of_ctrl"]}
{"timestamp": "2025-12-28T11:12:40.868313Z", "telemetry": {"lat": 28.7532058, "lon": 77.117836, "satellites": 8, "altitude_gps_m": 214.5, "groundspeed_mps": 0.2861441671848297}, "flight": {"mode": "STABILIZE", "armed": false}, "ekf": {"attitude": {"roll": -0.03337378427386284, "pitch": -0.006350970361381769, "yaw": 3.0470175743103027}, "local_position": {"x": 14.997867584228516, "y": -4.190325736999512, "z": -5.5609283447265625}, "status": {"flags": 33599, "velocity_variance": 0.17070361971855164, "pos_horiz_variance": 0.005906183272600174, "pos_vert_variance": 0.03493274748325348}}, "errors": ["PreArm: Hardware safety switch", "PreArm: Internal errors 0x100000 l:66 flow_of_ctrl", "PreArm: Hardware safety switch", "PreArm: Internal errors 0x100000 l:66 flow_of_ctrl", "PreArm: Hardware safety switch", "PreArm: Internal errors 0x100000 l:66 flow_of_ctrl"]}
{"timestamp": "2025-12-28T11:12:41.867832Z", "telemetry": {"lat": 28.7532068, "lon": 77.1178225, "satellites": 7, "altitude_gps_m": 214.5699920654297, "groundspeed_mps": 0.11978144943714142}, "flight": {"mode": "STABILIZE", "armed": false}, "ekf": {"attitude": {"roll": -0.031629834324121475, "pitch": -0.007827168330550194, "yaw": 3.047151565551758}, "local_position": {"x": 14.579568862915039, "y": -4.385495662689209, "z": -5.611369609832764}, "status": {"flags": 33599, "velocity_variance": 0.3498183488845825, "pos_horiz_variance": 0.0085736820474267, "pos_vert_variance": 0.03956061601638794}}, "errors": ["PreArm: Hardware safety switch", "PreArm: Internal errors 0x100000 l:66 flow_of_ctrl", "PreArm: Hardware safety switch", "PreArm: Internal errors 0x100000 l:66 flow_of_ctrl", "PreArm: Hardware safety switch", "PreArm: Internal errors 0x100000 l:66 flow_of_ctrl"]}
{"timestamp": "2025-12-28T11:12:42.867973Z", "telemetry": {"lat": 28.7532171, "lon": 77.1178018, "satellites": 7, "altitude_gps_m": 214.55999755859375, "groundspeed_mps": 0.05090055987238884}, "flight": {"mode": "STABILIZE", "armed": false}, "ekf": {"attitude": {"roll": -0.03000388666987419, "pitch": -0.007220740895718336, "yaw": 3.0469813346862793}, "local_position": {"x": 14.676228523254395, "y": -5.1113505363464355, "z": -5.638322830200195}, "status": {"flags": 33599, "velocity_variance": 0.6137756705284119, "pos_horiz_variance": 0.025115815922617912, "pos_vert_variance": 0.039429351687431335}}, "errors": ["PreArm: Hardware safety switch", "PreArm: Internal errors 0x100000 l:66 flow_of_ctrl", "PreArm: Hardware safety switch", "PreArm: Internal errors 0x100000 l:66 flow_of_ctrl", "PreArm: Hardware safety switch", "PreArm: Internal errors 0x100000 l:66 flow_of_ctrl"]}
{"timestamp": "2025-12-28T11:12:43.868280Z", "telemetry": {"lat": 28.7532296, "lon": 77.1177851, "satellites": 7, "altitude_gps_m": 214.51998901367188, "groundspeed_mps": 0.3635023832321167}, "flight": {"mode": "STABILIZE", "armed": false}, "ekf": {"attitude": {"roll": -0.027930352836847305, "pitch": -0.005282422993332148, "yaw": 3.0467753410339355}, "local_position": {"x": 15.511819839477539, "y": -6.404212951660156, "z": -5.619696617126465}, "status": {"flags": 33599, "velocity_variance": 0.2762525975704193, "pos_horiz_variance": 0.030934741720557213, "pos_vert_variance": 0.0371055006980896}}, "errors": ["PreArm: Hardware safety switch", "PreArm: Internal errors 0x100000 l:66 flow_of_ctrl", "PreArm: Hardware safety switch", "PreArm: Internal errors 0x100000 l:66 flow_of_ctrl", "PreArm: Hardware safety switch", "PreArm: Internal errors 0x100000 l:66 flow_of_ctrl"]}
{"timestamp": "2025-12-28T11:12:44.872482Z", "telemetry": {"lat": 28.7532313, "lon": 77.1177838, "satellites": 7, "altitude_gps_m": 214.50999450683594, "groundspeed_mps": 0.4272230863571167}, "flight": {"mode": "STABILIZE", "armed": false}, "ekf": {"attitude": {"roll": -0.02781767025589943, "pitch": -0.004785418044775724, "yaw": 3.0465292930603027}, "local_position": {"x": 15.952463150024414, "y": -6.937629222869873, "z": -5.599380970001221}, "status": {"flags": 33599, "velocity_variance": 0.27476754784584045, "pos_horiz_variance": 0.026901762932538986, "pos_vert_variance": 0.020654145628213882}}, "errors": ["PreArm: Hardware safety switch", "PreArm: Internal errors 0x100000 l:66 flow_of_ctrl", "PreArm: Hardware safety switch", "PreArm: Internal errors 0x100000 l:66 flow_of_ctrl", "PreArm: Hardware safety switch", "PreArm: Internal errors 0x100000 l:66 flow_of_ctrl"]}
{"timestamp": "2025-12-28T11:12:45.868342Z", "telemetry": {"lat": 28.7532386, "lon": 77.1177716, "satellites": 7, "altitude_gps_m": 214.51998901367188, "groundspeed_mps": 0.5900819301605225}, "flight": {"mode": "STABILIZE", "armed": false}, "ekf": {"attitude": {"roll": -0.02632688358426094, "pitch": -0.004079498816281557, "yaw": 3.0465047359466553}, "local_position": {"x": 16.676902770996094, "y": -8.071784019470215, "z": -5.5911993980407715}, "status": {"flags": 33599, "velocity_variance": 0.4725302457809448, "pos_horiz_variance": 0.026458213105797768, "pos_vert_variance": 0.04658597335219383}}, "errors": ["PreArm: Hardware safety switch", "PreArm: Internal errors 0x100000 l:66 flow_of_ctrl", "PreArm: Hardware safety switch", "PreArm: Internal errors 0x100000 l:66 flow_of_ctrl", "PreArm: Hardware safety switch", "PreArm: Internal errors 0x100000 l:66 flow_of_ctrl"]}
{"timestamp": "2025-12-28T11:12:46.868398Z", "telemetry": {"lat": 28.7532294, "lon": 77.1177867, "satellites": 7, "altitude_gps_m": 214.3699951171875, "groundspeed_mps": 0.4884570240974426}, "flight": {"mode": "STABILIZE", "armed": false}, "ekf": {"attitude": {"roll": -0.028515126556158066, "pitch": -0.005203969310969114, "yaw": 3.0460708141326904}, "local_position": {"x": 16.828022003173828, "y": -8.277329444885254, "z": -5.4575605392456055}, "status": {"flags": 33599, "velocity_variance": 0.34171247482299805, "pos_horiz_variance": 0.00661017931997776, "pos_vert_variance": 0.10791957378387451}}, "errors": ["PreArm: Hardware safety switch", "PreArm: Internal errors 0x100000 l:66 flow_of_ctrl", "PreArm: Hardware safety switch", "PreArm: Internal errors 0x100000 l:66 flow_of_ctrl", "PreArm: Hardware safety switch", "PreArm: Internal errors 0x100000 l:66 flow_of_ctrl"]}
