{"timestamp": "2025-12-28T10:35:22.865917Z", "telemetry": {"lat": 28.7532051, "lon": 77.117743, "satellites": 9, "altitude_gps_m": 213.19000244140625, "groundspeed_mps": 0.1683700829744339}, "flight": {"mode": "STABILIZE", "armed": false}, "ekf": {"attitude": {"roll": -0.026706647127866745, "pitch": -0.005649142432957888, "yaw": 3.046574115753174}, "local_position": {"x": 14.875459671020508, "y": -12.984313011169434, "z": -4.270910263061523}, "status": {"flags": 33599, "velocity_variance": 0.42624756693840027, "pos_horiz_variance": 0.012012818828225136, "pos_vert_variance": 0.06844738870859146}}, "errors": []}
{"timestamp": "2025-12-28T10:35:23.868709Z", "telemetry": {"lat": 28.7532031, "lon": 77.1177415, "satellites": 10, "altitude_gps_m": 213.1599884033203, "groundspeed_mps": 0.1979537308216095}, "flight": {"mode": "STABILIZE", "armed": false}, "ekf": {"attitude": {"roll": -0.026810552924871445, "pitch": -0.0063846721313893795, "yaw": 3.0464491844177246}, "local_position": {"x": 14.827361106872559, "y": -13.14493179321289, "z": -4.231314659118652}, "status": {"flags": 33599, "velocity_variance": 0.30197349190711975, "pos_horiz_variance": 0.015391531400382519, "pos_vert_variance": 0.02350475639104843}}, "errors": []}
{"timestamp": "2025-12-28T10:35:24.868670Z", "telemetry": {"lat": 28.7531995, "lon": 77.1177402, "satellites": 9, "altitude_gps_m": 213.1699981689453, "groundspeed_mps": 0.2677256762981415}, "flight": {"mode": "STABILIZE", "armed": false}, "ekf": {"attitude": {"roll": -0.026814501732587814, "pitch": -0.007493448909372091, "yaw": 3.04622220993042}, "local_position": {"x": 14.473421096801758, "y": -13.291435241699219, "z": -4.2432379722595215}, "status": {"flags": 33599, "velocity_variance": 0.01793796569108963, "pos_horiz_variance": 0.017210515215992928, "pos_vert_variance": 0.08352433890104294}}, "errors": []}
{"timestamp": "2025-12-28T10:35:25.868218Z", "telemetry": {"lat": 28.7531969, "lon": 77.1177375, "satellites": 9, "altitude_gps_m": 213.14999389648438, "groundspeed_mps": 0.36413389444351196}, "flight": {"mode": "STABILIZE", "armed": false}, "ekf": {"attitude": {"roll": -0.02647470310330391, "pitch": -0.008579457178711891, "yaw": 3.046069383621216}, "local_position": {"x": 14.070891380310059, "y": -13.579832077026367, "z": -4.241057395935059}, "status": {"flags": 33599, "velocity_variance": 0.24913960695266724, "pos_horiz_variance": 0.01610950566828251, "pos_vert_variance": 0.04377464950084686}}, "errors": []}
{"timestamp": "2025-12-28T10:35:26.868361Z", "telemetry": {"lat": 28.7531842, "lon": 77.1177361, "satellites": 9, "altitude_gps_m": 213.1999969482422, "groundspeed_mps": 0.5705524682998657}, "flight": {"mode": "STABILIZE", "armed": false}, "ekf": {"attitude": {"roll": -0.026389185339212418, "pitch": -0.011401833966374397, "yaw": 3.0457890033721924}, "local_position": {"x": 13.024188041687012, "y": -13.743074417114258, "z": -4.277907848358154}, "status": {"flags": 33599, "velocity_variance": 0.3255435824394226, "pos_horiz_variance": 0.023671703413128853, "pos_vert_variance": 0.020499221980571747}}, "errors": []}
{"timestamp": "2025-12-28T10:35:27.868381Z", "telemetry": {"lat": 28.7531818, "lon": 77.1177349, "satellites": 9, "altitude_gps_m": 213.1999969482422, "groundspeed_mps": 0.6402085423469543}, "flight": {"mode": "STABILIZE", "armed": false}, "ekf": {"attitude": {"roll": -0.026489075273275375, "pitch": -0.01159510388970375, "yaw": 3.0457046031951904}, "local_position": {"x": 12.453892707824707, "y": -13.981049537658691, "z": -4.271672248840332}, "status": {"flags": 33599, "velocity_variance": 0.25001806020736694, "pos_horiz_variance": 0.01922222226858139, "pos_vert_variance": 0.018583135679364204}}, "errors": []}
{"timestamp": "2025-12-28T10:35:28.868474Z", "telemetry": {"lat": 28.7531813, "lon": 77.1177319, "satellites": 10, "altitude_gps_m": 213.1699981689453, "groundspeed_mps": 0.6391991376876831}, "flight": {"mode": "STABILIZE", "armed": false}, "ekf": {"attitude": {"roll": -0.02656714990735054, "pitch": -0.010370451956987381, "yaw": 3.0455775260925293}, "local_position": {"x": 12.067535400390625, "y": -14.268329620361328, "z": -4.247943878173828}, "status": {"flags": 33599, "velocity_variance": 0.2991861402988434, "pos_horiz_variance": 0.012100335210561752, "pos_vert_variance": 0.02442304976284504}}, "errors": []}
{"timestamp": "2025-12-28T10:35:29.872296Z", "telemetry": {"lat": 28.753175, "lon": 77.117732, "satellites": 10, "altitude_gps_m": 213.19000244140625, "groundspeed_mps": 0.7004282474517822}, "flight": {"mode": "STABILIZE", "armed": false}, "ekf": {"attitude": {"roll": -0.027200285345315933, "pitch": -0.010560858994722366, "yaw": 3.045400619506836}, "local_position": {"x": 11.43986988067627, "y": -14.457420349121094, "z": -4.265987873077393}, "status": {"flags": 33599, "velocity_variance": 0.21040108799934387, "pos_horiz_variance": 0.014404792338609695, "pos_vert_variance": 0.016544124111533165}}, "errors": []}
{"timestamp": "2025-12-28T10:35:30.868815Z", "telemetry": {"lat": 28.7531736, "lon": 77.1177308, "satellites": 10, "altitude_gps_m": 213.17999267578125, "groundspeed_mps": 0.6449339985847473}, "flight": {"mode": "STABILIZE", "armed": false}, "ekf": {"attitude": {"roll": -0.02788003906607628, "pitch": -0.00902349129319191, "yaw": 3.0453686714172363}, "local_position": {"x": 11.176048278808594, "y": -14.600362777709961, "z": -4.246222972869873}, "status": {"flags": 33599, "velocity_variance": 0.14511093497276306, "pos_horiz_variance": 0.013708092272281647, "pos_vert_variance": 0.0006158346659503877}}, "errors": []}
{"timestamp": "2025-12-28T10:35:31.868638Z", "telemetry": {"lat": 28.7531658, "lon": 77.1177338, "satellites": 11, "altitude_gps_m": 213.22000122070312, "groundspeed_mps": 0.7107444405555725}, "flight": {"mode": "STABILIZE", "armed": false}, "ekf": {"attitude": {"roll": -0.028597284108400345, "pitch": -0.009928422048687935, "yaw": 3.0454134941101074}, "local_position": {"x": 10.461925506591797, "y": -14.690166473388672, "z": -4.299543857574463}, "status": {"flags": 33599, "velocity_variance": 0.1643795669078827, "pos_horiz_variance": 0.02142612263560295, "pos_vert_variance": 0.017554840072989464}}, "errors": ["PreArm: Hardware safety switch", "PreArm: Internal errors 0x100000 l:66 flow_of_ctrl"]}
{"timestamp": "2025-12-28T10:35:32.872286Z", "telemetry": {"lat": 28.7531622, "lon": 77.1177358, "satellites": 11, "altitude_gps_m": 213.239990234375, "groundspeed_mps": 0.6566761136054993}, "flight": {"mode": "STABILIZE", "armed": false}, "ekf": {"attitude": {"roll": -0.029830966144800186, "pitch": -0.008737782016396523, "yaw": 3.045459508895874}, "local_position": {"x": 9.973689079284668, "y": -14.579142570495605, "z": -4.322385787963867}, "status": {"flags": 33599, "velocity_variance": 0.12233581393957138, "pos_horiz_variance": 0.023315729573369026, "pos_vert_variance": 0.08740115910768509}}, "errors": ["PreArm: Hardware safety switch", "PreArm: Internal errors 0x100000 l:66 flow_of_ctrl"]}
{"timestamp": "2025-12-28T10:35:33.868516Z", "telemetry": {"lat": 28.753159, "lon": 77.117734, "satellites": 11, "altitude_gps_m": 213.1199951171875, "groundspeed_mps": 0.5757024884223938}, "flight": {"mode": "STABILIZE", "armed": false}, "ekf": {"attitude": {"roll": -0.030613120645284653, "pitch": -0.007071368861943483, "yaw": 3.045438289642334}, "local_position": {"x": 9.640791893005371, "y": -14.573609352111816, "z": -4.21207332611084}, "status": {"flags": 33599, "velocity_variance": 0.2872295677661896, "pos_horiz_variance": 0.01988198049366474, "pos_vert_variance": 0.049827463924884796}}, "errors": ["PreArm: Hardware safety switch", "PreArm: Internal errors 0x100000 l:66 flow_of_ctrl"]}
{"timestamp": "2025-12-28T10:35:34.868364Z", "telemetry": {"lat": 28.753158, "lon": 77.1177359, "satellites": 11, "altitude_gps_m": 213.08999633789062, "groundspeed_mps": 0.4625418782234192}, "flight": {"mode": "STABILIZE", "armed": false}, "ekf": {"attitude": {"roll": -0.031870726495981216, "pitch": -0.005568180698901415, "yaw": 3.0453460216522217}, "local_position": {"x": 9.485322952270508, "y": -14.461023330688477, "z": -4.180751800537109}, "status": {"flags": 33599, "velocity_variance": 0.1149476021528244, "pos_horiz_variance": 0.02098296582698822, "pos_vert_variance": 0.044335607439279556}}, "errors": ["PreArm: Hardware safety switch", "PreArm: Internal errors 0x100000 l:66 flow_of_ctrl"]}
{"timestamp": "2025-12-28T10:35:35.868452Z", "telemetry": {"lat": 28.7531452, "lon": 77.1177378, "satellites": 11, "altitude_gps_m": 213.11000061035156, "groundspeed_mps": 0.5552722215652466}, "flight": {"mode": "STABILIZE", "armed": false}, "ekf": {"attitude": {"roll": -0.03296000137925148, "pitch": -0.007405969779938459, "yaw": 3.0454976558685303}, "local_position": {"x": 8.75964069366455, "y": -14.163711547851562, "z": -4.189475059509277}, "status": {"flags": 33599, "velocity_variance": 0.16510459780693054, "pos_horiz_variance": 0.027910392731428146, "pos_vert_variance": 0.012590785510838032}}, "errors": ["PreArm: Hardware safety switch", "PreArm: Internal errors 0x100000 l:66 flow_of_ctrl"]}
{"timestamp": "2025-12-28T10:35:36.867989Z", "telemetry": {"lat": 28.7531397, "lon": 77.1177403, "satellites": 11, "altitude_gps_m": 213.08999633789062, "groundspeed_mps": 0.5437141060829163}, "flight": {"mode": "STABILIZE", "armed": false}, "ekf": {"attitude": {"roll": -0.03424845263361931, "pitch": -0.006034329067915678, "yaw": 3.045536756515503}, "local_position": {"x": 8.01644515991211, "y": -13.925224304199219, "z": -4.176425933837891}, "status": {"flags": 33599, "velocity_variance": 0.47565558552742004, "pos_horiz_variance": 0.027323832735419273, "pos_vert_variance": 0.03147338703274727}}, "errors": ["PreArm: Hardware safety switch", "PreArm: Internal errors 0x100000 l:66 flow_of_ctrl"]}
{"timestamp": "2025-12-28T10:35:37.868887Z", "telemetry": {"lat": 28.7531391, "lon": 77.1177449, "satellites": 11, "altitude_gps_m": 212.989990234375, "groundspeed_mps": 0.48258674144744873}, "flight": {"mode": "STABILIZE", "armed": false}, "ekf": {"attitude": {"roll": -0.03554341569542885, "pitch": -0.004578439984470606, "yaw": 3.045684814453125}, "local_position": {"x": 7.763381004333496, "y": -13.467962265014648, "z": -4.060973167419434}, "status": {"flags": 33599, "velocity_variance": 0.10095369815826416, "pos_horiz_variance": 0.026165947318077087, "pos_vert_variance": 0.006261216010898352}}, "errors": ["PreArm: Hardware safety switch", "PreArm: Internal errors 0x100000 l:66 flow_of_ctrl"]}
{"timestamp": "2025-12-28T10:35:38.867957Z", "telemetry": {"lat": 28.7531362, "lon": 77.117743, "satellites": 11, "altitude_gps_m": 212.95999145507812, "groundspeed_mps": 0.38435080647468567}, "flight": {"mode": "STABILIZE", "armed": false}, "ekf": {"attitude": {"roll": -0.03547517582774162, "pitch": -0.0025841672904789448, "yaw": 3.0457723140716553}, "local_position": {"x": 7.60734748840332, "y": -13.223264694213867, "z": -4.038820743560791}, "status": {"flags": 33599, "velocity_variance": 0.32434383034706116, "pos_horiz_variance": 0.02221229113638401, "pos_vert_variance": 0.005701093934476376}}, "errors": ["PreArm: Hardware safety switch", "PreArm: Internal errors 0x100000 l:66 flow_of_ctrl"]}
{"timestamp": "2025-12-28T10:35:39.868047Z", "telemetry": {"lat": 28.7531359, "lon": 77.1177479, "satellites": 11, "altitude_gps_m": 212.92999267578125, "groundspeed_mps": 0.31189680099487305}, "flight": {"mode": "STABILIZE", "armed": false}, "ekf": {"attitude": {"roll": -0.03649391606450081, "pitch": -0.0009250324219465256, "yaw": 3.045898914337158}, "local_position": {"x": 7.472444534301758, "y": -12.949823379516602, "z": -4.019784927368164}, "status": {"flags": 33599, "velocity_variance": 0.2759295105934143, "pos_horiz_variance": 0.02214309573173523, "pos_vert_variance": 0.05018417909741402}}, "errors": ["PreArm: Hardware safety switch", "PreArm: Internal errors 0x100000 l:66 flow_of_ctrl"]}
{"timestamp": "2025-12-28T10:35:40.871284Z", "telemetry": {"lat": 28.753134, "lon": 77.1177466, "satellites": 11, "altitude_gps_m": 212.9499969482422, "groundspeed_mps": 0.2740586996078491}, "flight": {"mode": "STABILIZE", "armed": false}, "ekf": {"attitude": {"roll": -0.03611449524760246, "pitch": 4.069320857524872e-05, "yaw": 3.0458827018737793}, "local_position": {"x": 7.425614356994629, "y": -12.708208084106445, "z": -4.022662162780762}, "status": {"flags": 33599, "velocity_variance": 0.196320578455925, "pos_horiz_variance": 0.022038942202925682, "pos_vert_variance": 0.03403135761618614}}, "errors": ["PreArm: Hardware safety switch", "PreArm: Internal errors 0x100000 l:66 flow_of_ctrl"]}
{"timestamp": "2025-12-28T10:35:41.868568Z", "telemetry": {"lat": 28.753124, "lon": 77.1177479, "satellites": 11, "altitude_gps_m": 212.97999572753906, "groundspeed_mps": 0.3013497292995453}, "flight": {"mode": "STABILIZE", "armed": false}, "ekf": {"attitude": {"roll": -0.03574354574084282, "pitch": -0.0013706712052226067, "yaw": 3.0460610389709473}, "local_position": {"x": 7.060441970825195, "y": -12.534788131713867, "z": -4.061469554901123}, "status": {"flags": 33599, "velocity_variance": 0.3049231469631195, "pos_horiz_variance": 0.026362350210547447, "pos_vert_variance": 0.058134160935878754}}, "errors": ["PreArm: Hardware safety switch", "PreArm: Internal errors 0x100000 l:66 flow_of_ctrl"]}
{"timestamp": "2025-12-28T10:35:42.868049Z", "telemetry": {"lat": 28.7531209, "lon": 77.1177482, "satellites": 11, "altitude_gps_m": 213.01998901367188, "groundspeed_mps": 0.34009256958961487}, "flight": {"mode": "STABILIZE", "armed": false}, "ekf": {"attitude": {"roll": -0.03530247136950493, "pitch": -0.0018964875489473343, "yaw": 3.0460429191589355}, "local_position": {"x": 6.279363632202148, "y": -12.350083351135254, "z": -4.078288555145264}, "status": {"flags": 33599, "velocity_variance": 0.1341407150030136, "pos_horiz_variance": 0.030826386064291, "pos_vert_variance": 0.023813262581825256}}, "errors": ["PreArm: Hardware safety switch", "PreArm: Internal errors 0x100000 l:66 flow_of_ctrl"]}
{"timestamp": "2025-12-28T10:35:43.868185Z", "telemetry": {"lat": 28.7531152, "lon": 77.1177471, "satellites": 11, "altitude_gps_m": 213.0800018310547, "groundspeed_mps": 0.33947035670280457}, "flight": {"mode": "STABILIZE", "armed": false}, "ekf": {"attitude": {"roll": -0.03478006646037102, "pitch": -0.0020559923723340034, "yaw": 3.046072006225586}, "local_position": {"x": 5.694427967071533, "y": -12.258484840393066, "z": -4.157680511474609}, "status": {"flags": 33599, "velocity_variance": 0.09423746913671494, "pos_horiz_variance": 0.03234558552503586, "pos_vert_variance": 0.0475606843829155}}, "errors": ["PreArm: Hardware safety switch", "PreArm: Internal errors 0x100000 l:66 flow_of_ctrl"]}
{"timestamp": "2025-12-28T10:35:44.868809Z", "telemetry": {"lat": 28.7531122, "lon": 77.1177416, "satellites": 11, "altitude_gps_m": 213.09999084472656, "groundspeed_mps": 0.19481511414051056}, "flight": {"mode": "STABILIZE", "armed": false}, "ekf": {"attitude": {"roll": -0.03283754363656044, "pitch": -0.0004600496031343937, "yaw": 3.046126127243042}, "local_position": {"x": 5.406435966491699, "y": -12.397171020507812, "z": -4.1494364738464355}, "status": {"flags": 33599, "velocity_variance": 0.26282045245170593, "pos_horiz_variance": 0.03574448078870773, "pos_vert_variance": 0.006001955363899469}}, "errors": ["PreArm: Hardware safety switch", "PreArm: Internal errors 0x100000 l:66 flow_of_ctrl"]}
{"timestamp": "2025-12-28T10:35:45.867860Z", "telemetry": {"lat": 28.7531072, "lon": 77.1177398, "satellites": 9, "altitude_gps_m": 213.11000061035156, "groundspeed_mps": 0.21873816847801208}, "flight": {"mode": "STABILIZE", "armed": false}, "ekf": {"attitude": {"roll": -0.03217504546046257, "pitch": -0.0016939667984843254, "yaw": 3.046204090118408}, "local_position": {"x": 4.879637718200684, "y": -12.66546630859375, "z": -4.1916093826293945}, "status": {"flags": 33599, "velocity_variance": 0.18108493089675903, "pos_horiz_variance": 0.03616912662982941, "pos_vert_variance": 0.02625887840986252}}, "errors": ["PreArm: Hardware safety switch", "PreArm: Internal errors 0x100000 l:66 flow_of_ctrl"]}
{"timestamp": "2025-12-28T10:35:46.868615Z", "telemetry": {"lat": 28.753107, "lon": 77.1177412, "satellites": 10, "altitude_gps_m": 213.13999938964844, "groundspeed_mps": 0.24412111937999725}, "flight": {"mode": "STABILIZE", "armed": false}, "ekf": {"attitude": {"roll": -0.0318305604159832, "pitch": -0.002260852139443159, "yaw": 3.0462961196899414}, "local_position": {"x": 4.397395133972168, "y": -12.841209411621094, "z": -4.238234996795654}, "status": {"flags": 33599, "velocity_variance": 0.22387956082820892, "pos_horiz_variance": 0.025098538026213646, "pos_vert_variance": 0.04960879683494568}}, "errors": ["PreArm: Hardware safety switch", "PreArm: Internal errors 0x100000 l:66 flow_of_ctrl"]}
{"timestamp": "2025-12-28T10:35:47.868742Z", "telemetry": {"lat": 28.7531027, "lon": 77.1177481, "satellites": 10, "altitude_gps_m": 213.13999938964844, "groundspeed_mps": 0.3311300277709961}, "flight": {"mode": "STABILIZE", "armed": false}, "ekf": {"attitude": {"roll": -0.032279063016176224, "pitch": -0.003656370099633932, "yaw": 3.0464630126953125}, "local_position": {"x": 3.5906500816345215, "y": -12.673303604125977, "z": -4.213057518005371}, "status": {"flags": 33599, "velocity_variance": 0.2128620147705078, "pos_horiz_variance": 0.018121270462870598, "pos_vert_variance": 0.03798386827111244}}, "errors": ["PreArm: Hardware safety switch", "PreArm: Internal errors 0x100000 l:66 flow_of_ctrl"]}
{"timestamp": "2025-12-28T10:35:48.868599Z", "telemetry": {"lat": 28.753105, "lon": 77.1177486, "satellites": 10, "altitude_gps_m": 213.19000244140625, "groundspeed_mps": 0.23810243606567383}, "flight": {"mode": "STABILIZE", "armed": false}, "ekf": {"attitude": {"roll": -0.03224141523241997, "pitch": -0.0014631920494139194, "yaw": 3.0465269088745117}, "local_position": {"x": 3.3380980491638184, "y": -12.488017082214355, "z": -4.23779821395874}, "status": {"flags": 33599, "velocity_variance": 0.1877128928899765, "pos_horiz_variance": 0.0054963985458016396, "pos_vert_variance": 0.03861726075410843}}, "errors": ["PreArm: Hardware safety switch", "PreArm: Internal errors 0x100000 l:66 flow_of_ctrl"]}
{"timestamp": "2025-12-28T10:35:49.868730Z", "telemetry": {"lat": 28.7531127, "lon": 77.1177501, "satellites": 10, "altitude_gps_m": 213.20999145507812, "groundspeed_mps": 0.09720729291439056}, "flight": {"mode": "STABILIZE", "armed": false}, "ekf": {"attitude": {"roll": -0.03238655999302864, "pitch": 0.000868659932166338, "yaw": 3.0466344356536865}, "local_position": {"x": 3.7713794708251953, "y": -12.406678199768066, "z": -4.28400993347168}, "status": {"flags": 33599, "velocity_variance": 0.1397504210472107, "pos_horiz_variance": 0.007955754175782204, "pos_vert_variance": 0.09803814440965652}}, "errors": ["PreArm: Hardware safety switch", "PreArm: Internal errors 0x100000 l:66 flow_of_ctrl"]}
{"timestamp": "2025-12-28T10:35:50.871550Z", "telemetry": {"lat": 28.7531107, "lon": 77.1177519, "satellites": 10, "altitude_gps_m": 213.239990234375, "groundspeed_mps": 0.11026553809642792}, "flight": {"mode": "STABILIZE", "armed": false}, "ekf": {"attitude": {"roll": -0.03269779309630394, "pitch": -3.773113712668419e-05, "yaw": 3.0467638969421387}, "local_position": {"x": 3.7898406982421875, "y": -12.267291069030762, "z": -4.314558029174805}, "status": {"flags": 33599, "velocity_variance": 0.419286847114563, "pos_horiz_variance": 0.005678452551364899, "pos_vert_variance": 0.03578868880867958}}, "errors": ["PreArm: Hardware safety switch", "PreArm: Internal errors 0x100000 l:66 flow_of_ctrl"]}
{"timestamp": "2025-12-28T10:35:51.871508Z", "telemetry": {"lat": 28.7531098, "lon": 77.1177561, "satellites": 10, "altitude_gps_m": 213.26998901367188, "groundspeed_mps": 0.14004836976528168}, "flight": {"mode": "STABILIZE", "armed": false}, "ekf": {"attitude": {"roll": -0.03282943740487099, "pitch": 0.0004597301594913006, "yaw": 3.0469002723693848}, "local_position": {"x": 3.6301064491271973, "y": -11.981390953063965, "z": -4.345519065856934}, "status": {"flags": 33599, "velocity_variance": 0.16984441876411438, "pos_horiz_variance": 0.009511526674032211, "pos_vert_variance": 0.028635015711188316}}, "errors": ["PreArm: Hardware safety switch", "PreArm: Internal errors 0x100000 l:66 flow_of_ctrl"]}
{"timestamp": "2025-12-28T10:35:52.867993Z", "telemetry": {"lat": 28.75311, "lon": 77.1177565, "satellites": 10, "altitude_gps_m": 213.29998779296875, "groundspeed_mps": 0.15115299820899963}, "flight": {"mode": "STABILIZE", "armed": false}, "ekf": {"attitude": {"roll": -0.03290199860930443, "pitch": 0.00048271333798766136, "yaw": 3.046945095062256}, "local_position": {"x": 3.715341329574585, "y": -11.806910514831543, "z": -4.378702163696289}, "status": {"flags": 33599, "velocity_variance": 0.09822232276201248, "pos_horiz_variance": 0.006201459560543299, "pos_vert_variance": 0.008943862281739712}}, "errors": ["PreArm: Hardware safety switch", "PreArm: Internal errors 0x100000 l:66 flow_of_ctrl"]}
{"timestamp": "2025-12-28T10:35:53.868424Z", "telemetry": {"lat": 28.7531141, "lon": 77.117753, "satellites": 10, "altitude_gps_m": 213.22999572753906, "groundspeed_mps": 0.21689951419830322}, "flight": {"mode": "STABILIZE", "armed": false}, "ekf": {"attitude": {"roll": -0.03253396227955818, "pitch": 0.001844428014010191, "yaw": 3.046971559524536}, "local_position": {"x": 4.051608085632324, "y": -11.750284194946289, "z": -4.298226356506348}, "status": {"flags": 33599, "velocity_variance": 0.18940508365631104, "pos_horiz_variance": 0.006948782596737146, "pos_vert_variance": 0.09777998924255371}}, "errors": ["PreArm: Hardware safety switch", "PreArm: Internal errors 0x100000 l:66 flow_of_ctrl"]}
{"timestamp": "2025-12-28T10:35:54.868745Z", "telemetry": {"lat": 28.7531152, "lon": 77.1177544, "satellites": 10, "altitude_gps_m": 213.19000244140625, "groundspeed_mps": 0.24441111087799072}, "flight": {"mode": "STABILIZE", "armed": false}, "ekf": {"attitude": {"roll": -0.03247041627764702, "pitch": 0.001375296851620078, "yaw": 3.0471341609954834}, "local_position": {"x": 4.2374043464660645, "y": -11.725191116333008, "z": -4.2794389724731445}, "status": {"flags": 33599, "velocity_variance": 0.12995260953903198, "pos_horiz_variance": 0.005857211537659168, "pos_vert_variance": 0.07128926366567612}}, "errors": ["PreArm: Hardware safety switch", "PreArm: Internal errors 0x100000 l:66 flow_of_ctrl"]}
{"timestamp": "2025-12-28T10:35:55.868680Z", "telemetry": {"lat": 28.7531194, "lon": 77.1177568, "satellites": 10, "altitude_gps_m": 213.1199951171875, "groundspeed_mps": 0.2850182056427002}, "flight": {"mode": "STABILIZE", "armed": false}, "ekf": {"attitude": {"roll": -0.03245171532034874, "pitch": 0.0017751038540154696, "yaw": 3.0471794605255127}, "local_position": {"x": 4.463959693908691, "y": -11.651754379272461, "z": -4.192536354064941}, "status": {"flags": 33599, "velocity_variance": 0.14875365793704987, "pos_horiz_variance": 0.011281153187155724, "pos_vert_variance": 0.05750661715865135}}, "errors": ["PreArm: Hardware safety switch", "PreArm: Internal errors 0x100000 l:66 flow_of_ctrl"]}
{"timestamp": "2025-12-28T10:35:56.867901Z", "telemetry": {"lat": 28.7531277, "lon": 77.1177575, "satellites": 10, "altitude_gps_m": 213.1199951171875, "groundspeed_mps": 0.4266197681427002}, "flight": {"mode": "STABILIZE", "armed": false}, "ekf": {"attitude": {"roll": -0.03230590745806694, "pitch": 0.002949358196929097, "yaw": 3.047233819961548}, "local_position": {"x": 5.051980018615723, "y": -11.61336898803711, "z": -4.1645731925964355}, "status": {"flags": 33599, "velocity_variance": 0.11482780426740646, "pos_horiz_variance": 0.019263779744505882, "pos_vert_variance": 0.08301925659179688}}, "errors": ["PreArm: Hardware safety switch", "PreArm: Internal errors 0x100000 l:66 flow_of_ctrl"]}
{"timestamp": "2025-12-28T10:35:57.868710Z", "telemetry": {"lat": 28.7531271, "lon": 77.1177573, "satellites": 10, "altitude_gps_m": 213.13999938964844, "groundspeed_mps": 0.43224892020225525}, "flight": {"mode": "STABILIZE", "armed": false}, "ekf": {"attitude": {"roll": -0.03222636505961418, "pitch": 0.002179129980504513, "yaw": 3.0472469329833984}, "local_position": {"x": 5.419847011566162, "y": -11.533310890197754, "z": -4.213348388671875}, "status": {"flags": 33599, "velocity_variance": 0.2021283209323883, "pos_horiz_variance": 0.00914844125509262, "pos_vert_variance": 0.007200437597930431}}, "errors": ["PreArm: Hardware safety switch", "PreArm: Internal errors 0x100000 l:66 flow_of_ctrl"]}
{"timestamp": "2025-12-28T10:35:58.868720Z", "telemetry": {"lat": 28.7531269, "lon": 77.1177571, "satellites": 10, "altitude_gps_m": 213.12998962402344, "groundspeed_mps": 0.39265042543411255}, "flight": {"mode": "STABILIZE", "armed": false}, "ekf": {"attitude": {"roll": -0.0320504792034626, "pitch": 0.0009609637781977654, "yaw": 3.0471975803375244}, "local_position": {"x": 5.5658278465271, "y": -11.46070671081543, "z": -4.201394081115723}, "status": {"flags": 33599, "velocity_variance": 0.2118915319442749, "pos_horiz_variance": 0.0053514279425144196, "pos_vert_variance": 0.016849389299750328}}, "errors": ["PreArm: Hardware safety switch", "PreArm: Internal errors 0x100000 l:66 flow_of_ctrl"]}
{"timestamp": "2025-12-28T10:35:59.868478Z", "telemetry": {"lat": 28.7531287, "lon": 77.1177613, "satellites": 10, "altitude_gps_m": 213.14999389648438, "groundspeed_mps": 0.3500427007675171}, "flight": {"mode": "STABILIZE", "armed": false}, "ekf": {"attitude": {"roll": -0.032251227647066116, "pitch": -0.0001453980803489685, "yaw": 3.0470454692840576}, "local_position": {"x": 5.644082069396973, "y": -11.28271198272705, "z": -4.226480484008789}, "status": {"flags": 33599, "velocity_variance": 0.1162986010313034, "pos_horiz_variance": 0.008864924311637878, "pos_vert_variance": 0.017499186098575592}}, "errors": ["PreArm: Hardware safety switch", "PreArm: Internal errors 0x100000 l:66 flow_of_ctrl"]}
{"timestamp": "2025-12-28T10:36:00.876302Z", "telemetry": {"lat": 28.7531273, "lon": 77.1177631, "satellites": 9, "altitude_gps_m": 213.08999633789062, "groundspeed_mps": 0.2947523593902588}, "flight": {"mode": "STABILIZE", "armed": false}, "ekf": {"attitude": {"roll": -0.03231770172715187, "pitch": -0.001833194401115179, "yaw": 3.0471267700195312}, "local_position": {"x": 5.724374294281006, "y": -11.09715747833252, "z": -4.1719889640808105}, "status": {"flags": 33599, "velocity_variance": 0.19555005431175232, "pos_horiz_variance": 0.005089346785098314, "pos_vert_variance": 0.012531891465187073}}, "errors": ["PreArm: Hardware safety switch", "PreArm: Internal errors 0x100000 l:66 flow_of_ctrl"]}
{"timestamp": "2025-12-28T10:36:01.871185Z", "telemetry": {"lat": 28.753127, "lon": 77.1177639, "satellites": 9, "altitude_gps_m": 213.0800018310547, "groundspeed_mps": 0.2778815031051636}, "flight": {"mode": "STABILIZE", "armed": false}, "ekf": {"attitude": {"roll": -0.03239000216126442, "pitch": -0.002551147248595953, "yaw": 3.0469820499420166}, "local_position": {"x": 5.771548271179199, "y": -10.9232177734375, "z": -4.153553009033203}, "status": {"flags": 33599, "velocity_variance": 0.2311871498823166, "pos_horiz_variance": 0.0018006253521889448, "pos_vert_variance": 0.03877028450369835}}, "errors": ["PreArm: Hardware safety switch", "PreArm: Internal errors 0x100000 l:66 flow_of_ctrl", "PreArm: Hardware safety switch", "PreArm: Internal errors 0x100000 l:66 flow_of_ctrl"]}
