{"timestamp": "2025-12-16T06:30:36.126639Z", "telemetry": {"lat": 28.7530161, "lon": 77.1178789, "satellites": 6, "altitude_gps_m": 196.3199920654297, "groundspeed_mps": 0.056295379996299744}, "flight": {"mode": "STABILIZE", "armed": false}, "ekf": {"attitude": {"roll": -0.030990727245807648, "pitch": 0.035799555480480194, "yaw": 0.8823582530021667}, "local_position": {"x": null, "y": null, "z": null}, "status": {"flags": 135, "velocity_variance": 0.0, "pos_horiz_variance": 0.015165286138653755, "pos_vert_variance": 0.02366667240858078}}, "errors": []}
{"timestamp": "2025-12-16T06:30:37.178140Z", "telemetry": {"lat": 28.7530164, "lon": 77.1178783, "satellites": 6, "altitude_gps_m": 196.36000061035156, "groundspeed_mps": 0.05744326859712601}, "flight": {"mode": "STABILIZE", "armed": false}, "ekf": {"attitude": {"roll": -0.03095458447933197, "pitch": 0.035762205719947815, "yaw": 0.8821162581443787}, "local_position": {"x": null, "y": null, "z": null}, "status": {"flags": 135, "velocity_variance": 0.0, "pos_horiz_variance": 0.015594079159200191, "pos_vert_variance": 0.010651212185621262}}, "errors": []}
{"timestamp": "2025-12-16T06:30:38.219259Z", "telemetry": {"lat": 28.753024, "lon": 77.1178764, "satellites": 6, "altitude_gps_m": 198.1699981689453, "groundspeed_mps": 0.059799037873744965}, "flight": {"mode": "STABILIZE", "armed": false}, "ekf": {"attitude": {"roll": -0.030977267771959305, "pitch": 0.03571400046348572, "yaw": 0.8821612000465393}, "local_position": {"x": null, "y": null, "z": null}, "status": {"flags": 135, "velocity_variance": 0.0, "pos_horiz_variance": 0.016015442088246346, "pos_vert_variance": 0.019843528047204018}}, "errors": []}
{"timestamp": "2025-12-16T06:30:39.218570Z", "telemetry": {"lat": 28.7530311, "lon": 77.1178745, "satellites": 6, "altitude_gps_m": 199.5699920654297, "groundspeed_mps": 0.061253804713487625}, "flight": {"mode": "STABILIZE", "armed": false}, "ekf": {"attitude": {"roll": -0.030880630016326904, "pitch": 0.03573323041200638, "yaw": 0.8821795582771301}, "local_position": {"x": null, "y": null, "z": null}, "status": {"flags": 135, "velocity_variance": 0.0, "pos_horiz_variance": 0.016615884378552437, "pos_vert_variance": 0.0055078184232115746}}, "errors": []}
{"timestamp": "2025-12-16T06:30:40.219160Z", "telemetry": {"lat": 28.7530293, "lon": 77.1178729, "satellites": 6, "altitude_gps_m": 199.9199981689453, "groundspeed_mps": 0.06147646903991699}, "flight": {"mode": "STABILIZE", "armed": false}, "ekf": {"attitude": {"roll": -0.030722301453351974, "pitch": 0.035736873745918274, "yaw": 0.8822376132011414}, "local_position": {"x": null, "y": null, "z": null}, "status": {"flags": 135, "velocity_variance": 0.0, "pos_horiz_variance": 0.01706741563975811, "pos_vert_variance": 0.03702321648597717}}, "errors": []}
{"timestamp": "2025-12-16T06:30:41.238485Z", "telemetry": {"lat": 28.7530308, "lon": 77.1178722, "satellites": 6, "altitude_gps_m": 200.11000061035156, "groundspeed_mps": 0.06079479679465294}, "flight": {"mode": "STABILIZE", "armed": false}, "ekf": {"attitude": {"roll": -0.030542034655809402, "pitch": 0.035683438181877136, "yaw": 0.8820661902427673}, "local_position": {"x": null, "y": null, "z": null}, "status": {"flags": 135, "velocity_variance": 0.0, "pos_horiz_variance": 0.01711897738277912, "pos_vert_variance": 0.023214975371956825}}, "errors": []}
{"timestamp": "2025-12-16T06:30:42.230074Z", "telemetry": {"lat": 28.7530345, "lon": 77.117872, "satellites": 6, "altitude_gps_m": 200.58999633789062, "groundspeed_mps": 0.06045496091246605}, "flight": {"mode": "STABILIZE", "armed": false}, "ekf": {"attitude": {"roll": -0.0304594486951828, "pitch": 0.03580029308795929, "yaw": 0.8820492625236511}, "local_position": {"x": null, "y": null, "z": null}, "status": {"flags": 135, "velocity_variance": 0.0, "pos_horiz_variance": 0.01704077236354351, "pos_vert_variance": 0.022018201649188995}}, "errors": []}
{"timestamp": "2025-12-16T06:30:43.225972Z", "telemetry": {"lat": 28.7530344, "lon": 77.1178705, "satellites": 6, "altitude_gps_m": 201.36000061035156, "groundspeed_mps": 0.060867927968502045}, "flight": {"mode": "STABILIZE", "armed": false}, "ekf": {"attitude": {"roll": -0.030427876859903336, "pitch": 0.03585715591907501, "yaw": 0.882378339767456}, "local_position": {"x": null, "y": null, "z": null}, "status": {"flags": 135, "velocity_variance": 0.0, "pos_horiz_variance": 0.01705833151936531, "pos_vert_variance": 0.01358951535075903}}, "errors": []}
{"timestamp": "2025-12-16T06:30:44.221784Z", "telemetry": {"lat": 28.7530411, "lon": 77.1178694, "satellites": 6, "altitude_gps_m": 201.989990234375, "groundspeed_mps": 0.05809512361884117}, "flight": {"mode": "STABILIZE", "armed": false}, "ekf": {"attitude": {"roll": -0.030375033617019653, "pitch": 0.035905420780181885, "yaw": 0.8827835917472839}, "local_position": {"x": null, "y": null, "z": null}, "status": {"flags": 135, "velocity_variance": 0.0, "pos_horiz_variance": 0.01677525043487549, "pos_vert_variance": 0.060645941644907}}, "errors": []}
{"timestamp": "2025-12-16T06:30:45.222051Z", "telemetry": {"lat": 28.7530523, "lon": 77.1178674, "satellites": 6, "altitude_gps_m": 203.67999267578125, "groundspeed_mps": 0.05764135718345642}, "flight": {"mode": "STABILIZE", "armed": false}, "ekf": {"attitude": {"roll": -0.03026687353849411, "pitch": 0.03597740828990936, "yaw": 0.8828160762786865}, "local_position": {"x": null, "y": null, "z": null}, "status": {"flags": 135, "velocity_variance": 0.0, "pos_horiz_variance": 0.016541028395295143, "pos_vert_variance": 0.0549071803689003}}, "errors": []}
{"timestamp": "2025-12-16T06:30:46.218673Z", "telemetry": {"lat": 28.7530496, "lon": 77.1178681, "satellites": 6, "altitude_gps_m": 203.47000122070312, "groundspeed_mps": 0.05720793455839157}, "flight": {"mode": "STABILIZE", "armed": false}, "ekf": {"attitude": {"roll": -0.03013000264763832, "pitch": 0.036060407757759094, "yaw": 0.8826976418495178}, "local_position": {"x": null, "y": null, "z": null}, "status": {"flags": 135, "velocity_variance": 0.0, "pos_horiz_variance": 0.016396693885326385, "pos_vert_variance": 0.01630096137523651}}, "errors": []}
{"timestamp": "2025-12-16T06:30:47.225463Z", "telemetry": {"lat": 28.7530495, "lon": 77.1178696, "satellites": 6, "altitude_gps_m": 202.69000244140625, "groundspeed_mps": 0.05426027625799179}, "flight": {"mode": "STABILIZE", "armed": false}, "ekf": {"attitude": {"roll": -0.030168138444423676, "pitch": 0.0361037477850914, "yaw": 0.8826032280921936}, "local_position": {"x": null, "y": null, "z": null}, "status": {"flags": 135, "velocity_variance": 0.0, "pos_horiz_variance": 0.015999644994735718, "pos_vert_variance": 0.026461144909262657}}, "errors": []}
{"timestamp": "2025-12-16T06:30:48.218681Z", "telemetry": {"lat": 28.7530545, "lon": 77.1178709, "satellites": 6, "altitude_gps_m": 202.989990234375, "groundspeed_mps": 0.052700676023960114}, "flight": {"mode": "STABILIZE", "armed": false}, "ekf": {"attitude": {"roll": -0.03018835559487343, "pitch": 0.036381639540195465, "yaw": 0.8825005292892456}, "local_position": {"x": null, "y": null, "z": null}, "status": {"flags": 135, "velocity_variance": 0.0, "pos_horiz_variance": 0.01565966196358204, "pos_vert_variance": 0.000919644080568105}}, "errors": []}
{"timestamp": "2025-12-16T06:30:49.218557Z", "telemetry": {"lat": 28.753066, "lon": 77.1178711, "satellites": 6, "altitude_gps_m": 203.83999633789062, "groundspeed_mps": 0.049675457179546356}, "flight": {"mode": "STABILIZE", "armed": false}, "ekf": {"attitude": {"roll": -0.030189383774995804, "pitch": 0.036388881504535675, "yaw": 0.882461428642273}, "local_position": {"x": null, "y": null, "z": null}, "status": {"flags": 135, "velocity_variance": 0.0, "pos_horiz_variance": 0.015105173923075199, "pos_vert_variance": 0.03540898859500885}}, "errors": []}
{"timestamp": "2025-12-16T06:30:50.219116Z", "telemetry": {"lat": 28.7530623, "lon": 77.1178707, "satellites": 6, "altitude_gps_m": 203.44000244140625, "groundspeed_mps": 0.047883860766887665}, "flight": {"mode": "STABILIZE", "armed": false}, "ekf": {"attitude": {"roll": -0.03016548976302147, "pitch": 0.036560676991939545, "yaw": 0.8826058506965637}, "local_position": {"x": null, "y": null, "z": null}, "status": {"flags": 135, "velocity_variance": 0.0, "pos_horiz_variance": 0.014486313797533512, "pos_vert_variance": 0.00862838327884674}}, "errors": []}
{"timestamp": "2025-12-16T06:30:51.219487Z", "telemetry": {"lat": 28.7530691, "lon": 77.1178705, "satellites": 6, "altitude_gps_m": 204.69000244140625, "groundspeed_mps": 0.04613245651125908}, "flight": {"mode": "STABILIZE", "armed": false}, "ekf": {"attitude": {"roll": -0.030119184404611588, "pitch": 0.036685436964035034, "yaw": 0.882759690284729}, "local_position": {"x": null, "y": null, "z": null}, "status": {"flags": 135, "velocity_variance": 0.0, "pos_horiz_variance": 0.013915659859776497, "pos_vert_variance": 0.0286338422447443}}, "errors": []}
{"timestamp": "2025-12-16T06:30:52.237138Z", "telemetry": {"lat": 28.7530718, "lon": 77.1178707, "satellites": 6, "altitude_gps_m": 204.47000122070312, "groundspeed_mps": 0.041829414665699005}, "flight": {"mode": "STABILIZE", "armed": false}, "ekf": {"attitude": {"roll": -0.03014465793967247, "pitch": 0.03682456165552139, "yaw": 0.8826469779014587}, "local_position": {"x": null, "y": null, "z": null}, "status": {"flags": 135, "velocity_variance": 0.0, "pos_horiz_variance": 0.013245008885860443, "pos_vert_variance": 0.023237474262714386}}, "errors": []}
{"timestamp": "2025-12-16T06:30:53.234925Z", "telemetry": {"lat": 28.7530745, "lon": 77.1178703, "satellites": 6, "altitude_gps_m": 204.3699951171875, "groundspeed_mps": 0.038269270211458206}, "flight": {"mode": "STABILIZE", "armed": false}, "ekf": {"attitude": {"roll": -0.030092671513557434, "pitch": 0.036876849830150604, "yaw": 0.882225751876831}, "local_position": {"x": null, "y": null, "z": null}, "status": {"flags": 135, "velocity_variance": 0.0, "pos_horiz_variance": 0.012248924933373928, "pos_vert_variance": 0.10907655954360962}}, "errors": []}
{"timestamp": "2025-12-16T06:30:54.230417Z", "telemetry": {"lat": 28.7530785, "lon": 77.11787, "satellites": 6, "altitude_gps_m": 204.4199981689453, "groundspeed_mps": 0.03705867752432823}, "flight": {"mode": "STABILIZE", "armed": false}, "ekf": {"attitude": {"roll": -0.030056189745664597, "pitch": 0.03707826882600784, "yaw": 0.8823974132537842}, "local_position": {"x": null, "y": null, "z": null}, "status": {"flags": 135, "velocity_variance": 0.0, "pos_horiz_variance": 0.011440136469900608, "pos_vert_variance": 0.004972077440470457}}, "errors": ["PreArm: Hardware safety switch"]}
{"timestamp": "2025-12-16T06:30:55.219861Z", "telemetry": {"lat": 28.7530875, "lon": 77.1178707, "satellites": 6, "altitude_gps_m": 204.77999877929688, "groundspeed_mps": 0.03244329243898392}, "flight": {"mode": "STABILIZE", "armed": false}, "ekf": {"attitude": {"roll": -0.03014295920729637, "pitch": 0.03704836964607239, "yaw": 0.8822005391120911}, "local_position": {"x": null, "y": null, "z": null}, "status": {"flags": 135, "velocity_variance": 0.0, "pos_horiz_variance": 0.010638914071023464, "pos_vert_variance": 0.0015739357331767678}}, "errors": ["PreArm: Hardware safety switch"]}
{"timestamp": "2025-12-16T06:30:56.228804Z", "telemetry": {"lat": 28.7530872, "lon": 77.1178719, "satellites": 6, "altitude_gps_m": 204.09999084472656, "groundspeed_mps": 0.03212691470980644}, "flight": {"mode": "STABILIZE", "armed": false}, "ekf": {"attitude": {"roll": -0.030257169157266617, "pitch": 0.03700000047683716, "yaw": 0.8821418285369873}, "local_position": {"x": null, "y": null, "z": null}, "status": {"flags": 135, "velocity_variance": 0.0, "pos_horiz_variance": 0.009859278798103333, "pos_vert_variance": 0.02258666232228279}}, "errors": ["PreArm: Hardware safety switch"]}
{"timestamp": "2025-12-16T06:30:57.218303Z", "telemetry": {"lat": 28.7530855, "lon": 77.1178713, "satellites": 6, "altitude_gps_m": 203.72000122070312, "groundspeed_mps": 0.03262493386864662}, "flight": {"mode": "STABILIZE", "armed": false}, "ekf": {"attitude": {"roll": -0.030397329479455948, "pitch": 0.03704821318387985, "yaw": 0.8821306228637695}, "local_position": {"x": null, "y": null, "z": null}, "status": {"flags": 135, "velocity_variance": 0.0, "pos_horiz_variance": 0.009571749716997147, "pos_vert_variance": 0.030032694339752197}}, "errors": ["PreArm: Hardware safety switch"]}
{"timestamp": "2025-12-16T06:30:58.219133Z", "telemetry": {"lat": 28.7530922, "lon": 77.1178711, "satellites": 6, "altitude_gps_m": 204.12998962402344, "groundspeed_mps": 0.030369149520993233}, "flight": {"mode": "STABILIZE", "armed": false}, "ekf": {"attitude": {"roll": -0.03034897893667221, "pitch": 0.03700397163629532, "yaw": 0.8819330334663391}, "local_position": {"x": null, "y": null, "z": null}, "status": {"flags": 135, "velocity_variance": 0.0, "pos_horiz_variance": 0.009298085235059261, "pos_vert_variance": 0.06397055089473724}}, "errors": ["PreArm: Hardware safety switch"]}
{"timestamp": "2025-12-16T06:30:59.218453Z", "telemetry": {"lat": 28.7531003, "lon": 77.11787, "satellites": 6, "altitude_gps_m": 204.62998962402344, "groundspeed_mps": 0.03192364051938057}, "flight": {"mode": "STABILIZE", "armed": false}, "ekf": {"attitude": {"roll": -0.030227720737457275, "pitch": 0.0369793176651001, "yaw": 0.8822906613349915}, "local_position": {"x": null, "y": null, "z": null}, "status": {"flags": 135, "velocity_variance": 0.0, "pos_horiz_variance": 0.00908667128533125, "pos_vert_variance": 0.0023321921471506357}}, "errors": ["PreArm: Hardware safety switch"]}
{"timestamp": "2025-12-16T06:31:00.219169Z", "telemetry": {"lat": 28.7531033, "lon": 77.1178703, "satellites": 6, "altitude_gps_m": 204.36000061035156, "groundspeed_mps": 0.0318869985640049}, "flight": {"mode": "STABILIZE", "armed": false}, "ekf": {"attitude": {"roll": -0.030118737369775772, "pitch": 0.03687926381826401, "yaw": 0.8825215697288513}, "local_position": {"x": null, "y": null, "z": null}, "status": {"flags": 135, "velocity_variance": 0.0, "pos_horiz_variance": 0.009259398095309734, "pos_vert_variance": 0.010254199616611004}}, "errors": ["PreArm: Hardware safety switch"]}
{"timestamp": "2025-12-16T06:31:01.218981Z", "telemetry": {"lat": 28.7531073, "lon": 77.1178707, "satellites": 6, "altitude_gps_m": 204.38999938964844, "groundspeed_mps": 0.03288937732577324}, "flight": {"mode": "STABILIZE", "armed": false}, "ekf": {"attitude": {"roll": -0.030011869966983795, "pitch": 0.03678242862224579, "yaw": 0.8821147680282593}, "local_position": {"x": null, "y": null, "z": null}, "status": {"flags": 135, "velocity_variance": 0.0, "pos_horiz_variance": 0.009257437661290169, "pos_vert_variance": 0.0545114204287529}}, "errors": ["PreArm: Hardware safety switch"]}
{"timestamp": "2025-12-16T06:31:02.233699Z", "telemetry": {"lat": 28.7531128, "lon": 77.1178705, "satellites": 6, "altitude_gps_m": 204.34999084472656, "groundspeed_mps": 0.03549354895949364}, "flight": {"mode": "STABILIZE", "armed": false}, "ekf": {"attitude": {"roll": -0.029892321676015854, "pitch": 0.03661051392555237, "yaw": 0.8818954229354858}, "local_position": {"x": null, "y": null, "z": null}, "status": {"flags": 135, "velocity_variance": 0.0, "pos_horiz_variance": 0.009480399079620838, "pos_vert_variance": 0.06442710757255554}}, "errors": ["PreArm: Hardware safety switch"]}
{"timestamp": "2025-12-16T06:31:03.232641Z", "telemetry": {"lat": 28.7531176, "lon": 77.1178707, "satellites": 6, "altitude_gps_m": 204.5699920654297, "groundspeed_mps": 0.04070510342717171}, "flight": {"mode": "STABILIZE", "armed": false}, "ekf": {"attitude": {"roll": -0.029913928359746933, "pitch": 0.03639454394578934, "yaw": 0.8820755481719971}, "local_position": {"x": null, "y": null, "z": null}, "status": {"flags": 135, "velocity_variance": 0.0, "pos_horiz_variance": 0.010268004611134529, "pos_vert_variance": 0.012359199114143848}}, "errors": ["PreArm: Hardware safety switch"]}
{"timestamp": "2025-12-16T06:31:04.224531Z", "telemetry": {"lat": 28.7531141, "lon": 77.1178701, "satellites": 6, "altitude_gps_m": 203.89999389648438, "groundspeed_mps": 0.04336228966712952}, "flight": {"mode": "STABILIZE", "armed": false}, "ekf": {"attitude": {"roll": -0.030082140117883682, "pitch": 0.036198489367961884, "yaw": 0.8820810914039612}, "local_position": {"x": null, "y": null, "z": null}, "status": {"flags": 135, "velocity_variance": 0.0, "pos_horiz_variance": 0.011152764782309532, "pos_vert_variance": 0.0034386867191642523}}, "errors": ["PreArm: Hardware safety switch"]}
{"timestamp": "2025-12-16T06:31:05.228379Z", "telemetry": {"lat": 28.7531083, "lon": 77.1178686, "satellites": 6, "altitude_gps_m": 203.0800018310547, "groundspeed_mps": 0.04962313920259476}, "flight": {"mode": "STABILIZE", "armed": false}, "ekf": {"attitude": {"roll": -0.03017178550362587, "pitch": 0.03605318069458008, "yaw": 0.8817968964576721}, "local_position": {"x": null, "y": null, "z": null}, "status": {"flags": 135, "velocity_variance": 0.0, "pos_horiz_variance": 0.012345746159553528, "pos_vert_variance": 0.01996575854718685}}, "errors": ["PreArm: Hardware safety switch"]}
{"timestamp": "2025-12-16T06:31:06.222265Z", "telemetry": {"lat": 28.7531056, "lon": 77.1178685, "satellites": 6, "altitude_gps_m": 202.37998962402344, "groundspeed_mps": 0.05472717806696892}, "flight": {"mode": "STABILIZE", "armed": false}, "ekf": {"attitude": {"roll": -0.030286338180303574, "pitch": 0.035850562155246735, "yaw": 0.8817742466926575}, "local_position": {"x": null, "y": null, "z": null}, "status": {"flags": 135, "velocity_variance": 0.0, "pos_horiz_variance": 0.013610491529107094, "pos_vert_variance": 0.0009204706293530762}}, "errors": ["PreArm: Hardware safety switch"]}
{"timestamp": "2025-12-16T06:31:07.220257Z", "telemetry": {"lat": 28.7531073, "lon": 77.1178679, "satellites": 6, "altitude_gps_m": 201.95999145507812, "groundspeed_mps": 0.05842002108693123}, "flight": {"mode": "STABILIZE", "armed": false}, "ekf": {"attitude": {"roll": -0.030220143496990204, "pitch": 0.03581085801124573, "yaw": 0.8822168111801147}, "local_position": {"x": null, "y": null, "z": null}, "status": {"flags": 135, "velocity_variance": 0.0, "pos_horiz_variance": 0.01489141397178173, "pos_vert_variance": 0.01455922331660986}}, "errors": ["PreArm: Hardware safety switch"]}
{"timestamp": "2025-12-16T06:31:08.218897Z", "telemetry": {"lat": 28.7531103, "lon": 77.1178672, "satellites": 6, "altitude_gps_m": 202.50999450683594, "groundspeed_mps": 0.05954846367239952}, "flight": {"mode": "STABILIZE", "armed": false}, "ekf": {"attitude": {"roll": -0.03014066442847252, "pitch": 0.03578785061836243, "yaw": 0.8822306394577026}, "local_position": {"x": null, "y": null, "z": null}, "status": {"flags": 135, "velocity_variance": 0.0, "pos_horiz_variance": 0.015799900516867638, "pos_vert_variance": 0.0287888552993536}}, "errors": ["PreArm: Hardware safety switch"]}
{"timestamp": "2025-12-16T06:31:09.218399Z", "telemetry": {"lat": 28.7531149, "lon": 77.1178671, "satellites": 6, "altitude_gps_m": 202.6699981689453, "groundspeed_mps": 0.06306523829698563}, "flight": {"mode": "STABILIZE", "armed": false}, "ekf": {"attitude": {"roll": -0.030001666396856308, "pitch": 0.03577248752117157, "yaw": 0.8818872570991516}, "local_position": {"x": null, "y": null, "z": null}, "status": {"flags": 135, "velocity_variance": 0.0, "pos_horiz_variance": 0.016542280092835426, "pos_vert_variance": 0.004611304495483637}}, "errors": ["PreArm: Hardware safety switch"]}
{"timestamp": "2025-12-16T06:31:10.219070Z", "telemetry": {"lat": 28.7531148, "lon": 77.117867, "satellites": 6, "altitude_gps_m": 202.5399932861328, "groundspeed_mps": 0.06428544968366623}, "flight": {"mode": "STABILIZE", "armed": false}, "ekf": {"attitude": {"roll": -0.030030809342861176, "pitch": 0.03575630486011505, "yaw": 0.8818987011909485}, "local_position": {"x": null, "y": null, "z": null}, "status": {"flags": 135, "velocity_variance": 0.0, "pos_horiz_variance": 0.016702109947800636, "pos_vert_variance": 0.009637515060603619}}, "errors": ["PreArm: Hardware safety switch"]}
{"timestamp": "2025-12-16T06:31:11.218626Z", "telemetry": {"lat": 28.7531148, "lon": 77.117867, "satellites": 6, "altitude_gps_m": 202.5399932861328, "groundspeed_mps": 0.06428544968366623}, "flight": {"mode": "STABILIZE", "armed": false}, "ekf": {"attitude": {"roll": -0.030030809342861176, "pitch": 0.03575630486011505, "yaw": 0.8818987011909485}, "local_position": {"x": null, "y": null, "z": null}, "status": {"flags": 135, "velocity_variance": 0.0, "pos_horiz_variance": 0.016702109947800636, "pos_vert_variance": 0.009637515060603619}}, "errors": ["PreArm: Hardware safety switch"]}
