{"timestamp": "2025-12-28T09:31:01.289463Z", "telemetry": {"lat": 28.7530947, "lon": 77.1178735, "satellites": 8, "altitude_gps_m": 212.51998901367188, "groundspeed_mps": 0.14102071523666382}, "flight": {"mode": "LOITER", "armed": false}, "ekf": {"attitude": {"roll": 0.024852290749549866, "pitch": 0.03014736995100975, "yaw": 0.7275601625442505}, "local_position": {"x": 2.473240852355957, "y": -0.2645961046218872, "z": -3.5895979404449463}, "status": {"flags": 33599, "velocity_variance": 0.24814021587371826, "pos_horiz_variance": 0.007085515186190605, "pos_vert_variance": 0.02471451461315155}}, "errors": []}
{"timestamp": "2025-12-28T09:31:02.336401Z", "telemetry": {"lat": 28.7530957, "lon": 77.1178693, "satellites": 8, "altitude_gps_m": 212.47000122070312, "groundspeed_mps": 0.09639192372560501}, "flight": {"mode": "LOITER", "armed": false}, "ekf": {"attitude": {"roll": 0.024062108248472214, "pitch": 0.030030235648155212, "yaw": 0.7275565266609192}, "local_position": {"x": 2.5395705699920654, "y": -0.3149503767490387, "z": -3.5581979751586914}, "status": {"flags": 33599, "velocity_variance": 0.09948253631591797, "pos_horiz_variance": 0.007595167029649019, "pos_vert_variance": 0.07721313089132309}}, "errors": []}
{"timestamp": "2025-12-28T09:31:03.368530Z", "telemetry": {"lat": 28.753095, "lon": 77.1178608, "satellites": 8, "altitude_gps_m": 212.42999267578125, "groundspeed_mps": 0.13229411840438843}, "flight": {"mode": "LOITER", "armed": false}, "ekf": {"attitude": {"roll": 0.023009900003671646, "pitch": 0.030737778171896935, "yaw": 0.7274801731109619}, "local_position": {"x": 2.5344347953796387, "y": -0.7349125742912292, "z": -3.5180773735046387}, "status": {"flags": 33599, "velocity_variance": 0.19541756808757782, "pos_horiz_variance": 0.011257433332502842, "pos_vert_variance": 0.0034703814890235662}}, "errors": []}
{"timestamp": "2025-12-28T09:31:04.367895Z", "telemetry": {"lat": 28.7530955, "lon": 77.117873, "satellites": 8, "altitude_gps_m": 212.4199981689453, "groundspeed_mps": 0.14532381296157837}, "flight": {"mode": "LOITER", "armed": false}, "ekf": {"attitude": {"roll": 0.023171130567789078, "pitch": 0.03054652363061905, "yaw": 0.7272685766220093}, "local_position": {"x": 2.3893845081329346, "y": -0.8502992987632751, "z": -3.4975576400756836}, "status": {"flags": 33599, "velocity_variance": 0.13374319672584534, "pos_horiz_variance": 0.00836483296006918, "pos_vert_variance": 0.03963645547628403}}, "errors": []}
{"timestamp": "2025-12-28T09:31:05.368766Z", "telemetry": {"lat": 28.7531009, "lon": 77.1178854, "satellites": 8, "altitude_gps_m": 212.39999389648438, "groundspeed_mps": 0.09132393449544907}, "flight": {"mode": "LOITER", "armed": false}, "ekf": {"attitude": {"roll": 0.02274947799742222, "pitch": 0.029487814754247665, "yaw": 0.727051317691803}, "local_position": {"x": 2.540818214416504, "y": -0.6795245409011841, "z": -3.4732818603515625}, "status": {"flags": 33599, "velocity_variance": 0.16179797053337097, "pos_horiz_variance": 0.025149915367364883, "pos_vert_variance": 0.05841810256242752}}, "errors": []}
{"timestamp": "2025-12-28T09:31:06.373698Z", "telemetry": {"lat": 28.7531076, "lon": 77.1178973, "satellites": 8, "altitude_gps_m": 212.50999450683594, "groundspeed_mps": 0.03978947550058365}, "flight": {"mode": "LOITER", "armed": false}, "ekf": {"attitude": {"roll": 0.022611359134316444, "pitch": 0.0280508603900671, "yaw": 0.7269973754882812}, "local_position": {"x": 2.91552472114563, "y": -0.18470457196235657, "z": -3.5838046073913574}, "status": {"flags": 33599, "velocity_variance": 0.13355331122875214, "pos_horiz_variance": 0.037107907235622406, "pos_vert_variance": 0.015513344667851925}}, "errors": ["PreArm: Hardware safety switch", "PreArm: GPS glitching"]}
{"timestamp": "2025-12-28T09:31:07.369580Z", "telemetry": {"lat": 28.7531189, "lon": 77.1179057, "satellites": 8, "altitude_gps_m": 212.47000122070312, "groundspeed_mps": 0.22382809221744537}, "flight": {"mode": "LOITER", "armed": false}, "ekf": {"attitude": {"roll": 0.021258242428302765, "pitch": 0.02603638544678688, "yaw": 0.7269467115402222}, "local_position": {"x": 3.665003538131714, "y": 0.3697379529476166, "z": -3.5439231395721436}, "status": {"flags": 33599, "velocity_variance": 0.2621787488460541, "pos_horiz_variance": 0.0450228750705719, "pos_vert_variance": 0.030324384570121765}}, "errors": ["PreArm: Hardware safety switch", "PreArm: GPS glitching"]}
{"timestamp": "2025-12-28T09:31:08.368799Z", "telemetry": {"lat": 28.7531295, "lon": 77.1179148, "satellites": 8, "altitude_gps_m": 212.47000122070312, "groundspeed_mps": 0.44979074597358704}, "flight": {"mode": "LOITER", "armed": false}, "ekf": {"attitude": {"roll": 0.020554183050990105, "pitch": 0.024043342098593712, "yaw": 0.7269517779350281}, "local_position": {"x": 4.754673957824707, "y": 1.0720250606536865, "z": -3.537808656692505}, "status": {"flags": 33599, "velocity_variance": 0.15324272215366364, "pos_horiz_variance": 0.05035737529397011, "pos_vert_variance": 0.02835303172469139}}, "errors": ["PreArm: Hardware safety switch", "PreArm: GPS glitching"]}
{"timestamp": "2025-12-28T09:31:09.368120Z", "telemetry": {"lat": 28.7531365, "lon": 77.1179228, "satellites": 8, "altitude_gps_m": 212.47000122070312, "groundspeed_mps": 0.5982738733291626}, "flight": {"mode": "LOITER", "armed": false}, "ekf": {"attitude": {"roll": 0.020855464041233063, "pitch": 0.022595172747969627, "yaw": 0.7271694540977478}, "local_position": {"x": 5.507426738739014, "y": 2.0999627113342285, "z": -3.5467727184295654}, "status": {"flags": 33599, "velocity_variance": 0.22777672111988068, "pos_horiz_variance": 0.04851619899272919, "pos_vert_variance": 0.03931063041090965}}, "errors": ["PreArm: Hardware safety switch", "PreArm: GPS glitching"]}
{"timestamp": "2025-12-28T09:31:10.368371Z", "telemetry": {"lat": 28.7531355, "lon": 77.1179273, "satellites": 8, "altitude_gps_m": 212.5399932861328, "groundspeed_mps": 0.643913209438324}, "flight": {"mode": "LOITER", "armed": false}, "ekf": {"attitude": {"roll": 0.02173171192407608, "pitch": 0.02284754067659378, "yaw": 0.7272960543632507}, "local_position": {"x": 5.967392921447754, "y": 2.9382266998291016, "z": -3.6169686317443848}, "status": {"flags": 33599, "velocity_variance": 0.29716891050338745, "pos_horiz_variance": 0.039668694138526917, "pos_vert_variance": 0.009745116345584393}}, "errors": ["PreArm: Hardware safety switch", "PreArm: GPS glitching"]}
{"timestamp": "2025-12-28T09:31:11.368994Z", "telemetry": {"lat": 28.7531329, "lon": 77.1179353, "satellites": 8, "altitude_gps_m": 212.6199951171875, "groundspeed_mps": 0.6300594806671143}, "flight": {"mode": "LOITER", "armed": false}, "ekf": {"attitude": {"roll": 0.023844612762331963, "pitch": 0.02356594242155552, "yaw": 0.7275004386901855}, "local_position": {"x": 5.969656467437744, "y": 3.83443021774292, "z": -3.6953277587890625}, "status": {"flags": 33599, "velocity_variance": 0.4322536587715149, "pos_horiz_variance": 0.03684277832508087, "pos_vert_variance": 0.014323937706649303}}, "errors": ["PreArm: Hardware safety switch", "PreArm: GPS glitching"]}
{"timestamp": "2025-12-28T09:31:12.368748Z", "telemetry": {"lat": 28.7531315, "lon": 77.1179402, "satellites": 8, "altitude_gps_m": 212.75, "groundspeed_mps": 0.6470755934715271}, "flight": {"mode": "LOITER", "armed": false}, "ekf": {"attitude": {"roll": 0.024910077452659607, "pitch": 0.02438252791762352, "yaw": 0.7277283072471619}, "local_position": {"x": 5.952715873718262, "y": 4.526856899261475, "z": -3.78817081451416}, "status": {"flags": 33599, "velocity_variance": 0.2816367447376251, "pos_horiz_variance": 0.032332513481378555, "pos_vert_variance": 0.0023384173400700092}}, "errors": ["PreArm: Hardware safety switch", "PreArm: GPS glitching"]}
{"timestamp": "2025-12-28T09:31:13.368469Z", "telemetry": {"lat": 28.753127, "lon": 77.117946, "satellites": 8, "altitude_gps_m": 212.67999267578125, "groundspeed_mps": 0.6637413501739502}, "flight": {"mode": "LOITER", "armed": false}, "ekf": {"attitude": {"roll": 0.02606026828289032, "pitch": 0.02528216503560543, "yaw": 0.7278203964233398}, "local_position": {"x": 5.996318340301514, "y": 5.5896501541137695, "z": -3.7500827312469482}, "status": {"flags": 33599, "velocity_variance": 0.3575281798839569, "pos_horiz_variance": 0.026014521718025208, "pos_vert_variance": 0.04505917429924011}}, "errors": ["PreArm: Hardware safety switch", "PreArm: GPS glitching"]}
{"timestamp": "2025-12-28T09:31:14.368839Z", "telemetry": {"lat": 28.7531217, "lon": 77.1179527, "satellites": 8, "altitude_gps_m": 212.70999145507812, "groundspeed_mps": 0.7055304050445557}, "flight": {"mode": "LOITER", "armed": false}, "ekf": {"attitude": {"roll": 0.027592653408646584, "pitch": 0.026150131598114967, "yaw": 0.7280042171478271}, "local_position": {"x": 5.686213970184326, "y": 6.5223798751831055, "z": -3.784400224685669}, "status": {"flags": 33599, "velocity_variance": 0.2779787480831146, "pos_horiz_variance": 0.022335266694426537, "pos_vert_variance": 0.049517132341861725}}, "errors": ["PreArm: Hardware safety switch", "PreArm: GPS glitching"]}
{"timestamp": "2025-12-28T09:31:15.368696Z", "telemetry": {"lat": 28.7531169, "lon": 77.1179504, "satellites": 8, "altitude_gps_m": 212.6999969482422, "groundspeed_mps": 0.613338053226471}, "flight": {"mode": "LOITER", "armed": false}, "ekf": {"attitude": {"roll": 0.02673882432281971, "pitch": 0.028206586837768555, "yaw": 0.7280563116073608}, "local_position": {"x": 5.5027852058410645, "y": 6.817859172821045, "z": -3.7690701484680176}, "status": {"flags": 33599, "velocity_variance": 0.24699464440345764, "pos_horiz_variance": 0.0203833170235157, "pos_vert_variance": 0.06892267614603043}}, "errors": ["PreArm: Hardware safety switch", "PreArm: GPS glitching"]}
{"timestamp": "2025-12-28T09:31:16.374234Z", "telemetry": {"lat": 28.7531135, "lon": 77.1179521, "satellites": 8, "altitude_gps_m": 212.62998962402344, "groundspeed_mps": 0.5774540901184082}, "flight": {"mode": "LOITER", "armed": false}, "ekf": {"attitude": {"roll": 0.02637682855129242, "pitch": 0.029109913855791092, "yaw": 0.7281320095062256}, "local_position": {"x": 5.057020664215088, "y": 7.294870376586914, "z": -3.7113687992095947}, "status": {"flags": 33599, "velocity_variance": 0.3305465877056122, "pos_horiz_variance": 0.016356855630874634, "pos_vert_variance": 0.07541245967149734}}, "errors": ["PreArm: Hardware safety switch", "PreArm: GPS glitching"]}
{"timestamp": "2025-12-28T09:31:17.374295Z", "telemetry": {"lat": 28.7531101, "lon": 77.1179503, "satellites": 8, "altitude_gps_m": 212.6999969482422, "groundspeed_mps": 0.4981608986854553}, "flight": {"mode": "LOITER", "armed": false}, "ekf": {"attitude": {"roll": 0.0253871139138937, "pitch": 0.029816584661602974, "yaw": 0.728267252445221}, "local_position": {"x": 4.886043071746826, "y": 7.528589725494385, "z": -3.7715089321136475}, "status": {"flags": 33599, "velocity_variance": 0.22171248495578766, "pos_horiz_variance": 0.020435087382793427, "pos_vert_variance": 0.007149193901568651}}, "errors": ["PreArm: Hardware safety switch", "PreArm: GPS glitching"]}
{"timestamp": "2025-12-28T09:31:18.369575Z", "telemetry": {"lat": 28.7531063, "lon": 77.1179509, "satellites": 8, "altitude_gps_m": 212.54998779296875, "groundspeed_mps": 0.49098363518714905}, "flight": {"mode": "LOITER", "armed": false}, "ekf": {"attitude": {"roll": 0.025387629866600037, "pitch": 0.0309477336704731, "yaw": 0.72825026512146}, "local_position": {"x": 4.336475849151611, "y": 7.808651924133301, "z": -3.6236631870269775}, "status": {"flags": 33599, "velocity_variance": 0.40465328097343445, "pos_horiz_variance": 0.018539752811193466, "pos_vert_variance": 0.029818173497915268}}, "errors": ["PreArm: Hardware safety switch", "PreArm: GPS glitching"]}
{"timestamp": "2025-12-28T09:31:19.368589Z", "telemetry": {"lat": 28.7530997, "lon": 77.1179466, "satellites": 9, "altitude_gps_m": 212.489990234375, "groundspeed_mps": 0.40982484817504883}, "flight": {"mode": "LOITER", "armed": false}, "ekf": {"attitude": {"roll": 0.024270350113511086, "pitch": 0.03221440315246582, "yaw": 0.7283372282981873}, "local_position": {"x": 3.9614968299865723, "y": 7.78579044342041, "z": -3.5657906532287598}, "status": {"flags": 33599, "velocity_variance": 0.2956515848636627, "pos_horiz_variance": 0.027530621737241745, "pos_vert_variance": 0.010414106771349907}}, "errors": ["PreArm: Hardware safety switch", "PreArm: GPS glitching"]}
{"timestamp": "2025-12-28T09:31:20.367888Z", "telemetry": {"lat": 28.7530963, "lon": 77.1179409, "satellites": 9, "altitude_gps_m": 212.55999755859375, "groundspeed_mps": 0.29360663890838623}, "flight": {"mode": "LOITER", "armed": false}, "ekf": {"attitude": {"roll": 0.022313306108117104, "pitch": 0.032451268285512924, "yaw": 0.7282825112342834}, "local_position": {"x": 3.6599230766296387, "y": 7.50754976272583, "z": -3.635286569595337}, "status": {"flags": 33599, "velocity_variance": 0.17732638120651245, "pos_horiz_variance": 0.03245958685874939, "pos_vert_variance": 0.009910227730870247}}, "errors": ["PreArm: Hardware safety switch", "PreArm: GPS glitching"]}
{"timestamp": "2025-12-28T09:31:21.368192Z", "telemetry": {"lat": 28.7530984, "lon": 77.1179359, "satellites": 9, "altitude_gps_m": 212.5699920654297, "groundspeed_mps": 0.15726906061172485}, "flight": {"mode": "LOITER", "armed": false}, "ekf": {"attitude": {"roll": 0.020221805199980736, "pitch": 0.032228752970695496, "yaw": 0.7281728982925415}, "local_position": {"x": 3.6203978061676025, "y": 7.1257004737854, "z": -3.6400177478790283}, "status": {"flags": 33599, "velocity_variance": 0.28571873903274536, "pos_horiz_variance": 0.03044966608285904, "pos_vert_variance": 0.010732706636190414}}, "errors": ["PreArm: Hardware safety switch", "PreArm: GPS glitching"]}
{"timestamp": "2025-12-28T09:31:22.368200Z", "telemetry": {"lat": 28.7530993, "lon": 77.1179337, "satellites": 9, "altitude_gps_m": 212.51998901367188, "groundspeed_mps": 0.14719876646995544}, "flight": {"mode": "LOITER", "armed": false}, "ekf": {"attitude": {"roll": 0.019246630370616913, "pitch": 0.03244392201304436, "yaw": 0.7278755903244019}, "local_position": {"x": 3.6117398738861084, "y": 6.830688953399658, "z": -3.6015403270721436}, "status": {"flags": 33599, "velocity_variance": 0.09966479241847992, "pos_horiz_variance": 0.02665732428431511, "pos_vert_variance": 0.038999274373054504}}, "errors": ["PreArm: Hardware safety switch", "PreArm: GPS glitching"]}
{"timestamp": "2025-12-28T09:31:23.368829Z", "telemetry": {"lat": 28.7531069, "lon": 77.1179281, "satellites": 9, "altitude_gps_m": 212.39999389648438, "groundspeed_mps": 0.2656209468841553}, "flight": {"mode": "LOITER", "armed": false}, "ekf": {"attitude": {"roll": 0.01666426844894886, "pitch": 0.0322045274078846, "yaw": 0.7274897694587708}, "local_position": {"x": 3.7315778732299805, "y": 6.076125144958496, "z": -3.472280740737915}, "status": {"flags": 33599, "velocity_variance": 0.29851776361465454, "pos_horiz_variance": 0.01969553902745247, "pos_vert_variance": 0.031012428924441338}}, "errors": ["PreArm: Hardware safety switch", "PreArm: GPS glitching"]}
{"timestamp": "2025-12-28T09:31:24.368786Z", "telemetry": {"lat": 28.7531025, "lon": 77.1179235, "satellites": 9, "altitude_gps_m": 212.42999267578125, "groundspeed_mps": 0.37085750699043274}, "flight": {"mode": "LOITER", "armed": false}, "ekf": {"attitude": {"roll": 0.01617681048810482, "pitch": 0.03264721855521202, "yaw": 0.7271592617034912}, "local_position": {"x": 3.693300247192383, "y": 5.7397260665893555, "z": -3.5074141025543213}, "status": {"flags": 33599, "velocity_variance": 0.055285461246967316, "pos_horiz_variance": 0.024557312950491905, "pos_vert_variance": 0.015309999696910381}}, "errors": ["PreArm: Hardware safety switch", "PreArm: GPS glitching"]}
{"timestamp": "2025-12-28T09:31:25.368878Z", "telemetry": {"lat": 28.7530984, "lon": 77.1179153, "satellites": 9, "altitude_gps_m": 212.39999389648438, "groundspeed_mps": 0.48075607419013977}, "flight": {"mode": "LOITER", "armed": false}, "ekf": {"attitude": {"roll": 0.016216706484556198, "pitch": 0.03322909027338028, "yaw": 0.7268640398979187}, "local_position": {"x": 3.433576822280884, "y": 4.900502681732178, "z": -3.4768712520599365}, "status": {"flags": 33599, "velocity_variance": 0.2551226317882538, "pos_horiz_variance": 0.027259206399321556, "pos_vert_variance": 0.012522467412054539}}, "errors": ["PreArm: Hardware safety switch", "PreArm: GPS glitching"]}
{"timestamp": "2025-12-28T09:31:26.368750Z", "telemetry": {"lat": 28.7530926, "lon": 77.1179097, "satellites": 9, "altitude_gps_m": 212.4199981689453, "groundspeed_mps": 0.5444527268409729}, "flight": {"mode": "LOITER", "armed": false}, "ekf": {"attitude": {"roll": 0.01701701432466507, "pitch": 0.03357468545436859, "yaw": 0.7265082001686096}, "local_position": {"x": 2.951385498046875, "y": 4.363949775695801, "z": -3.4894652366638184}, "status": {"flags": 33599, "velocity_variance": 0.43866074085235596, "pos_horiz_variance": 0.02973196841776371, "pos_vert_variance": 0.03205602243542671}}, "errors": ["PreArm: Hardware safety switch", "PreArm: GPS glitching"]}
{"timestamp": "2025-12-28T09:31:27.373584Z", "telemetry": {"lat": 28.753087, "lon": 77.1179032, "satellites": 9, "altitude_gps_m": 212.3699951171875, "groundspeed_mps": 0.5777117609977722}, "flight": {"mode": "LOITER", "armed": false}, "ekf": {"attitude": {"roll": 0.018065903335809708, "pitch": 0.03359001502394676, "yaw": 0.7261911034584045}, "local_position": {"x": 2.4850478172302246, "y": 4.04811954498291, "z": -3.459385871887207}, "status": {"flags": 33599, "velocity_variance": 0.07424311339855194, "pos_horiz_variance": 0.03173503279685974, "pos_vert_variance": 0.027385873720049858}}, "errors": ["PreArm: Hardware safety switch", "PreArm: GPS glitching"]}
{"timestamp": "2025-12-28T09:31:28.369823Z", "telemetry": {"lat": 28.753083, "lon": 77.1178896, "satellites": 9, "altitude_gps_m": 212.39999389648438, "groundspeed_mps": 0.691743016242981}, "flight": {"mode": "LOITER", "armed": false}, "ekf": {"attitude": {"roll": 0.016910655423998833, "pitch": 0.03366284444928169, "yaw": 0.7258661389350891}, "local_position": {"x": 2.0928547382354736, "y": 2.9777567386627197, "z": -3.4817140102386475}, "status": {"flags": 33599, "velocity_variance": 0.1853344738483429, "pos_horiz_variance": 0.040260959416627884, "pos_vert_variance": 0.048782821744680405}}, "errors": ["PreArm: Hardware safety switch", "PreArm: GPS glitching"]}
{"timestamp": "2025-12-28T09:31:29.368067Z", "telemetry": {"lat": 28.753078, "lon": 77.1178807, "satellites": 9, "altitude_gps_m": 212.489990234375, "groundspeed_mps": 0.7826128005981445}, "flight": {"mode": "LOITER", "armed": false}, "ekf": {"attitude": {"roll": 0.01738411746919155, "pitch": 0.033864833414554596, "yaw": 0.7254541516304016}, "local_position": {"x": 1.560915231704712, "y": 2.066148042678833, "z": -3.5628862380981445}, "status": {"flags": 33599, "velocity_variance": 0.20824290812015533, "pos_horiz_variance": 0.04121086373925209, "pos_vert_variance": 0.051541656255722046}}, "errors": ["PreArm: Hardware safety switch", "PreArm: GPS glitching"]}
{"timestamp": "2025-12-28T09:31:30.368669Z", "telemetry": {"lat": 28.7530793, "lon": 77.1178722, "satellites": 9, "altitude_gps_m": 212.4099884033203, "groundspeed_mps": 0.8790075182914734}, "flight": {"mode": "LOITER", "armed": false}, "ekf": {"attitude": {"roll": 0.016391044482588768, "pitch": 0.03298202529549599, "yaw": 0.7251340746879578}, "local_position": {"x": 1.4318184852600098, "y": 0.962348461151123, "z": -3.4805238246917725}, "status": {"flags": 33599, "velocity_variance": 0.25815868377685547, "pos_horiz_variance": 0.03415682539343834, "pos_vert_variance": 0.002803002716973424}}, "errors": ["PreArm: Hardware safety switch", "PreArm: GPS glitching"]}
{"timestamp": "2025-12-28T09:31:31.368747Z", "telemetry": {"lat": 28.7530756, "lon": 77.1178706, "satellites": 9, "altitude_gps_m": 212.37998962402344, "groundspeed_mps": 0.8553369045257568}, "flight": {"mode": "LOITER", "armed": false}, "ekf": {"attitude": {"roll": 0.018399234861135483, "pitch": 0.032357946038246155, "yaw": 0.7246713042259216}, "local_position": {"x": 0.9351136088371277, "y": 0.31141549348831177, "z": -3.4498724937438965}, "status": {"flags": 33599, "velocity_variance": 0.376010000705719, "pos_horiz_variance": 0.026507703587412834, "pos_vert_variance": 0.02749331295490265}}, "errors": ["PreArm: Hardware safety switch", "PreArm: GPS glitching"]}
{"timestamp": "2025-12-28T09:31:32.367947Z", "telemetry": {"lat": 28.7530669, "lon": 77.1178625, "satellites": 9, "altitude_gps_m": 212.42999267578125, "groundspeed_mps": 0.8502572178840637}, "flight": {"mode": "LOITER", "armed": false}, "ekf": {"attitude": {"roll": 0.01998641900718212, "pitch": 0.032331399619579315, "yaw": 0.7245274782180786}, "local_position": {"x": 0.22198861837387085, "y": -0.30633285641670227, "z": -3.5083093643188477}, "status": {"flags": 33599, "velocity_variance": 0.17215928435325623, "pos_horiz_variance": 0.03220977261662483, "pos_vert_variance": 0.040024057030677795}}, "errors": ["PreArm: Hardware safety switch", "PreArm: GPS glitching"]}
{"timestamp": "2025-12-28T09:31:33.368851Z", "telemetry": {"lat": 28.7530688, "lon": 77.1178609, "satellites": 9, "altitude_gps_m": 212.39999389648438, "groundspeed_mps": 0.817401647567749}, "flight": {"mode": "LOITER", "armed": false}, "ekf": {"attitude": {"roll": 0.0205009113997221, "pitch": 0.030736299231648445, "yaw": 0.724669337272644}, "local_position": {"x": -0.2173401117324829, "y": -0.9301231503486633, "z": -3.472074508666992}, "status": {"flags": 33599, "velocity_variance": 0.32689598202705383, "pos_horiz_variance": 0.01696198619902134, "pos_vert_variance": 0.05635291710495949}}, "errors": ["PreArm: Hardware safety switch", "PreArm: GPS glitching"]}
{"timestamp": "2025-12-28T09:31:34.368782Z", "telemetry": {"lat": 28.7530657, "lon": 77.117858, "satellites": 8, "altitude_gps_m": 212.36000061035156, "groundspeed_mps": 0.7316201329231262}, "flight": {"mode": "LOITER", "armed": false}, "ekf": {"attitude": {"roll": 0.02170540951192379, "pitch": 0.02960945852100849, "yaw": 0.724673867225647}, "local_position": {"x": -0.5186401009559631, "y": -1.3401014804840088, "z": -3.4366140365600586}, "status": {"flags": 33599, "velocity_variance": 0.14385944604873657, "pos_horiz_variance": 0.015478357672691345, "pos_vert_variance": 0.034505460411310196}}, "errors": ["PreArm: Hardware safety switch", "PreArm: GPS glitching"]}
{"timestamp": "2025-12-28T09:31:35.368144Z", "telemetry": {"lat": 28.7530704, "lon": 77.1178594, "satellites": 9, "altitude_gps_m": 212.29998779296875, "groundspeed_mps": 0.6472487449645996}, "flight": {"mode": "LOITER", "armed": false}, "ekf": {"attitude": {"roll": 0.022719910368323326, "pitch": 0.02811816893517971, "yaw": 0.724810779094696}, "local_position": {"x": -0.879411518573761, "y": -1.654219150543213, "z": -3.3798489570617676}, "status": {"flags": 33599, "velocity_variance": 0.1922750622034073, "pos_horiz_variance": 0.0035614091902971268, "pos_vert_variance": 0.017436927184462547}}, "errors": ["PreArm: Hardware safety switch", "PreArm: GPS glitching"]}
{"timestamp": "2025-12-28T09:31:36.368258Z", "telemetry": {"lat": 28.7530797, "lon": 77.1178612, "satellites": 9, "altitude_gps_m": 212.38999938964844, "groundspeed_mps": 0.483069509267807}, "flight": {"mode": "LOITER", "armed": false}, "ekf": {"attitude": {"roll": 0.02297007478773594, "pitch": 0.0256072748452425, "yaw": 0.7250607013702393}, "local_position": {"x": -0.6673759818077087, "y": -1.7836406230926514, "z": -3.4653446674346924}, "status": {"flags": 33599, "velocity_variance": 0.277912974357605, "pos_horiz_variance": 0.018900403752923012, "pos_vert_variance": 0.021956197917461395}}, "errors": ["PreArm: Hardware safety switch", "PreArm: GPS glitching", "PreArm: Hardware safety switch", "PreArm: GPS glitching"]}
{"timestamp": "2025-12-28T09:31:37.373354Z", "telemetry": {"lat": 28.7530814, "lon": 77.1178608, "satellites": 9, "altitude_gps_m": 212.37998962402344, "groundspeed_mps": 0.34440839290618896}, "flight": {"mode": "LOITER", "armed": false}, "ekf": {"attitude": {"roll": 0.02388542704284191, "pitch": 0.024268507957458496, "yaw": 0.7252621054649353}, "local_position": {"x": -0.5268962979316711, "y": -1.807992696762085, "z": -3.457712173461914}, "status": {"flags": 33599, "velocity_variance": 0.181522935628891, "pos_horiz_variance": 0.02063298411667347, "pos_vert_variance": 0.010926779359579086}}, "errors": ["PreArm: Hardware safety switch", "PreArm: GPS glitching", "PreArm: Hardware safety switch", "PreArm: GPS glitching"]}
{"timestamp": "2025-12-28T09:31:38.373233Z", "telemetry": {"lat": 28.7530802, "lon": 77.1178535, "satellites": 9, "altitude_gps_m": 212.4099884033203, "groundspeed_mps": 0.3020719885826111}, "flight": {"mode": "LOITER", "armed": false}, "ekf": {"attitude": {"roll": 0.02417236566543579, "pitch": 0.02411343716084957, "yaw": 0.725345253944397}, "local_position": {"x": -0.5461486577987671, "y": -2.0823445320129395, "z": -3.488847255706787}, "status": {"flags": 33599, "velocity_variance": 0.04210413619875908, "pos_horiz_variance": 0.01842433586716652, "pos_vert_variance": 0.044767849147319794}}, "errors": ["PreArm: Hardware safety switch", "PreArm: GPS glitching", "PreArm: Hardware safety switch", "PreArm: GPS glitching"]}
{"timestamp": "2025-12-28T09:31:39.370025Z", "telemetry": {"lat": 28.7530878, "lon": 77.1178569, "satellites": 10, "altitude_gps_m": 212.47999572753906, "groundspeed_mps": 0.2003975361585617}, "flight": {"mode": "LOITER", "armed": false}, "ekf": {"attitude": {"roll": 0.02448856644332409, "pitch": 0.022659556940197945, "yaw": 0.7255141139030457}, "local_position": {"x": -0.31725186109542847, "y": -2.163632869720459, "z": -3.5528852939605713}, "status": {"flags": 33599, "velocity_variance": 0.19678841531276703, "pos_horiz_variance": 0.03041744977235794, "pos_vert_variance": 0.0060289460234344006}}, "errors": ["PreArm: Hardware safety switch", "PreArm: GPS glitching", "PreArm: Hardware safety switch", "PreArm: GPS glitching"]}
{"timestamp": "2025-12-28T09:31:40.368416Z", "telemetry": {"lat": 28.7530923, "lon": 77.1178538, "satellites": 10, "altitude_gps_m": 212.58999633789062, "groundspeed_mps": 0.23193959891796112}, "flight": {"mode": "LOITER", "armed": false}, "ekf": {"attitude": {"roll": 0.02338738925755024, "pitch": 0.021085621789097786, "yaw": 0.7257381677627563}, "local_position": {"x": 0.45963621139526367, "y": -2.3312172889709473, "z": -3.664215087890625}, "status": {"flags": 33599, "velocity_variance": 0.17672060430049896, "pos_horiz_variance": 0.025509998202323914, "pos_vert_variance": 0.0194468405097723}}, "errors": ["PreArm: Hardware safety switch", "PreArm: GPS glitching", "PreArm: Hardware safety switch", "PreArm: GPS glitching"]}
{"timestamp": "2025-12-28T09:31:41.368414Z", "telemetry": {"lat": 28.753094, "lon": 77.1178533, "satellites": 10, "altitude_gps_m": 212.6699981689453, "groundspeed_mps": 0.22849546372890472}, "flight": {"mode": "LOITER", "armed": false}, "ekf": {"attitude": {"roll": 0.023899972438812256, "pitch": 0.020902520045638084, "yaw": 0.725934624671936}, "local_position": {"x": 0.728359043598175, "y": -2.4447383880615234, "z": -3.7443840503692627}, "status": {"flags": 33599, "velocity_variance": 0.17898958921432495, "pos_horiz_variance": 0.0260500218719244, "pos_vert_variance": 0.031043902039527893}}, "errors": ["PreArm: Hardware safety switch", "PreArm: GPS glitching", "PreArm: Hardware safety switch", "PreArm: GPS glitching"]}
{"timestamp": "2025-12-28T09:31:42.368727Z", "telemetry": {"lat": 28.753098, "lon": 77.1178547, "satellites": 10, "altitude_gps_m": 212.7899932861328, "groundspeed_mps": 0.3109668493270874}, "flight": {"mode": "LOITER", "armed": false}, "ekf": {"attitude": {"roll": 0.02418586052954197, "pitch": 0.019676867872476578, "yaw": 0.72624272108078}, "local_position": {"x": 1.305940866470337, "y": -2.3063526153564453, "z": -3.8671722412109375}, "status": {"flags": 33599, "velocity_variance": 0.2066049724817276, "pos_horiz_variance": 0.023503141477704048, "pos_vert_variance": 0.04211600497364998}}, "errors": ["PreArm: Hardware safety switch", "PreArm: GPS glitching", "PreArm: Hardware safety switch", "PreArm: GPS glitching"]}
{"timestamp": "2025-12-28T09:31:43.368119Z", "telemetry": {"lat": 28.7531004, "lon": 77.1178574, "satellites": 10, "altitude_gps_m": 212.75, "groundspeed_mps": 0.3993533253669739}, "flight": {"mode": "LOITER", "armed": false}, "ekf": {"attitude": {"roll": 0.025138171389698982, "pitch": 0.018566936254501343, "yaw": 0.7267197966575623}, "local_position": {"x": 1.7459938526153564, "y": -1.8834575414657593, "z": -3.8209292888641357}, "status": {"flags": 33599, "velocity_variance": 0.2575494945049286, "pos_horiz_variance": 0.021184787154197693, "pos_vert_variance": 0.07818613946437836}}, "errors": ["PreArm: Hardware safety switch", "PreArm: GPS glitching", "PreArm: Hardware safety switch", "PreArm: GPS glitching"]}
{"timestamp": "2025-12-28T09:31:44.368603Z", "telemetry": {"lat": 28.7530957, "lon": 77.1178543, "satellites": 10, "altitude_gps_m": 212.6699981689453, "groundspeed_mps": 0.4588817358016968}, "flight": {"mode": "LOITER", "armed": false}, "ekf": {"attitude": {"roll": 0.026187093928456306, "pitch": 0.018927283585071564, "yaw": 0.7272060513496399}, "local_position": {"x": 2.122972011566162, "y": -1.655500054359436, "z": -3.7432804107666016}, "status": {"flags": 33599, "velocity_variance": 0.45363011956214905, "pos_horiz_variance": 0.00694873183965683, "pos_vert_variance": 0.02478674054145813}}, "errors": ["PreArm: Hardware safety switch", "PreArm: GPS glitching", "PreArm: Hardware safety switch", "PreArm: GPS glitching"]}
{"timestamp": "2025-12-28T09:31:45.368376Z", "telemetry": {"lat": 28.7531015, "lon": 77.1178531, "satellites": 10, "altitude_gps_m": 212.77999877929688, "groundspeed_mps": 0.5029575228691101}, "flight": {"mode": "LOITER", "armed": false}, "ekf": {"attitude": {"roll": 0.025104539468884468, "pitch": 0.01893228478729725, "yaw": 0.7275254130363464}, "local_position": {"x": 2.5568127632141113, "y": -1.7012906074523926, "z": -3.8559136390686035}, "status": {"flags": 33599, "velocity_variance": 0.17654506862163544, "pos_horiz_variance": 0.010518724098801613, "pos_vert_variance": 0.008369360119104385}}, "errors": ["PreArm: Hardware safety switch", "PreArm: GPS glitching", "PreArm: Hardware safety switch", "PreArm: GPS glitching"]}
{"timestamp": "2025-12-28T09:31:46.367867Z", "telemetry": {"lat": 28.7531053, "lon": 77.117853, "satellites": 10, "altitude_gps_m": 212.70999145507812, "groundspeed_mps": 0.5751214027404785}, "flight": {"mode": "LOITER", "armed": false}, "ekf": {"attitude": {"roll": 0.02469533123075962, "pitch": 0.018960611894726753, "yaw": 0.7278100252151489}, "local_position": {"x": 3.069532632827759, "y": -1.7570860385894775, "z": -3.8282291889190674}, "status": {"flags": 33599, "velocity_variance": 0.14366278052330017, "pos_horiz_variance": 0.009618088603019714, "pos_vert_variance": 0.07638079673051834}}, "errors": ["PreArm: Hardware safety switch", "PreArm: GPS glitching", "PreArm: Hardware safety switch", "PreArm: GPS glitching"]}
{"timestamp": "2025-12-28T09:31:47.368270Z", "telemetry": {"lat": 28.7531007, "lon": 77.1178505, "satellites": 10, "altitude_gps_m": 212.75, "groundspeed_mps": 0.5249249339103699}, "flight": {"mode": "LOITER", "armed": false}, "ekf": {"attitude": {"roll": 0.02584906853735447, "pitch": 0.0203278549015522, "yaw": 0.7283443808555603}, "local_position": {"x": 3.239553928375244, "y": -1.7094502449035645, "z": -3.8252978324890137}, "status": {"flags": 33599, "velocity_variance": 0.20606519281864166, "pos_horiz_variance": 0.014486963860690594, "pos_vert_variance": 0.05949510261416435}}, "errors": ["PreArm: Hardware safety switch", "PreArm: GPS glitching", "PreArm: Hardware safety switch", "PreArm: GPS glitching"]}
{"timestamp": "2025-12-28T09:31:48.373080Z", "telemetry": {"lat": 28.7530976, "lon": 77.1178476, "satellites": 9, "altitude_gps_m": 212.72000122070312, "groundspeed_mps": 0.44241026043891907}, "flight": {"mode": "LOITER", "armed": false}, "ekf": {"attitude": {"roll": 0.026178738102316856, "pitch": 0.021659785881638527, "yaw": 0.7287657260894775}, "local_position": {"x": 3.150599479675293, "y": -1.7808289527893066, "z": -3.7939341068267822}, "status": {"flags": 33599, "velocity_variance": 0.1533397138118744, "pos_horiz_variance": 0.020754816010594368, "pos_vert_variance": 0.019523054361343384}}, "errors": ["PreArm: Hardware safety switch", "PreArm: GPS glitching", "PreArm: Hardware safety switch", "PreArm: GPS glitching"]}
{"timestamp": "2025-12-28T09:31:49.370074Z", "telemetry": {"lat": 28.7530965, "lon": 77.1178455, "satellites": 9, "altitude_gps_m": 212.6199951171875, "groundspeed_mps": 0.39654541015625}, "flight": {"mode": "LOITER", "armed": false}, "ekf": {"attitude": {"roll": 0.025569725781679153, "pitch": 0.02270115166902542, "yaw": 0.7290547490119934}, "local_position": {"x": 3.14225435256958, "y": -1.9223779439926147, "z": -3.76242995262146}, "status": {"flags": 33599, "velocity_variance": 0.11514876037836075, "pos_horiz_variance": 0.0226209107786417, "pos_vert_variance": 0.09955436736345291}}, "errors": ["PreArm: Hardware safety switch", "PreArm: GPS glitching", "PreArm: Hardware safety switch", "PreArm: GPS glitching"]}
{"timestamp": "2025-12-28T09:31:50.370311Z", "telemetry": {"lat": 28.7530996, "lon": 77.1178402, "satellites": 9, "altitude_gps_m": 212.62998962402344, "groundspeed_mps": 0.430886834859848}, "flight": {"mode": "LOITER", "armed": false}, "ekf": {"attitude": {"roll": 0.024507420137524605, "pitch": 0.022949013859033585, "yaw": 0.7293530702590942}, "local_position": {"x": 3.632828712463379, "y": -2.1786601543426514, "z": -3.707892656326294}, "status": {"flags": 33599, "velocity_variance": 0.3232036828994751, "pos_horiz_variance": 0.027736486867070198, "pos_vert_variance": 0.03525247052311897}}, "errors": ["PreArm: Hardware safety switch", "PreArm: GPS glitching", "PreArm: Hardware safety switch", "PreArm: GPS glitching"]}
{"timestamp": "2025-12-28T09:31:51.368269Z", "telemetry": {"lat": 28.7531007, "lon": 77.1178409, "satellites": 9, "altitude_gps_m": 212.6699981689453, "groundspeed_mps": 0.4322635233402252}, "flight": {"mode": "LOITER", "armed": false}, "ekf": {"attitude": {"roll": 0.02453490160405636, "pitch": 0.023362301290035248, "yaw": 0.7294518947601318}, "local_position": {"x": 3.871964693069458, "y": -2.3174049854278564, "z": -3.742828607559204}, "status": {"flags": 33599, "velocity_variance": 0.09567376226186752, "pos_horiz_variance": 0.025751696899533272, "pos_vert_variance": 0.010710345581173897}}, "errors": ["PreArm: Hardware safety switch", "PreArm: GPS glitching", "PreArm: Hardware safety switch", "PreArm: GPS glitching"]}
{"timestamp": "2025-12-28T09:31:52.367998Z", "telemetry": {"lat": 28.7530939, "lon": 77.1178412, "satellites": 9, "altitude_gps_m": 212.6699981689453, "groundspeed_mps": 0.27807676792144775}, "flight": {"mode": "LOITER", "armed": false}, "ekf": {"attitude": {"roll": 0.025993015617132187, "pitch": 0.025382384657859802, "yaw": 0.7297012209892273}, "local_position": {"x": 3.466176748275757, "y": -2.308537244796753, "z": -3.759875535964966}, "status": {"flags": 33599, "velocity_variance": 0.12119974195957184, "pos_horiz_variance": 0.03014255128800869, "pos_vert_variance": 0.02779730036854744}}, "errors": ["PreArm: Hardware safety switch", "PreArm: GPS glitching", "PreArm: Hardware safety switch", "PreArm: GPS glitching"]}
{"timestamp": "2025-12-28T09:31:53.368776Z", "telemetry": {"lat": 28.7530927, "lon": 77.1178371, "satellites": 9, "altitude_gps_m": 212.69000244140625, "groundspeed_mps": 0.19194215536117554}, "flight": {"mode": "LOITER", "armed": false}, "ekf": {"attitude": {"roll": 0.02546679973602295, "pitch": 0.026678666472434998, "yaw": 0.7296692728996277}, "local_position": {"x": 3.3041646480560303, "y": -2.7170090675354004, "z": -3.768167495727539}, "status": {"flags": 33599, "velocity_variance": 0.3483274579048157, "pos_horiz_variance": 0.03205758333206177, "pos_vert_variance": 0.01990734599530697}}, "errors": ["PreArm: Hardware safety switch", "PreArm: GPS glitching", "PreArm: Hardware safety switch", "PreArm: GPS glitching"]}
{"timestamp": "2025-12-28T09:31:54.368917Z", "telemetry": {"lat": 28.7530898, "lon": 77.1178282, "satellites": 9, "altitude_gps_m": 212.77999877929688, "groundspeed_mps": 0.07684636861085892}, "flight": {"mode": "LOITER", "armed": false}, "ekf": {"attitude": {"roll": 0.02507808618247509, "pitch": 0.027861764654517174, "yaw": 0.7297921180725098}, "local_position": {"x": 2.96610164642334, "y": -3.0954489707946777, "z": -3.855269432067871}, "status": {"flags": 33599, "velocity_variance": 0.07852239906787872, "pos_horiz_variance": 0.03821387514472008, "pos_vert_variance": 0.006167316809296608}}, "errors": ["PreArm: Hardware safety switch", "PreArm: GPS glitching", "PreArm: Hardware safety switch", "PreArm: GPS glitching"]}
{"timestamp": "2025-12-28T09:31:55.368309Z", "telemetry": {"lat": 28.7530835, "lon": 77.1178251, "satellites": 9, "altitude_gps_m": 212.80999755859375, "groundspeed_mps": 0.11501051485538483}, "flight": {"mode": "LOITER", "armed": false}, "ekf": {"attitude": {"roll": 0.026040038093924522, "pitch": 0.030276697129011154, "yaw": 0.7299264669418335}, "local_position": {"x": 2.5272483825683594, "y": -3.472876787185669, "z": -3.8603618144989014}, "status": {"flags": 33599, "velocity_variance": 0.21563342213630676, "pos_horiz_variance": 0.03536383807659149, "pos_vert_variance": 0.022668661549687386}}, "errors": ["PreArm: Hardware safety switch", "PreArm: GPS glitching", "PreArm: Hardware safety switch", "PreArm: GPS glitching"]}
{"timestamp": "2025-12-28T09:31:56.368530Z", "telemetry": {"lat": 28.7530784, "lon": 77.1178157, "satellites": 9, "altitude_gps_m": 212.88999938964844, "groundspeed_mps": 0.3061014711856842}, "flight": {"mode": "LOITER", "armed": false}, "ekf": {"attitude": {"roll": 0.025517940521240234, "pitch": 0.032216060906648636, "yaw": 0.7299678325653076}, "local_position": {"x": 1.6120588779449463, "y": -4.293669700622559, "z": -3.9638774394989014}, "status": {"flags": 33599, "velocity_variance": 0.27331385016441345, "pos_horiz_variance": 0.03919082507491112, "pos_vert_variance": 0.139794260263443}}, "errors": ["PreArm: Hardware safety switch", "PreArm: GPS glitching", "PreArm: Hardware safety switch", "PreArm: GPS glitching"]}
{"timestamp": "2025-12-28T09:31:57.368882Z", "telemetry": {"lat": 28.7530805, "lon": 77.117812, "satellites": 9, "altitude_gps_m": 212.9199981689453, "groundspeed_mps": 0.3908243477344513}, "flight": {"mode": "LOITER", "armed": false}, "ekf": {"attitude": {"roll": 0.024025389924645424, "pitch": 0.03222033381462097, "yaw": 0.7299861311912537}, "local_position": {"x": 1.339081883430481, "y": -5.007961273193359, "z": -3.998389959335327}, "status": {"flags": 33599, "velocity_variance": 0.1269819140434265, "pos_horiz_variance": 0.029386894777417183, "pos_vert_variance": 0.0089753158390522}}, "errors": ["PreArm: Hardware safety switch", "PreArm: GPS glitching", "PreArm: Hardware safety switch", "PreArm: GPS glitching"]}
{"timestamp": "2025-12-28T09:31:58.368391Z", "telemetry": {"lat": 28.7530808, "lon": 77.1178204, "satellites": 9, "altitude_gps_m": 212.8199920654297, "groundspeed_mps": 0.4094873368740082}, "flight": {"mode": "LOITER", "armed": false}, "ekf": {"attitude": {"roll": 0.02504136972129345, "pitch": 0.03206493332982063, "yaw": 0.7297889590263367}, "local_position": {"x": 0.9869427680969238, "y": -5.304790019989014, "z": -3.8971035480499268}, "status": {"flags": 33599, "velocity_variance": 0.2115451693534851, "pos_horiz_variance": 0.010283865965902805, "pos_vert_variance": 0.09902074187994003}}, "errors": ["PreArm: Hardware safety switch", "PreArm: GPS glitching", "PreArm: Hardware safety switch", "PreArm: GPS glitching"]}
{"timestamp": "2025-12-28T09:31:59.373331Z", "telemetry": {"lat": 28.7530821, "lon": 77.117815, "satellites": 8, "altitude_gps_m": 212.75999450683594, "groundspeed_mps": 0.41946354508399963}, "flight": {"mode": "LOITER", "armed": false}, "ekf": {"attitude": {"roll": 0.02437679097056389, "pitch": 0.031800758093595505, "yaw": 0.7297327518463135}, "local_position": {"x": 0.8114629983901978, "y": -5.6369218826293945, "z": -3.8363234996795654}, "status": {"flags": 33599, "velocity_variance": 0.24775800108909607, "pos_horiz_variance": 0.007547101005911827, "pos_vert_variance": 0.02681145817041397}}, "errors": ["PreArm: Hardware safety switch", "PreArm: GPS glitching", "PreArm: Hardware safety switch", "PreArm: GPS glitching"]}
{"timestamp": "2025-12-28T09:32:00.370388Z", "telemetry": {"lat": 28.7530761, "lon": 77.1178106, "satellites": 8, "altitude_gps_m": 212.72000122070312, "groundspeed_mps": 0.5063481330871582}, "flight": {"mode": "LOITER", "armed": false}, "ekf": {"attitude": {"roll": 0.024591172114014626, "pitch": 0.03271986171603203, "yaw": 0.7295495271682739}, "local_position": {"x": 0.3562254309654236, "y": -6.113264560699463, "z": -3.7938592433929443}, "status": {"flags": 33599, "velocity_variance": 0.18836429715156555, "pos_horiz_variance": 0.009062966331839561, "pos_vert_variance": 0.05297304689884186}}, "errors": ["PreArm: Hardware safety switch", "PreArm: GPS glitching", "PreArm: Hardware safety switch", "PreArm: GPS glitching"]}
{"timestamp": "2025-12-28T09:32:01.368029Z", "telemetry": {"lat": 28.7530765, "lon": 77.1178182, "satellites": 8, "altitude_gps_m": 212.64999389648438, "groundspeed_mps": 0.48998311161994934}, "flight": {"mode": "LOITER", "armed": false}, "ekf": {"attitude": {"roll": 0.025675300508737564, "pitch": 0.03145947679877281, "yaw": 0.7294365167617798}, "local_position": {"x": -0.07923384010791779, "y": -6.100809574127197, "z": -3.7228739261627197}, "status": {"flags": 33599, "velocity_variance": 0.31666502356529236, "pos_horiz_variance": 0.007139504887163639, "pos_vert_variance": 0.027938608080148697}}, "errors": ["PreArm: Hardware safety switch", "PreArm: GPS glitching", "PreArm: Hardware safety switch", "PreArm: GPS glitching"]}
{"timestamp": "2025-12-28T09:32:02.368054Z", "telemetry": {"lat": 28.7530772, "lon": 77.1178255, "satellites": 9, "altitude_gps_m": 212.61000061035156, "groundspeed_mps": 0.4026126265525818}, "flight": {"mode": "LOITER", "armed": false}, "ekf": {"attitude": {"roll": 0.02705405093729496, "pitch": 0.029495717957615852, "yaw": 0.7294385433197021}, "local_position": {"x": -0.27576810121536255, "y": -5.666534423828125, "z": -3.688098907470703}, "status": {"flags": 33599, "velocity_variance": 0.3374326527118683, "pos_horiz_variance": 0.014486975036561489, "pos_vert_variance": 0.04919876158237457}}, "errors": ["PreArm: Hardware safety switch", "PreArm: GPS glitching", "PreArm: Hardware safety switch", "PreArm: GPS glitching"]}
{"timestamp": "2025-12-28T09:32:03.368827Z", "telemetry": {"lat": 28.7530794, "lon": 77.1178231, "satellites": 10, "altitude_gps_m": 212.58999633789062, "groundspeed_mps": 0.3101520538330078}, "flight": {"mode": "LOITER", "armed": false}, "ekf": {"attitude": {"roll": 0.026531511917710304, "pitch": 0.028211282566189766, "yaw": 0.7296344637870789}, "local_position": {"x": -0.21714535355567932, "y": -5.406740188598633, "z": -3.6623620986938477}, "status": {"flags": 33599, "velocity_variance": 0.3079438805580139, "pos_horiz_variance": 0.011190969496965408, "pos_vert_variance": 0.06879352778196335}}, "errors": ["PreArm: Hardware safety switch", "PreArm: GPS glitching", "PreArm: Hardware safety switch", "PreArm: GPS glitching"]}
{"timestamp": "2025-12-28T09:32:04.368669Z", "telemetry": {"lat": 28.7530828, "lon": 77.1178258, "satellites": 10, "altitude_gps_m": 212.69000244140625, "groundspeed_mps": 0.2372596561908722}, "flight": {"mode": "LOITER", "armed": false}, "ekf": {"attitude": {"roll": 0.026674477383494377, "pitch": 0.026189446449279785, "yaw": 0.7297697067260742}, "local_position": {"x": -0.03862795978784561, "y": -5.084164619445801, "z": -3.76171875}, "status": {"flags": 33599, "velocity_variance": 0.07707206159830093, "pos_horiz_variance": 0.01414131186902523, "pos_vert_variance": 0.0043555451557040215}}, "errors": ["PreArm: Hardware safety switch", "PreArm: GPS glitching", "PreArm: Hardware safety switch", "PreArm: GPS glitching"]}
{"timestamp": "2025-12-28T09:32:05.368775Z", "telemetry": {"lat": 28.7530888, "lon": 77.1178209, "satellites": 10, "altitude_gps_m": 212.6199951171875, "groundspeed_mps": 0.14059369266033173}, "flight": {"mode": "LOITER", "armed": false}, "ekf": {"attitude": {"roll": 0.025494469329714775, "pitch": 0.025356659665703773, "yaw": 0.7298556566238403}, "local_position": {"x": 0.3632828891277313, "y": -5.055905342102051, "z": -3.6900784969329834}, "status": {"flags": 33599, "velocity_variance": 0.13387992978096008, "pos_horiz_variance": 0.019657248631119728, "pos_vert_variance": 0.06421451270580292}}, "errors": ["PreArm: Hardware safety switch", "PreArm: GPS glitching", "PreArm: Hardware safety switch", "PreArm: GPS glitching"]}
{"timestamp": "2025-12-28T09:32:06.368412Z", "telemetry": {"lat": 28.7530917, "lon": 77.1178207, "satellites": 10, "altitude_gps_m": 212.5399932861328, "groundspeed_mps": 0.12985917925834656}, "flight": {"mode": "LOITER", "armed": false}, "ekf": {"attitude": {"roll": 0.02503758668899536, "pitch": 0.024968057870864868, "yaw": 0.7300207018852234}, "local_position": {"x": 0.6357830762863159, "y": -5.0249457359313965, "z": -3.613760232925415}, "status": {"flags": 33599, "velocity_variance": 0.17426438629627228, "pos_horiz_variance": 0.02140604332089424, "pos_vert_variance": 0.046451397240161896}}, "errors": ["PreArm: Hardware safety switch", "PreArm: GPS glitching", "PreArm: Hardware safety switch", "PreArm: GPS glitching", "PreArm: Hardware safety switch", "PreArm: GPS glitching"]}
{"timestamp": "2025-12-28T09:32:07.368398Z", "telemetry": {"lat": 28.7530934, "lon": 77.1178224, "satellites": 9, "altitude_gps_m": 212.61000061035156, "groundspeed_mps": 0.10076697170734406}, "flight": {"mode": "LOITER", "armed": false}, "ekf": {"attitude": {"roll": 0.024782737717032433, "pitch": 0.025582903996109962, "yaw": 0.7301234006881714}, "local_position": {"x": 0.6790657639503479, "y": -5.153627395629883, "z": -3.686067819595337}, "status": {"flags": 33599, "velocity_variance": 0.22761619091033936, "pos_horiz_variance": 0.02349340170621872, "pos_vert_variance": 0.07478613406419754}}, "errors": ["PreArm: Hardware safety switch", "PreArm: GPS glitching", "PreArm: Hardware safety switch", "PreArm: GPS glitching", "PreArm: Hardware safety switch", "PreArm: GPS glitching"]}
{"timestamp": "2025-12-28T09:32:08.368582Z", "telemetry": {"lat": 28.7530912, "lon": 77.1178264, "satellites": 9, "altitude_gps_m": 212.6699981689453, "groundspeed_mps": 0.14793720841407776}, "flight": {"mode": "LOITER", "armed": false}, "ekf": {"attitude": {"roll": 0.025537965819239616, "pitch": 0.02582450956106186, "yaw": 0.7304375767707825}, "local_position": {"x": 0.6086037755012512, "y": -5.013026237487793, "z": -3.745919942855835}, "status": {"flags": 33599, "velocity_variance": 0.27032575011253357, "pos_horiz_variance": 0.020693091675639153, "pos_vert_variance": 0.04337720200419426}}, "errors": ["PreArm: Hardware safety switch", "PreArm: GPS glitching", "PreArm: Hardware safety switch", "PreArm: GPS glitching", "PreArm: Hardware safety switch", "PreArm: GPS glitching"]}
{"timestamp": "2025-12-28T09:32:09.373370Z", "telemetry": {"lat": 28.7530942, "lon": 77.1178297, "satellites": 8, "altitude_gps_m": 212.8199920654297, "groundspeed_mps": 0.1681121587753296}, "flight": {"mode": "LOITER", "armed": false}, "ekf": {"attitude": {"roll": 0.02510611154139042, "pitch": 0.02510642446577549, "yaw": 0.730520486831665}, "local_position": {"x": 0.9610029458999634, "y": -4.825254917144775, "z": -3.8935015201568604}, "status": {"flags": 33599, "velocity_variance": 0.2438293695449829, "pos_horiz_variance": 0.02087448537349701, "pos_vert_variance": 0.04404859617352486}}, "errors": ["PreArm: Hardware safety switch", "PreArm: GPS glitching", "PreArm: Hardware safety switch", "PreArm: GPS glitching", "PreArm: Hardware safety switch", "PreArm: GPS glitching"]}
{"timestamp": "2025-12-28T09:32:10.368059Z", "telemetry": {"lat": 28.7530947, "lon": 77.1178341, "satellites": 7, "altitude_gps_m": 212.80999755859375, "groundspeed_mps": 0.24142491817474365}, "flight": {"mode": "LOITER", "armed": false}, "ekf": {"attitude": {"roll": 0.025589875876903534, "pitch": 0.024904290214180946, "yaw": 0.730725884437561}, "local_position": {"x": 1.0539591312408447, "y": -4.440443992614746, "z": -3.8887088298797607}, "status": {"flags": 33599, "velocity_variance": 0.30474722385406494, "pos_horiz_variance": 0.020496370270848274, "pos_vert_variance": 0.010213912464678288}}, "errors": ["PreArm: Hardware safety switch", "PreArm: GPS glitching", "PreArm: Hardware safety switch", "PreArm: GPS glitching", "PreArm: Hardware safety switch", "PreArm: GPS glitching"]}
{"timestamp": "2025-12-28T09:32:11.370219Z", "telemetry": {"lat": 28.7530958, "lon": 77.1178449, "satellites": 8, "altitude_gps_m": 212.8199920654297, "groundspeed_mps": 0.32620298862457275}, "flight": {"mode": "LOITER", "armed": false}, "ekf": {"attitude": {"roll": 0.02554388716816902, "pitch": 0.02396702766418457, "yaw": 0.730911910533905}, "local_position": {"x": 1.3713369369506836, "y": -3.9537410736083984, "z": -3.894731044769287}, "status": {"flags": 33599, "velocity_variance": 0.11740904301404953, "pos_horiz_variance": 0.024941986426711082, "pos_vert_variance": 0.05617575719952583}}, "errors": ["PreArm: Hardware safety switch", "PreArm: GPS glitching", "PreArm: Hardware safety switch", "PreArm: GPS glitching", "PreArm: Hardware safety switch", "PreArm: GPS glitching"]}
{"timestamp": "2025-12-28T09:32:12.368239Z", "telemetry": {"lat": 28.7530973, "lon": 77.1178485, "satellites": 8, "altitude_gps_m": 212.86000061035156, "groundspeed_mps": 0.3687443733215332}, "flight": {"mode": "LOITER", "armed": false}, "ekf": {"attitude": {"roll": 0.02473076805472374, "pitch": 0.024042455479502678, "yaw": 0.7309548854827881}, "local_position": {"x": 1.6926870346069336, "y": -3.5296711921691895, "z": -3.9335861206054688}, "status": {"flags": 33599, "velocity_variance": 0.5852035284042358, "pos_horiz_variance": 0.022058025002479553, "pos_vert_variance": 0.044075336307287216}}, "errors": ["PreArm: Hardware safety switch", "PreArm: GPS glitching", "PreArm: Hardware safety switch", "PreArm: GPS glitching", "PreArm: Hardware safety switch", "PreArm: GPS glitching"]}
{"timestamp": "2025-12-28T09:32:13.368621Z", "telemetry": {"lat": 28.753097, "lon": 77.1178545, "satellites": 8, "altitude_gps_m": 212.72000122070312, "groundspeed_mps": 0.40061211585998535}, "flight": {"mode": "LOITER", "armed": false}, "ekf": {"attitude": {"roll": 0.025863030925393105, "pitch": 0.02451925352215767, "yaw": 0.7312532663345337}, "local_position": {"x": 1.716391921043396, "y": -3.040513515472412, "z": -3.7936582565307617}, "status": {"flags": 33599, "velocity_variance": 0.1623464822769165, "pos_horiz_variance": 0.02413555234670639, "pos_vert_variance": 0.019254766404628754}}, "errors": ["PreArm: Hardware safety switch", "PreArm: GPS glitching", "PreArm: Hardware safety switch", "PreArm: GPS glitching", "PreArm: Hardware safety switch", "PreArm: GPS glitching"]}
{"timestamp": "2025-12-28T09:32:14.368689Z", "telemetry": {"lat": 28.7531002, "lon": 77.1178547, "satellites": 8, "altitude_gps_m": 212.70999145507812, "groundspeed_mps": 0.3850833475589752}, "flight": {"mode": "LOITER", "armed": false}, "ekf": {"attitude": {"roll": 0.02453327551484108, "pitch": 0.025079844519495964, "yaw": 0.7314908504486084}, "local_position": {"x": 1.858244776725769, "y": -2.739593744277954, "z": -3.7716381549835205}, "status": {"flags": 33599, "velocity_variance": 0.25813767313957214, "pos_horiz_variance": 0.022361354902386665, "pos_vert_variance": 0.025351321324706078}}, "errors": ["PreArm: Hardware safety switch", "PreArm: GPS glitching", "PreArm: Hardware safety switch", "PreArm: GPS glitching", "PreArm: Hardware safety switch", "PreArm: GPS glitching"]}
{"timestamp": "2025-12-28T09:32:15.368612Z", "telemetry": {"lat": 28.7531072, "lon": 77.1178499, "satellites": 8, "altitude_gps_m": 212.58999633789062, "groundspeed_mps": 0.35964879393577576}, "flight": {"mode": "LOITER", "armed": false}, "ekf": {"attitude": {"roll": 0.02339850924909115, "pitch": 0.02536776103079319, "yaw": 0.7315163612365723}, "local_position": {"x": 2.480074882507324, "y": -2.6601083278656006, "z": -3.66774582862854}, "status": {"flags": 33599, "velocity_variance": 0.2588195204734802, "pos_horiz_variance": 0.021194513887166977, "pos_vert_variance": 0.037689488381147385}}, "errors": ["PreArm: Hardware safety switch", "PreArm: GPS glitching", "PreArm: Hardware safety switch", "PreArm: GPS glitching", "PreArm: Hardware safety switch", "PreArm: GPS glitching"]}
{"timestamp": "2025-12-28T09:32:16.368642Z", "telemetry": {"lat": 28.7531128, "lon": 77.1178508, "satellites": 9, "altitude_gps_m": 212.5699920654297, "groundspeed_mps": 0.3595450520515442}, "flight": {"mode": "LOITER", "armed": false}, "ekf": {"attitude": {"roll": 0.02383461222052574, "pitch": 0.025875352323055267, "yaw": 0.7315678000450134}, "local_position": {"x": 2.7549328804016113, "y": -2.3852756023406982, "z": -3.642397403717041}, "status": {"flags": 33599, "velocity_variance": 0.12188448011875153, "pos_horiz_variance": 0.027230218052864075, "pos_vert_variance": 0.038850992918014526}}, "errors": ["PreArm: Hardware safety switch", "PreArm: GPS glitching", "PreArm: Hardware safety switch", "PreArm: GPS glitching", "PreArm: Hardware safety switch", "PreArm: GPS glitching"]}
{"timestamp": "2025-12-28T09:32:17.368715Z", "telemetry": {"lat": 28.7531164, "lon": 77.1178527, "satellites": 9, "altitude_gps_m": 212.6699981689453, "groundspeed_mps": 0.3611617088317871}, "flight": {"mode": "LOITER", "armed": false}, "ekf": {"attitude": {"roll": 0.024708911776542664, "pitch": 0.02653936669230461, "yaw": 0.7316291332244873}, "local_position": {"x": 2.895989418029785, "y": -2.033637285232544, "z": -3.7454934120178223}, "status": {"flags": 33599, "velocity_variance": 0.16309763491153717, "pos_horiz_variance": 0.03172077238559723, "pos_vert_variance": 0.04156956076622009}}, "errors": ["PreArm: Hardware safety switch", "PreArm: GPS glitching", "PreArm: Hardware safety switch", "PreArm: GPS glitching", "PreArm: Hardware safety switch", "PreArm: GPS glitching"]}
{"timestamp": "2025-12-28T09:32:18.368792Z", "telemetry": {"lat": 28.7531228, "lon": 77.1178557, "satellites": 9, "altitude_gps_m": 212.5699920654297, "groundspeed_mps": 0.39876142144203186}, "flight": {"mode": "LOITER", "armed": false}, "ekf": {"attitude": {"roll": 0.02468227781355381, "pitch": 0.026354892179369926, "yaw": 0.7316927313804626}, "local_position": {"x": 3.3659417629241943, "y": -1.688942313194275, "z": -3.64443039894104}, "status": {"flags": 33599, "velocity_variance": 0.18881821632385254, "pos_horiz_variance": 0.036226797848939896, "pos_vert_variance": 0.04405217245221138}}, "errors": ["PreArm: Hardware safety switch", "PreArm: GPS glitching", "PreArm: Hardware safety switch", "PreArm: GPS glitching", "PreArm: Hardware safety switch", "PreArm: GPS glitching"]}
{"timestamp": "2025-12-28T09:32:19.368286Z", "telemetry": {"lat": 28.7531258, "lon": 77.1178631, "satellites": 9, "altitude_gps_m": 212.6199951171875, "groundspeed_mps": 0.4108598530292511}, "flight": {"mode": "LOITER", "armed": false}, "ekf": {"attitude": {"roll": 0.025476379320025444, "pitch": 0.026998478919267654, "yaw": 0.7318919897079468}, "local_position": {"x": 3.6014015674591064, "y": -1.2840642929077148, "z": -3.6948130130767822}, "status": {"flags": 33599, "velocity_variance": 0.15516798198223114, "pos_horiz_variance": 0.0388377346098423, "pos_vert_variance": 0.1107030138373375}}, "errors": ["PreArm: Hardware safety switch", "PreArm: GPS glitching", "PreArm: Hardware safety switch", "PreArm: GPS glitching", "PreArm: Hardware safety switch", "PreArm: GPS glitching"]}
{"timestamp": "2025-12-28T09:32:20.373729Z", "telemetry": {"lat": 28.7531324, "lon": 77.1178636, "satellites": 9, "altitude_gps_m": 212.6999969482422, "groundspeed_mps": 0.40857720375061035}, "flight": {"mode": "LOITER", "armed": false}, "ekf": {"attitude": {"roll": 0.024355463683605194, "pitch": 0.026954583823680878, "yaw": 0.7317438721656799}, "local_position": {"x": 4.02512264251709, "y": -1.1226351261138916, "z": -3.776667833328247}, "status": {"flags": 33599, "velocity_variance": 0.2361898422241211, "pos_horiz_variance": 0.04102529585361481, "pos_vert_variance": 0.03581691160798073}}, "errors": ["PreArm: Hardware safety switch", "PreArm: GPS glitching", "PreArm: Hardware safety switch", "PreArm: GPS glitching", "PreArm: Hardware safety switch", "PreArm: GPS glitching"]}
{"timestamp": "2025-12-28T09:32:21.371131Z", "telemetry": {"lat": 28.7531341, "lon": 77.1178692, "satellites": 9, "altitude_gps_m": 212.77999877929688, "groundspeed_mps": 0.39647895097732544}, "flight": {"mode": "LOITER", "armed": false}, "ekf": {"attitude": {"roll": 0.024875622242689133, "pitch": 0.028045842424035072, "yaw": 0.7318432331085205}, "local_position": {"x": 4.658090591430664, "y": -0.7776082754135132, "z": -3.8599281311035156}, "status": {"flags": 33599, "velocity_variance": 0.3816505968570709, "pos_horiz_variance": 0.037129245698451996, "pos_vert_variance": 0.009302143007516861}}, "errors": ["PreArm: Hardware safety switch", "PreArm: GPS glitching", "PreArm: Hardware safety switch", "PreArm: GPS glitching", "PreArm: Hardware safety switch", "PreArm: GPS glitching"]}
{"timestamp": "2025-12-28T09:32:22.368824Z", "telemetry": {"lat": 28.7531316, "lon": 77.1178719, "satellites": 9, "altitude_gps_m": 212.75999450683594, "groundspeed_mps": 0.38077473640441895}, "flight": {"mode": "LOITER", "armed": false}, "ekf": {"attitude": {"roll": 0.02632525935769081, "pitch": 0.029314717277884483, "yaw": 0.7319267392158508}, "local_position": {"x": 4.667453765869141, "y": -0.35298871994018555, "z": -3.8351285457611084}, "status": {"flags": 33599, "velocity_variance": 0.42054906487464905, "pos_horiz_variance": 0.03066762164235115, "pos_vert_variance": 0.049421194940805435}}, "errors": ["PreArm: Hardware safety switch", "PreArm: GPS glitching", "PreArm: Hardware safety switch", "PreArm: GPS glitching", "PreArm: Hardware safety switch", "PreArm: GPS glitching"]}
{"timestamp": "2025-12-28T09:32:23.368703Z", "telemetry": {"lat": 28.7531328, "lon": 77.1178738, "satellites": 9, "altitude_gps_m": 212.8699951171875, "groundspeed_mps": 0.3719639778137207}, "flight": {"mode": "LOITER", "armed": false}, "ekf": {"attitude": {"roll": 0.026520725339651108, "pitch": 0.029843522235751152, "yaw": 0.7318242192268372}, "local_position": {"x": 4.80048942565918, "y": -0.1553100049495697, "z": -3.9088306427001953}, "status": {"flags": 33599, "velocity_variance": 0.4349055886268616, "pos_horiz_variance": 0.029053155332803726, "pos_vert_variance": 0.06101043522357941}}, "errors": ["PreArm: Hardware safety switch", "PreArm: GPS glitching", "PreArm: Hardware safety switch", "PreArm: GPS glitching", "PreArm: Hardware safety switch", "PreArm: GPS glitching"]}
{"timestamp": "2025-12-28T09:32:24.368351Z", "telemetry": {"lat": 28.7531349, "lon": 77.1178811, "satellites": 9, "altitude_gps_m": 213.01998901367188, "groundspeed_mps": 0.4269149601459503}, "flight": {"mode": "LOITER", "armed": false}, "ekf": {"attitude": {"roll": 0.02728123962879181, "pitch": 0.02995269186794758, "yaw": 0.731928825378418}, "local_position": {"x": 5.028645992279053, "y": 0.5035769939422607, "z": -4.0943732261657715}, "status": {"flags": 33599, "velocity_variance": 0.30365613102912903, "pos_horiz_variance": 0.030495597049593925, "pos_vert_variance": 0.008969546295702457}}, "errors": ["PreArm: Hardware safety switch", "PreArm: GPS glitching", "PreArm: Hardware safety switch", "PreArm: GPS glitching", "PreArm: Hardware safety switch", "PreArm: GPS glitching"]}
