{"timestamp": "2026-01-15T14:20:15.469570Z", "telemetry": {"lat": 28.7530059, "lon": 77.1179622, "satellites": 0, "altitude_gps_m": 0.28999999165534973, "groundspeed_mps": 0.010275175794959068}, "flight": {"mode": "STABILIZE", "armed": false}, "ekf": {"attitude": {"roll": 0.023643366992473602, "pitch": 0.002578172367066145, "yaw": -0.5138952136039734}, "local_position": {"x": null, "y": null, "z": null}, "status": {"flags": 135, "velocity_variance": 0.0, "pos_horiz_variance": 0.002579214982688427, "pos_vert_variance": 0.04724781587719917}}, "errors": []}
{"timestamp": "2026-01-15T14:20:16.494185Z", "telemetry": {"lat": 28.7530059, "lon": 77.1179622, "satellites": 0, "altitude_gps_m": 0.28999999165534973, "groundspeed_mps": 0.010403155349195004}, "flight": {"mode": "STABILIZE", "armed": false}, "ekf": {"attitude": {"roll": 0.023699896410107613, "pitch": 0.0026616251561790705, "yaw": -0.5139604806900024}, "local_position": {"x": null, "y": null, "z": null}, "status": {"flags": 135, "velocity_variance": 0.0, "pos_horiz_variance": 0.0025397837162017822, "pos_vert_variance": 0.07284413278102875}}, "errors": []}
{"timestamp": "2026-01-15T14:20:17.498275Z", "telemetry": {"lat": 28.7530059, "lon": 77.1179622, "satellites": 0, "altitude_gps_m": 0.28999999165534973, "groundspeed_mps": 0.008304609917104244}, "flight": {"mode": "STABILIZE", "armed": false}, "ekf": {"attitude": {"roll": 0.023681124672293663, "pitch": 0.0027578461449593306, "yaw": -0.5139023065567017}, "local_position": {"x": null, "y": null, "z": null}, "status": {"flags": 135, "velocity_variance": 0.0, "pos_horiz_variance": 0.002370287198573351, "pos_vert_variance": 0.06187457591295242}}, "errors": []}
{"timestamp": "2026-01-15T14:20:18.496175Z", "telemetry": {"lat": 28.7530059, "lon": 77.1179622, "satellites": 0, "altitude_gps_m": 0.28999999165534973, "groundspeed_mps": 0.007908265106379986}, "flight": {"mode": "STABILIZE", "armed": false}, "ekf": {"attitude": {"roll": 0.023711910471320152, "pitch": 0.0028148703277111053, "yaw": -0.5138010382652283}, "local_position": {"x": null, "y": null, "z": null}, "status": {"flags": 135, "velocity_variance": 0.0, "pos_horiz_variance": 0.0020805390086025, "pos_vert_variance": 0.03295343741774559}}, "errors": []}
{"timestamp": "2026-01-15T14:20:19.471958Z", "telemetry": {"lat": 28.7530059, "lon": 77.1179622, "satellites": 0, "altitude_gps_m": 0.28999999165534973, "groundspeed_mps": 0.006671606563031673}, "flight": {"mode": "STABILIZE", "armed": false}, "ekf": {"attitude": {"roll": 0.023677704855799675, "pitch": 0.002862048801034689, "yaw": -0.5137398838996887}, "local_position": {"x": null, "y": null, "z": null}, "status": {"flags": 135, "velocity_variance": 0.0, "pos_horiz_variance": 0.0018976283026859164, "pos_vert_variance": 0.03768805414438248}}, "errors": ["PreArm: Hardware safety switch", "PreArm: Battery 1 low voltage failsafe"]}
{"timestamp": "2026-01-15T14:20:20.469108Z", "telemetry": {"lat": 28.7530059, "lon": 77.1179622, "satellites": 0, "altitude_gps_m": 0.28999999165534973, "groundspeed_mps": 0.003789883805438876}, "flight": {"mode": "STABILIZE", "armed": false}, "ekf": {"attitude": {"roll": 0.023571232333779335, "pitch": 0.0028631011955440044, "yaw": -0.5136755704879761}, "local_position": {"x": null, "y": null, "z": null}, "status": {"flags": 135, "velocity_variance": 0.0, "pos_horiz_variance": 0.001569376327097416, "pos_vert_variance": 0.05473047494888306}}, "errors": ["PreArm: Hardware safety switch", "PreArm: Battery 1 low voltage failsafe"]}
{"timestamp": "2026-01-15T14:20:21.500412Z", "telemetry": {"lat": 28.7530059, "lon": 77.1179622, "satellites": 0, "altitude_gps_m": 0.28999999165534973, "groundspeed_mps": 0.003969867248088121}, "flight": {"mode": "STABILIZE", "armed": false}, "ekf": {"attitude": {"roll": 0.023408131673932076, "pitch": 0.0029020707588642836, "yaw": -0.5136793851852417}, "local_position": {"x": null, "y": null, "z": null}, "status": {"flags": 135, "velocity_variance": 0.0, "pos_horiz_variance": 0.0011947789462283254, "pos_vert_variance": 0.09610335528850555}}, "errors": ["PreArm: Hardware safety switch", "PreArm: Battery 1 low voltage failsafe"]}
{"timestamp": "2026-01-15T14:20:22.500198Z", "telemetry": {"lat": 28.7530059, "lon": 77.1179622, "satellites": 0, "altitude_gps_m": 0.28999999165534973, "groundspeed_mps": 0.0016286760801449418}, "flight": {"mode": "STABILIZE", "armed": false}, "ekf": {"attitude": {"roll": 0.02329372614622116, "pitch": 0.0029566080775111914, "yaw": -0.513656497001648}, "local_position": {"x": null, "y": null, "z": null}, "status": {"flags": 135, "velocity_variance": 0.0, "pos_horiz_variance": 0.0008540893904864788, "pos_vert_variance": 0.056086618453264236}}, "errors": ["PreArm: Hardware safety switch", "PreArm: Battery 1 low voltage failsafe"]}
{"timestamp": "2026-01-15T14:20:23.498932Z", "telemetry": {"lat": 28.7530059, "lon": 77.1179622, "satellites": 0, "altitude_gps_m": 0.28999999165534973, "groundspeed_mps": 0.0012202943908050656}, "flight": {"mode": "STABILIZE", "armed": false}, "ekf": {"attitude": {"roll": 0.02324480004608631, "pitch": 0.002948822220787406, "yaw": -0.5135683417320251}, "local_position": {"x": null, "y": null, "z": null}, "status": {"flags": 135, "velocity_variance": 0.0, "pos_horiz_variance": 0.0004738889983855188, "pos_vert_variance": 0.0238360483199358}}, "errors": ["PreArm: Hardware safety switch", "PreArm: Battery 1 low voltage failsafe"]}
{"timestamp": "2026-01-15T14:20:24.500966Z", "telemetry": {"lat": 28.7530059, "lon": 77.1179622, "satellites": 0, "altitude_gps_m": 0.28999999165534973, "groundspeed_mps": 0.0034363933373242617}, "flight": {"mode": "STABILIZE", "armed": false}, "ekf": {"attitude": {"roll": 0.02315106987953186, "pitch": 0.002879827283322811, "yaw": -0.5134051442146301}, "local_position": {"x": null, "y": null, "z": null}, "status": {"flags": 135, "velocity_variance": 0.0, "pos_horiz_variance": 0.00013749272329732776, "pos_vert_variance": 0.06749999523162842}}, "errors": ["PreArm: Hardware safety switch", "PreArm: Battery 1 low voltage failsafe"]}
{"timestamp": "2026-01-15T14:20:25.502223Z", "telemetry": {"lat": 28.7530059, "lon": 77.1179622, "satellites": 0, "altitude_gps_m": 0.28999999165534973, "groundspeed_mps": 0.005147525109350681}, "flight": {"mode": "STABILIZE", "armed": false}, "ekf": {"attitude": {"roll": 0.023326270282268524, "pitch": 0.002864265348762274, "yaw": -0.5131481885910034}, "local_position": {"x": null, "y": null, "z": null}, "status": {"flags": 135, "velocity_variance": 0.0, "pos_horiz_variance": 0.0008004521369002759, "pos_vert_variance": 0.036481279879808426}}, "errors": ["PreArm: Hardware safety switch", "PreArm: Battery 1 low voltage failsafe"]}
{"timestamp": "2026-01-15T14:20:26.504523Z", "telemetry": {"lat": 28.7530059, "lon": 77.1179622, "satellites": 0, "altitude_gps_m": 0.28999999165534973, "groundspeed_mps": 0.004070027731359005}, "flight": {"mode": "STABILIZE", "armed": false}, "ekf": {"attitude": {"roll": 0.02325216308236122, "pitch": 0.0027748222928494215, "yaw": -0.5131164789199829}, "local_position": {"x": null, "y": null, "z": null}, "status": {"flags": 135, "velocity_variance": 0.0, "pos_horiz_variance": 0.0008577401749789715, "pos_vert_variance": 0.05076492577791214}}, "errors": ["PreArm: Hardware safety switch", "PreArm: Battery 1 low voltage failsafe"]}
{"timestamp": "2026-01-15T14:20:27.504146Z", "telemetry": {"lat": 28.7530059, "lon": 77.1179622, "satellites": 0, "altitude_gps_m": 0.28999999165534973, "groundspeed_mps": 0.0029065473936498165}, "flight": {"mode": "STABILIZE", "armed": false}, "ekf": {"attitude": {"roll": 0.023352913558483124, "pitch": 0.0028127001132816076, "yaw": -0.5129226446151733}, "local_position": {"x": null, "y": null, "z": null}, "status": {"flags": 135, "velocity_variance": 0.0, "pos_horiz_variance": 0.0008333728765137494, "pos_vert_variance": 0.013444959186017513}}, "errors": ["PreArm: Hardware safety switch", "PreArm: Battery 1 low voltage failsafe"]}
{"timestamp": "2026-01-15T14:20:28.477568Z", "telemetry": {"lat": 28.7530059, "lon": 77.1179622, "satellites": 0, "altitude_gps_m": 0.28999999165534973, "groundspeed_mps": 0.0026107998564839363}, "flight": {"mode": "STABILIZE", "armed": false}, "ekf": {"attitude": {"roll": 0.023221418261528015, "pitch": 0.002729913452640176, "yaw": -0.5128445625305176}, "local_position": {"x": null, "y": null, "z": null}, "status": {"flags": 135, "velocity_variance": 0.0, "pos_horiz_variance": 0.0007718394626863301, "pos_vert_variance": 0.028518201783299446}}, "errors": ["PreArm: Hardware safety switch", "PreArm: Battery 1 low voltage failsafe"]}
{"timestamp": "2026-01-15T14:20:29.480080Z", "telemetry": {"lat": 28.7530059, "lon": 77.1179622, "satellites": 0, "altitude_gps_m": 0.28999999165534973, "groundspeed_mps": 0.0033794476184993982}, "flight": {"mode": "STABILIZE", "armed": false}, "ekf": {"attitude": {"roll": 0.023344991728663445, "pitch": 0.002808219753205776, "yaw": -0.5129067301750183}, "local_position": {"x": null, "y": null, "z": null}, "status": {"flags": 135, "velocity_variance": 0.0, "pos_horiz_variance": 0.0007815592107363045, "pos_vert_variance": 0.009278024546802044}}, "errors": ["PreArm: Hardware safety switch", "PreArm: Battery 1 low voltage failsafe"]}
{"timestamp": "2026-01-15T14:20:30.477398Z", "telemetry": {"lat": 28.7530059, "lon": 77.1179622, "satellites": 0, "altitude_gps_m": 0.28999999165534973, "groundspeed_mps": 0.0032881642691791058}, "flight": {"mode": "STABILIZE", "armed": false}, "ekf": {"attitude": {"roll": 0.023335088044404984, "pitch": 0.0027690203860402107, "yaw": -0.5129075050354004}, "local_position": {"x": null, "y": null, "z": null}, "status": {"flags": 135, "velocity_variance": 0.0, "pos_horiz_variance": 0.0008682490442879498, "pos_vert_variance": 0.022078601643443108}}, "errors": ["PreArm: Hardware safety switch", "PreArm: Battery 1 low voltage failsafe"]}
{"timestamp": "2026-01-15T14:20:31.484171Z", "telemetry": {"lat": 28.7530059, "lon": 77.1179622, "satellites": 0, "altitude_gps_m": 0.28999999165534973, "groundspeed_mps": 0.004069519229233265}, "flight": {"mode": "STABILIZE", "armed": false}, "ekf": {"attitude": {"roll": 0.023509716615080833, "pitch": 0.002679854864254594, "yaw": -0.5129179358482361}, "local_position": {"x": null, "y": null, "z": null}, "status": {"flags": 135, "velocity_variance": 0.0, "pos_horiz_variance": 0.0009112028637900949, "pos_vert_variance": 0.01628967374563217}}, "errors": ["PreArm: Hardware safety switch", "PreArm: Battery 1 low voltage failsafe"]}
{"timestamp": "2026-01-15T14:20:32.485512Z", "telemetry": {"lat": 28.7530059, "lon": 77.1179622, "satellites": 0, "altitude_gps_m": 0.28999999165534973, "groundspeed_mps": 0.004262304399162531}, "flight": {"mode": "STABILIZE", "armed": false}, "ekf": {"attitude": {"roll": 0.02361457794904709, "pitch": 0.0028227567672729492, "yaw": -0.5129789710044861}, "local_position": {"x": null, "y": null, "z": null}, "status": {"flags": 135, "velocity_variance": 0.0, "pos_horiz_variance": 0.0009888181230053306, "pos_vert_variance": 0.0638815313577652}}, "errors": ["PreArm: Hardware safety switch", "PreArm: Battery 1 low voltage failsafe"]}
{"timestamp": "2026-01-15T14:20:33.512462Z", "telemetry": {"lat": 28.7530059, "lon": 77.1179622, "satellites": 0, "altitude_gps_m": 0.28999999165534973, "groundspeed_mps": 0.002464618533849716}, "flight": {"mode": "STABILIZE", "armed": false}, "ekf": {"attitude": {"roll": 0.023766322061419487, "pitch": 0.0028143422678112984, "yaw": -0.5129196047782898}, "local_position": {"x": null, "y": null, "z": null}, "status": {"flags": 135, "velocity_variance": 0.0, "pos_horiz_variance": 0.0008662648615427315, "pos_vert_variance": 0.05586501955986023}}, "errors": ["PreArm: Hardware safety switch", "PreArm: Battery 1 low voltage failsafe"]}
{"timestamp": "2026-01-15T14:20:34.484284Z", "telemetry": {"lat": 28.7530059, "lon": 77.1179622, "satellites": 0, "altitude_gps_m": 0.28999999165534973, "groundspeed_mps": 0.0024729871656745672}, "flight": {"mode": "STABILIZE", "armed": false}, "ekf": {"attitude": {"roll": 0.023884668946266174, "pitch": 0.003180220490321517, "yaw": -0.5127940773963928}, "local_position": {"x": null, "y": null, "z": null}, "status": {"flags": 135, "velocity_variance": 0.0, "pos_horiz_variance": 0.00022484658984467387, "pos_vert_variance": 0.02604036219418049}}, "errors": ["PreArm: Hardware safety switch", "PreArm: Battery 1 low voltage failsafe"]}
{"timestamp": "2026-01-15T14:20:35.511708Z", "telemetry": {"lat": 28.7530059, "lon": 77.1179622, "satellites": 0, "altitude_gps_m": 0.28999999165534973, "groundspeed_mps": 0.006836382206529379}, "flight": {"mode": "STABILIZE", "armed": false}, "ekf": {"attitude": {"roll": 0.024046914651989937, "pitch": 0.003489414229989052, "yaw": -0.5128300189971924}, "local_position": {"x": null, "y": null, "z": null}, "status": {"flags": 135, "velocity_variance": 0.0, "pos_horiz_variance": 0.00041377966408617795, "pos_vert_variance": 0.04200098663568497}}, "errors": ["PreArm: Hardware safety switch", "PreArm: Battery 1 low voltage failsafe"]}
{"timestamp": "2026-01-15T14:20:36.512271Z", "telemetry": {"lat": 28.7530059, "lon": 77.1179622, "satellites": 0, "altitude_gps_m": 0.28999999165534973, "groundspeed_mps": 0.01564926654100418}, "flight": {"mode": "STABILIZE", "armed": false}, "ekf": {"attitude": {"roll": 0.024211464449763298, "pitch": 0.003723509842529893, "yaw": -0.5128498673439026}, "local_position": {"x": null, "y": null, "z": null}, "status": {"flags": 135, "velocity_variance": 0.0, "pos_horiz_variance": 0.001896748784929514, "pos_vert_variance": 0.07729706913232803}}, "errors": ["PreArm: Hardware safety switch", "PreArm: Battery 1 low voltage failsafe"]}
{"timestamp": "2026-01-15T14:20:37.516769Z", "telemetry": {"lat": 28.7530059, "lon": 77.1179622, "satellites": 0, "altitude_gps_m": 0.28999999165534973, "groundspeed_mps": 0.025495173409581184}, "flight": {"mode": "STABILIZE", "armed": false}, "ekf": {"attitude": {"roll": 0.024145973846316338, "pitch": 0.003989877179265022, "yaw": -0.5130068063735962}, "local_position": {"x": null, "y": null, "z": null}, "status": {"flags": 135, "velocity_variance": 0.0, "pos_horiz_variance": 0.003640254493802786, "pos_vert_variance": 0.05538545176386833}}, "errors": ["PreArm: Hardware safety switch", "PreArm: Battery 1 low voltage failsafe"]}
{"timestamp": "2026-01-15T14:20:38.485894Z", "telemetry": {"lat": 28.7530059, "lon": 77.1179622, "satellites": 0, "altitude_gps_m": 0.28999999165534973, "groundspeed_mps": 0.02547786757349968}, "flight": {"mode": "STABILIZE", "armed": false}, "ekf": {"attitude": {"roll": 0.024100996553897858, "pitch": 0.003943053539842367, "yaw": -0.512953519821167}, "local_position": {"x": null, "y": null, "z": null}, "status": {"flags": 135, "velocity_variance": 0.0, "pos_horiz_variance": 0.0050066988915205, "pos_vert_variance": 0.029995398595929146}}, "errors": ["PreArm: Hardware safety switch", "PreArm: Battery 1 low voltage failsafe"]}
{"timestamp": "2026-01-15T14:20:39.488238Z", "telemetry": {"lat": 28.7530059, "lon": 77.1179622, "satellites": 0, "altitude_gps_m": 0.28999999165534973, "groundspeed_mps": 0.024906083941459656}, "flight": {"mode": "STABILIZE", "armed": false}, "ekf": {"attitude": {"roll": 0.023929698392748833, "pitch": 0.0037967741955071688, "yaw": -0.5128688812255859}, "local_position": {"x": null, "y": null, "z": null}, "status": {"flags": 135, "velocity_variance": 0.0, "pos_horiz_variance": 0.005482186563313007, "pos_vert_variance": 0.023006010800600052}}, "errors": ["PreArm: Hardware safety switch", "PreArm: Battery 1 low voltage failsafe"]}
{"timestamp": "2026-01-15T14:20:40.489847Z", "telemetry": {"lat": 28.7530059, "lon": 77.1179622, "satellites": 0, "altitude_gps_m": 0.28999999165534973, "groundspeed_mps": 0.02033577673137188}, "flight": {"mode": "STABILIZE", "armed": false}, "ekf": {"attitude": {"roll": 0.02373778074979782, "pitch": 0.0035765059292316437, "yaw": -0.5129297375679016}, "local_position": {"x": null, "y": null, "z": null}, "status": {"flags": 135, "velocity_variance": 0.0, "pos_horiz_variance": 0.005365653894841671, "pos_vert_variance": 0.02233423851430416}}, "errors": ["PreArm: Hardware safety switch", "PreArm: Battery 1 low voltage failsafe"]}
{"timestamp": "2026-01-15T14:20:41.489902Z", "telemetry": {"lat": 28.7530059, "lon": 77.1179622, "satellites": 0, "altitude_gps_m": 0.28999999165534973, "groundspeed_mps": 0.01672975905239582}, "flight": {"mode": "STABILIZE", "armed": false}, "ekf": {"attitude": {"roll": 0.02362777478992939, "pitch": 0.0035568708553910255, "yaw": -0.5129268765449524}, "local_position": {"x": null, "y": null, "z": null}, "status": {"flags": 135, "velocity_variance": 0.0, "pos_horiz_variance": 0.004811144899576902, "pos_vert_variance": 0.013980649411678314}}, "errors": ["PreArm: Hardware safety switch", "PreArm: Battery 1 low voltage failsafe"]}
{"timestamp": "2026-01-15T14:20:42.492810Z", "telemetry": {"lat": 28.7530059, "lon": 77.1179622, "satellites": 0, "altitude_gps_m": 0.28999999165534973, "groundspeed_mps": 0.013458707369863987}, "flight": {"mode": "STABILIZE", "armed": false}, "ekf": {"attitude": {"roll": 0.023458633571863174, "pitch": 0.0034339837729930878, "yaw": -0.5131468176841736}, "local_position": {"x": null, "y": null, "z": null}, "status": {"flags": 135, "velocity_variance": 0.0, "pos_horiz_variance": 0.0041406117379665375, "pos_vert_variance": 0.021857064217329025}}, "errors": ["PreArm: Hardware safety switch", "PreArm: Battery 1 low voltage failsafe"]}
{"timestamp": "2026-01-15T14:20:43.496462Z", "telemetry": {"lat": 28.7530059, "lon": 77.1179622, "satellites": 0, "altitude_gps_m": 0.28999999165534973, "groundspeed_mps": 0.012177412398159504}, "flight": {"mode": "STABILIZE", "armed": false}, "ekf": {"attitude": {"roll": 0.02346782013773918, "pitch": 0.0034609653521329165, "yaw": -0.5131568908691406}, "local_position": {"x": null, "y": null, "z": null}, "status": {"flags": 135, "velocity_variance": 0.0, "pos_horiz_variance": 0.003198574995622039, "pos_vert_variance": 0.013847346417605877}}, "errors": ["PreArm: Hardware safety switch", "PreArm: Battery 1 low voltage failsafe"]}
{"timestamp": "2026-01-15T14:20:44.520050Z", "telemetry": {"lat": 28.7530059, "lon": 77.1179622, "satellites": 0, "altitude_gps_m": 0.28999999165534973, "groundspeed_mps": 0.010257518850266933}, "flight": {"mode": "STABILIZE", "armed": false}, "ekf": {"attitude": {"roll": 0.023590002208948135, "pitch": 0.0035133291967213154, "yaw": -0.5132050514221191}, "local_position": {"x": null, "y": null, "z": null}, "status": {"flags": 135, "velocity_variance": 0.0, "pos_horiz_variance": 0.0029610861092805862, "pos_vert_variance": 0.027336107566952705}}, "errors": ["PreArm: Hardware safety switch", "PreArm: Battery 1 low voltage failsafe"]}
{"timestamp": "2026-01-15T14:20:45.493707Z", "telemetry": {"lat": 28.7530059, "lon": 77.1179622, "satellites": 0, "altitude_gps_m": 0.28999999165534973, "groundspeed_mps": 0.013386216014623642}, "flight": {"mode": "STABILIZE", "armed": false}, "ekf": {"attitude": {"roll": 0.02368978224694729, "pitch": 0.003654263913631439, "yaw": -0.5132235884666443}, "local_position": {"x": null, "y": null, "z": null}, "status": {"flags": 135, "velocity_variance": 0.0, "pos_horiz_variance": 0.002954800147563219, "pos_vert_variance": 0.030941467732191086}}, "errors": ["PreArm: Hardware safety switch", "PreArm: Battery 1 low voltage failsafe"]}
{"timestamp": "2026-01-15T14:20:46.488140Z", "telemetry": {"lat": 28.7530059, "lon": 77.1179622, "satellites": 0, "altitude_gps_m": 0.28999999165534973, "groundspeed_mps": 0.012649535201489925}, "flight": {"mode": "STABILIZE", "armed": false}, "ekf": {"attitude": {"roll": 0.02380141243338585, "pitch": 0.0035116146318614483, "yaw": -0.5130746364593506}, "local_position": {"x": null, "y": null, "z": null}, "status": {"flags": 135, "velocity_variance": 0.0, "pos_horiz_variance": 0.003110215300694108, "pos_vert_variance": 0.060507968068122864}}, "errors": ["PreArm: Hardware safety switch", "PreArm: Battery 1 low voltage failsafe"]}
{"timestamp": "2026-01-15T14:20:47.501144Z", "telemetry": {"lat": 28.7530059, "lon": 77.1179622, "satellites": 0, "altitude_gps_m": 0.28999999165534973, "groundspeed_mps": 0.011584561318159103}, "flight": {"mode": "STABILIZE", "armed": false}, "ekf": {"attitude": {"roll": 0.023832479491829872, "pitch": 0.0035143140703439713, "yaw": -0.5129989385604858}, "local_position": {"x": null, "y": null, "z": null}, "status": {"flags": 135, "velocity_variance": 0.0, "pos_horiz_variance": 0.003049607155844569, "pos_vert_variance": 0.04484722763299942}}, "errors": ["PreArm: Hardware safety switch", "PreArm: Battery 1 low voltage failsafe"]}
{"timestamp": "2026-01-15T14:20:48.492205Z", "telemetry": {"lat": 28.7530059, "lon": 77.1179622, "satellites": 0, "altitude_gps_m": 0.28999999165534973, "groundspeed_mps": 0.012552584521472454}, "flight": {"mode": "STABILIZE", "armed": false}, "ekf": {"attitude": {"roll": 0.023913679644465446, "pitch": 0.003373959567397833, "yaw": -0.5130544900894165}, "local_position": {"x": null, "y": null, "z": null}, "status": {"flags": 135, "velocity_variance": 0.0, "pos_horiz_variance": 0.0029457276687026024, "pos_vert_variance": 0.018426908180117607}}, "errors": ["PreArm: Hardware safety switch", "PreArm: Battery 1 low voltage failsafe"]}
{"timestamp": "2026-01-15T14:20:49.501830Z", "telemetry": {"lat": 28.7530059, "lon": 77.1179622, "satellites": 0, "altitude_gps_m": 0.28999999165534973, "groundspeed_mps": 0.012178747914731503}, "flight": {"mode": "STABILIZE", "armed": false}, "ekf": {"attitude": {"roll": 0.023852290585637093, "pitch": 0.0036530359648168087, "yaw": -0.5131165385246277}, "local_position": {"x": null, "y": null, "z": null}, "status": {"flags": 135, "velocity_variance": 0.0, "pos_horiz_variance": 0.002912323921918869, "pos_vert_variance": 0.08840034157037735}}, "errors": ["PreArm: Hardware safety switch", "PreArm: Battery 1 low voltage failsafe", "PreArm: Hardware safety switch", "PreArm: Battery 1 low voltage failsafe"]}
{"timestamp": "2026-01-15T14:20:50.503015Z", "telemetry": {"lat": 28.7530059, "lon": 77.1179622, "satellites": 0, "altitude_gps_m": 0.28999999165534973, "groundspeed_mps": 0.013498996384441853}, "flight": {"mode": "STABILIZE", "armed": false}, "ekf": {"attitude": {"roll": 0.023732494562864304, "pitch": 0.0033908395562320948, "yaw": -0.5131536722183228}, "local_position": {"x": null, "y": null, "z": null}, "status": {"flags": 135, "velocity_variance": 0.0, "pos_horiz_variance": 0.002990792039781809, "pos_vert_variance": 0.012443575076758862}}, "errors": ["PreArm: Hardware safety switch", "PreArm: Battery 1 low voltage failsafe", "PreArm: Hardware safety switch", "PreArm: Battery 1 low voltage failsafe"]}
{"timestamp": "2026-01-15T14:20:51.496444Z", "telemetry": {"lat": 28.7530059, "lon": 77.1179622, "satellites": 0, "altitude_gps_m": 0.28999999165534973, "groundspeed_mps": 0.011034904047846794}, "flight": {"mode": "STABILIZE", "armed": false}, "ekf": {"attitude": {"roll": 0.023657046258449554, "pitch": 0.0030964245088398457, "yaw": -0.513124942779541}, "local_position": {"x": null, "y": null, "z": null}, "status": {"flags": 135, "velocity_variance": 0.0, "pos_horiz_variance": 0.0030657637398689985, "pos_vert_variance": 0.0028382414020597935}}, "errors": ["PreArm: Hardware safety switch", "PreArm: Battery 1 low voltage failsafe", "PreArm: Hardware safety switch", "PreArm: Battery 1 low voltage failsafe"]}
{"timestamp": "2026-01-15T14:20:52.496486Z", "telemetry": {"lat": 28.7530059, "lon": 77.1179622, "satellites": 0, "altitude_gps_m": 0.28999999165534973, "groundspeed_mps": 0.005659287329763174}, "flight": {"mode": "STABILIZE", "armed": false}, "ekf": {"attitude": {"roll": 0.023536935448646545, "pitch": 0.0027576969005167484, "yaw": -0.5130641460418701}, "local_position": {"x": null, "y": null, "z": null}, "status": {"flags": 135, "velocity_variance": 0.0, "pos_horiz_variance": 0.002432420616969466, "pos_vert_variance": 0.06837218999862671}}, "errors": ["PreArm: Hardware safety switch", "PreArm: Battery 1 low voltage failsafe", "PreArm: Hardware safety switch", "PreArm: Battery 1 low voltage failsafe"]}
{"timestamp": "2026-01-15T14:20:53.496102Z", "telemetry": {"lat": 28.7530059, "lon": 77.1179622, "satellites": 0, "altitude_gps_m": 0.28999999165534973, "groundspeed_mps": 0.004661410581320524}, "flight": {"mode": "STABILIZE", "armed": false}, "ekf": {"attitude": {"roll": 0.02344452776014805, "pitch": 0.002589563140645623, "yaw": -0.5131114721298218}, "local_position": {"x": null, "y": null, "z": null}, "status": {"flags": 135, "velocity_variance": 0.0, "pos_horiz_variance": 0.001735518453642726, "pos_vert_variance": 0.02390209585428238}}, "errors": ["PreArm: Hardware safety switch", "PreArm: Battery 1 low voltage failsafe", "PreArm: Hardware safety switch", "PreArm: Battery 1 low voltage failsafe"]}
{"timestamp": "2026-01-15T14:20:54.470185Z", "telemetry": {"lat": 28.7530059, "lon": 77.1179622, "satellites": 0, "altitude_gps_m": 0.28999999165534973, "groundspeed_mps": 0.003073284635320306}, "flight": {"mode": "STABILIZE", "armed": false}, "ekf": {"attitude": {"roll": 0.023464767262339592, "pitch": 0.0023033120669424534, "yaw": -0.5130610466003418}, "local_position": {"x": null, "y": null, "z": null}, "status": {"flags": 135, "velocity_variance": 0.0, "pos_horiz_variance": 0.0009850503411144018, "pos_vert_variance": 0.022121645510196686}}, "errors": ["PreArm: Hardware safety switch", "PreArm: Battery 1 low voltage failsafe", "PreArm: Hardware safety switch", "PreArm: Battery 1 low voltage failsafe"]}
{"timestamp": "2026-01-15T14:20:55.471602Z", "telemetry": {"lat": 28.7530059, "lon": 77.1179622, "satellites": 0, "altitude_gps_m": 0.28999999165534973, "groundspeed_mps": 0.009661159478127956}, "flight": {"mode": "STABILIZE", "armed": false}, "ekf": {"attitude": {"roll": 0.02339668571949005, "pitch": 0.0021284495014697313, "yaw": -0.512930154800415}, "local_position": {"x": null, "y": null, "z": null}, "status": {"flags": 135, "velocity_variance": 0.0, "pos_horiz_variance": 0.0005631147651001811, "pos_vert_variance": 0.04951157420873642}}, "errors": ["PreArm: Hardware safety switch", "PreArm: Battery 1 low voltage failsafe", "PreArm: Hardware safety switch", "PreArm: Battery 1 low voltage failsafe"]}
{"timestamp": "2026-01-15T14:20:56.499556Z", "telemetry": {"lat": 28.7530059, "lon": 77.1179622, "satellites": 0, "altitude_gps_m": 0.28999999165534973, "groundspeed_mps": 0.013439453206956387}, "flight": {"mode": "STABILIZE", "armed": false}, "ekf": {"attitude": {"roll": 0.023415230214595795, "pitch": 0.0020480866078287363, "yaw": -0.5129626393318176}, "local_position": {"x": null, "y": null, "z": null}, "status": {"flags": 135, "velocity_variance": 0.0, "pos_horiz_variance": 0.0019169531296938658, "pos_vert_variance": 0.02307209186255932}}, "errors": ["PreArm: Hardware safety switch", "PreArm: Battery 1 low voltage failsafe", "PreArm: Hardware safety switch", "PreArm: Battery 1 low voltage failsafe"]}
{"timestamp": "2026-01-15T14:20:57.499836Z", "telemetry": {"lat": 28.7530059, "lon": 77.1179622, "satellites": 0, "altitude_gps_m": 0.28999999165534973, "groundspeed_mps": 0.017042938619852066}, "flight": {"mode": "STABILIZE", "armed": false}, "ekf": {"attitude": {"roll": 0.023388758301734924, "pitch": 0.002057377714663744, "yaw": -0.5130595564842224}, "local_position": {"x": null, "y": null, "z": null}, "status": {"flags": 135, "velocity_variance": 0.0, "pos_horiz_variance": 0.002836928702890873, "pos_vert_variance": 0.03608676791191101}}, "errors": ["PreArm: Hardware safety switch", "PreArm: Battery 1 low voltage failsafe", "PreArm: Hardware safety switch", "PreArm: Battery 1 low voltage failsafe"]}
{"timestamp": "2026-01-15T14:20:58.499755Z", "telemetry": {"lat": 28.7530059, "lon": 77.1179622, "satellites": 0, "altitude_gps_m": 0.28999999165534973, "groundspeed_mps": 0.01935264840722084}, "flight": {"mode": "STABILIZE", "armed": false}, "ekf": {"attitude": {"roll": 0.02331731840968132, "pitch": 0.0021163327619433403, "yaw": -0.5131884217262268}, "local_position": {"x": null, "y": null, "z": null}, "status": {"flags": 135, "velocity_variance": 0.0, "pos_horiz_variance": 0.003735464531928301, "pos_vert_variance": 0.023866958916187286}}, "errors": ["PreArm: Hardware safety switch", "PreArm: Battery 1 low voltage failsafe", "PreArm: Hardware safety switch", "PreArm: Battery 1 low voltage failsafe"]}
{"timestamp": "2026-01-15T14:20:59.503879Z", "telemetry": {"lat": 28.7530059, "lon": 77.1179622, "satellites": 0, "altitude_gps_m": 0.28999999165534973, "groundspeed_mps": 0.01648341305553913}, "flight": {"mode": "STABILIZE", "armed": false}, "ekf": {"attitude": {"roll": 0.023237237706780434, "pitch": 0.002070855814963579, "yaw": -0.5132833123207092}, "local_position": {"x": null, "y": null, "z": null}, "status": {"flags": 135, "velocity_variance": 0.0, "pos_horiz_variance": 0.004050844814628363, "pos_vert_variance": 0.0757426768541336}}, "errors": ["PreArm: Hardware safety switch", "PreArm: Battery 1 low voltage failsafe", "PreArm: Hardware safety switch", "PreArm: Battery 1 low voltage failsafe"]}
{"timestamp": "2026-01-15T14:21:00.503521Z", "telemetry": {"lat": 28.7530059, "lon": 77.1179622, "satellites": 0, "altitude_gps_m": 0.28999999165534973, "groundspeed_mps": 0.01674346812069416}, "flight": {"mode": "STABILIZE", "armed": false}, "ekf": {"attitude": {"roll": 0.023220280185341835, "pitch": 0.0020256307907402515, "yaw": -0.5132236480712891}, "local_position": {"x": null, "y": null, "z": null}, "status": {"flags": 135, "velocity_variance": 0.0, "pos_horiz_variance": 0.003993532154709101, "pos_vert_variance": 0.04574000835418701}}, "errors": ["PreArm: Hardware safety switch", "PreArm: Battery 1 low voltage failsafe", "PreArm: Hardware safety switch", "PreArm: Battery 1 low voltage failsafe"]}
{"timestamp": "2026-01-15T14:21:01.478261Z", "telemetry": {"lat": 28.7530059, "lon": 77.1179622, "satellites": 0, "altitude_gps_m": 0.28999999165534973, "groundspeed_mps": 0.016805283725261688}, "flight": {"mode": "STABILIZE", "armed": false}, "ekf": {"attitude": {"roll": 0.02329396829009056, "pitch": 0.0020516645163297653, "yaw": -0.5131734013557434}, "local_position": {"x": null, "y": null, "z": null}, "status": {"flags": 135, "velocity_variance": 0.0, "pos_horiz_variance": 0.003970832098275423, "pos_vert_variance": 0.03600316867232323}}, "errors": ["PreArm: Hardware safety switch", "PreArm: Battery 1 low voltage failsafe", "PreArm: Hardware safety switch", "PreArm: Battery 1 low voltage failsafe"]}
{"timestamp": "2026-01-15T14:21:02.479273Z", "telemetry": {"lat": 28.7530059, "lon": 77.1179622, "satellites": 0, "altitude_gps_m": 0.28999999165534973, "groundspeed_mps": 0.015363018959760666}, "flight": {"mode": "STABILIZE", "armed": false}, "ekf": {"attitude": {"roll": 0.02334107644855976, "pitch": 0.002069160807877779, "yaw": -0.5133350491523743}, "local_position": {"x": null, "y": null, "z": null}, "status": {"flags": 135, "velocity_variance": 0.0, "pos_horiz_variance": 0.003949872218072414, "pos_vert_variance": 0.015266774222254753}}, "errors": ["PreArm: Hardware safety switch", "PreArm: Battery 1 low voltage failsafe", "PreArm: Hardware safety switch", "PreArm: Battery 1 low voltage failsafe"]}
{"timestamp": "2026-01-15T14:21:03.479156Z", "telemetry": {"lat": 28.7530059, "lon": 77.1179622, "satellites": 0, "altitude_gps_m": 0.28999999165534973, "groundspeed_mps": 0.013015969656407833}, "flight": {"mode": "STABILIZE", "armed": false}, "ekf": {"attitude": {"roll": 0.023367272689938545, "pitch": 0.0020372795406728983, "yaw": -0.5134055018424988}, "local_position": {"x": null, "y": null, "z": null}, "status": {"flags": 135, "velocity_variance": 0.0, "pos_horiz_variance": 0.003532437840476632, "pos_vert_variance": 0.07351721078157425}}, "errors": ["PreArm: Hardware safety switch", "PreArm: Battery 1 low voltage failsafe", "PreArm: Hardware safety switch", "PreArm: Battery 1 low voltage failsafe"]}
{"timestamp": "2026-01-15T14:21:04.507529Z", "telemetry": {"lat": 28.7530059, "lon": 77.1179622, "satellites": 0, "altitude_gps_m": 0.28999999165534973, "groundspeed_mps": 0.013947955332696438}, "flight": {"mode": "STABILIZE", "armed": false}, "ekf": {"attitude": {"roll": 0.023450877517461777, "pitch": 0.0020633225794881582, "yaw": -0.5133211612701416}, "local_position": {"x": null, "y": null, "z": null}, "status": {"flags": 135, "velocity_variance": 0.0, "pos_horiz_variance": 0.0034574992023408413, "pos_vert_variance": 0.11203914135694504}}, "errors": ["PreArm: Hardware safety switch", "PreArm: Battery 1 low voltage failsafe", "PreArm: Hardware safety switch", "PreArm: Battery 1 low voltage failsafe"]}
{"timestamp": "2026-01-15T14:21:05.508026Z", "telemetry": {"lat": 28.7530059, "lon": 77.1179622, "satellites": 0, "altitude_gps_m": 0.28999999165534973, "groundspeed_mps": 0.015204153954982758}, "flight": {"mode": "STABILIZE", "armed": false}, "ekf": {"attitude": {"roll": 0.023412374779582024, "pitch": 0.002019123174250126, "yaw": -0.5132215619087219}, "local_position": {"x": null, "y": null, "z": null}, "status": {"flags": 135, "velocity_variance": 0.0, "pos_horiz_variance": 0.003561745397746563, "pos_vert_variance": 0.06712279468774796}}, "errors": ["PreArm: Hardware safety switch", "PreArm: Battery 1 low voltage failsafe", "PreArm: Hardware safety switch", "PreArm: Battery 1 low voltage failsafe"]}
{"timestamp": "2026-01-15T14:21:06.507702Z", "telemetry": {"lat": 28.7530059, "lon": 77.1179622, "satellites": 0, "altitude_gps_m": 0.28999999165534973, "groundspeed_mps": 0.016029100865125656}, "flight": {"mode": "STABILIZE", "armed": false}, "ekf": {"attitude": {"roll": 0.023430995643138885, "pitch": 0.002169242827221751, "yaw": -0.5132797956466675}, "local_position": {"x": null, "y": null, "z": null}, "status": {"flags": 135, "velocity_variance": 0.0, "pos_horiz_variance": 0.0037594367749989033, "pos_vert_variance": 0.010245224460959435}}, "errors": ["PreArm: Hardware safety switch", "PreArm: Battery 1 low voltage failsafe", "PreArm: Hardware safety switch", "PreArm: Battery 1 low voltage failsafe"]}
{"timestamp": "2026-01-15T14:21:07.511958Z", "telemetry": {"lat": 28.7530059, "lon": 77.1179622, "satellites": 0, "altitude_gps_m": 0.28999999165534973, "groundspeed_mps": 0.01431647315621376}, "flight": {"mode": "STABILIZE", "armed": false}, "ekf": {"attitude": {"roll": 0.02342226915061474, "pitch": 0.002165280282497406, "yaw": -0.5132439136505127}, "local_position": {"x": null, "y": null, "z": null}, "status": {"flags": 135, "velocity_variance": 0.0, "pos_horiz_variance": 0.003854157403111458, "pos_vert_variance": 0.011081877164542675}}, "errors": ["PreArm: Hardware safety switch", "PreArm: Battery 1 low voltage failsafe", "PreArm: Hardware safety switch", "PreArm: Battery 1 low voltage failsafe"]}
{"timestamp": "2026-01-15T14:21:08.485043Z", "telemetry": {"lat": 28.7530059, "lon": 77.1179622, "satellites": 0, "altitude_gps_m": 0.28999999165534973, "groundspeed_mps": 0.011198730207979679}, "flight": {"mode": "STABILIZE", "armed": false}, "ekf": {"attitude": {"roll": 0.023279011249542236, "pitch": 0.0021748575381934643, "yaw": -0.5132715702056885}, "local_position": {"x": null, "y": null, "z": null}, "status": {"flags": 135, "velocity_variance": 0.0, "pos_horiz_variance": 0.003510023234412074, "pos_vert_variance": 0.00816553644835949}}, "errors": ["PreArm: Hardware safety switch", "PreArm: Battery 1 low voltage failsafe", "PreArm: Hardware safety switch", "PreArm: Battery 1 low voltage failsafe"]}
{"timestamp": "2026-01-15T14:21:09.486379Z", "telemetry": {"lat": 28.7530059, "lon": 77.1179622, "satellites": 0, "altitude_gps_m": 0.28999999165534973, "groundspeed_mps": 0.011474566534161568}, "flight": {"mode": "STABILIZE", "armed": false}, "ekf": {"attitude": {"roll": 0.02333579957485199, "pitch": 0.002152698114514351, "yaw": -0.5133098363876343}, "local_position": {"x": null, "y": null, "z": null}, "status": {"flags": 135, "velocity_variance": 0.0, "pos_horiz_variance": 0.0029693818651139736, "pos_vert_variance": 0.029786869883537292}}, "errors": ["PreArm: Hardware safety switch", "PreArm: Battery 1 low voltage failsafe", "PreArm: Hardware safety switch", "PreArm: Battery 1 low voltage failsafe"]}
{"timestamp": "2026-01-15T14:21:10.485906Z", "telemetry": {"lat": 28.7530059, "lon": 77.1179622, "satellites": 0, "altitude_gps_m": 0.28999999165534973, "groundspeed_mps": 0.009594177827239037}, "flight": {"mode": "STABILIZE", "armed": false}, "ekf": {"attitude": {"roll": 0.023414937779307365, "pitch": 0.0021695501636713743, "yaw": -0.513505220413208}, "local_position": {"x": null, "y": null, "z": null}, "status": {"flags": 135, "velocity_variance": 0.0, "pos_horiz_variance": 0.0027320391964167356, "pos_vert_variance": 0.025519657880067825}}, "errors": ["PreArm: Hardware safety switch", "PreArm: Battery 1 low voltage failsafe", "PreArm: Hardware safety switch", "PreArm: Battery 1 low voltage failsafe"]}
{"timestamp": "2026-01-15T14:21:11.484758Z", "telemetry": {"lat": 28.7530059, "lon": 77.1179622, "satellites": 0, "altitude_gps_m": 0.28999999165534973, "groundspeed_mps": 0.011899684555828571}, "flight": {"mode": "STABILIZE", "armed": false}, "ekf": {"attitude": {"roll": 0.02348931133747101, "pitch": 0.002182731870561838, "yaw": -0.513453483581543}, "local_position": {"x": null, "y": null, "z": null}, "status": {"flags": 135, "velocity_variance": 0.0, "pos_horiz_variance": 0.0026954838540405035, "pos_vert_variance": 0.05174675211310387}}, "errors": ["PreArm: Hardware safety switch", "PreArm: Battery 1 low voltage failsafe", "PreArm: Hardware safety switch", "PreArm: Battery 1 low voltage failsafe"]}
{"timestamp": "2026-01-15T14:21:12.491492Z", "telemetry": {"lat": 28.7530059, "lon": 77.1179622, "satellites": 0, "altitude_gps_m": 0.28999999165534973, "groundspeed_mps": 0.010255232453346252}, "flight": {"mode": "STABILIZE", "armed": false}, "ekf": {"attitude": {"roll": 0.023423220962285995, "pitch": 0.00225192797370255, "yaw": -0.5134850740432739}, "local_position": {"x": null, "y": null, "z": null}, "status": {"flags": 135, "velocity_variance": 0.0, "pos_horiz_variance": 0.0026993220672011375, "pos_vert_variance": 0.07510718703269958}}, "errors": ["PreArm: Hardware safety switch", "PreArm: Battery 1 low voltage failsafe", "PreArm: Hardware safety switch", "PreArm: Battery 1 low voltage failsafe"]}
{"timestamp": "2026-01-15T14:21:13.516515Z", "telemetry": {"lat": 28.7530059, "lon": 77.1179622, "satellites": 0, "altitude_gps_m": 0.28999999165534973, "groundspeed_mps": 0.011474660597741604}, "flight": {"mode": "STABILIZE", "armed": false}, "ekf": {"attitude": {"roll": 0.02337653562426567, "pitch": 0.0023087847512215376, "yaw": -0.5134673118591309}, "local_position": {"x": null, "y": null, "z": null}, "status": {"flags": 135, "velocity_variance": 0.0, "pos_horiz_variance": 0.0027920305728912354, "pos_vert_variance": 0.034690745174884796}}, "errors": ["PreArm: Hardware safety switch", "PreArm: Battery 1 low voltage failsafe", "PreArm: Hardware safety switch", "PreArm: Battery 1 low voltage failsafe"]}
{"timestamp": "2026-01-15T14:21:14.515104Z", "telemetry": {"lat": 28.7530059, "lon": 77.1179622, "satellites": 0, "altitude_gps_m": 0.28999999165534973, "groundspeed_mps": 0.007854148745536804}, "flight": {"mode": "STABILIZE", "armed": false}, "ekf": {"attitude": {"roll": 0.023294642567634583, "pitch": 0.0023599504493176937, "yaw": -0.5133703947067261}, "local_position": {"x": null, "y": null, "z": null}, "status": {"flags": 135, "velocity_variance": 0.0, "pos_horiz_variance": 0.00256742793135345, "pos_vert_variance": 0.02407447248697281}}, "errors": ["PreArm: Hardware safety switch", "PreArm: Battery 1 low voltage failsafe", "PreArm: Hardware safety switch", "PreArm: Battery 1 low voltage failsafe"]}
{"timestamp": "2026-01-15T14:21:15.500446Z", "telemetry": {"lat": 28.7530059, "lon": 77.1179622, "satellites": 0, "altitude_gps_m": 0.28999999165534973, "groundspeed_mps": 0.007088263984769583}, "flight": {"mode": "STABILIZE", "armed": false}, "ekf": {"attitude": {"roll": 0.02342022769153118, "pitch": 0.0023176895920187235, "yaw": -0.513510525226593}, "local_position": {"x": null, "y": null, "z": null}, "status": {"flags": 135, "velocity_variance": 0.0, "pos_horiz_variance": 0.00211091130040586, "pos_vert_variance": 0.008895779959857464}}, "errors": ["PreArm: Hardware safety switch", "PreArm: Battery 1 low voltage failsafe", "PreArm: Hardware safety switch", "PreArm: Battery 1 low voltage failsafe"]}
{"timestamp": "2026-01-15T14:21:16.503814Z", "telemetry": {"lat": 28.7530059, "lon": 77.1179622, "satellites": 0, "altitude_gps_m": 0.28999999165534973, "groundspeed_mps": 0.009047925472259521}, "flight": {"mode": "STABILIZE", "armed": false}, "ekf": {"attitude": {"roll": 0.02332301251590252, "pitch": 0.0023061721585690975, "yaw": -0.5134817361831665}, "local_position": {"x": null, "y": null, "z": null}, "status": {"flags": 135, "velocity_variance": 0.0, "pos_horiz_variance": 0.002124026883393526, "pos_vert_variance": 0.0584021620452404}}, "errors": ["PreArm: Hardware safety switch", "PreArm: Battery 1 low voltage failsafe", "PreArm: Hardware safety switch", "PreArm: Battery 1 low voltage failsafe"]}
{"timestamp": "2026-01-15T14:21:17.503571Z", "telemetry": {"lat": 28.7530059, "lon": 77.1179622, "satellites": 0, "altitude_gps_m": 0.28999999165534973, "groundspeed_mps": 0.011044285260140896}, "flight": {"mode": "STABILIZE", "armed": false}, "ekf": {"attitude": {"roll": 0.02330208010971546, "pitch": 0.0022885878570377827, "yaw": -0.5135548114776611}, "local_position": {"x": null, "y": null, "z": null}, "status": {"flags": 135, "velocity_variance": 0.0, "pos_horiz_variance": 0.0023398869670927525, "pos_vert_variance": 0.0452188104391098}}, "errors": ["PreArm: Hardware safety switch", "PreArm: Battery 1 low voltage failsafe", "PreArm: Hardware safety switch", "PreArm: Battery 1 low voltage failsafe"]}
{"timestamp": "2026-01-15T14:21:18.469075Z", "telemetry": {"lat": 28.7530059, "lon": 77.1179622, "satellites": 0, "altitude_gps_m": 0.28999999165534973, "groundspeed_mps": 0.009756585583090782}, "flight": {"mode": "STABILIZE", "armed": false}, "ekf": {"attitude": {"roll": 0.023434584960341454, "pitch": 0.002325992099940777, "yaw": -0.5136306881904602}, "local_position": {"x": null, "y": null, "z": null}, "status": {"flags": 135, "velocity_variance": 0.0, "pos_horiz_variance": 0.002558017848059535, "pos_vert_variance": 0.029319340363144875}}, "errors": ["PreArm: Hardware safety switch", "PreArm: Battery 1 low voltage failsafe", "PreArm: Hardware safety switch", "PreArm: Battery 1 low voltage failsafe"]}
{"timestamp": "2026-01-15T14:21:19.477612Z", "telemetry": {"lat": 28.7530059, "lon": 77.1179622, "satellites": 0, "altitude_gps_m": 0.28999999165534973, "groundspeed_mps": 0.010176480747759342}, "flight": {"mode": "STABILIZE", "armed": false}, "ekf": {"attitude": {"roll": 0.0233931727707386, "pitch": 0.0024032092187553644, "yaw": -0.5138081312179565}, "local_position": {"x": null, "y": null, "z": null}, "status": {"flags": 135, "velocity_variance": 0.0, "pos_horiz_variance": 0.002463636454194784, "pos_vert_variance": 0.012948200106620789}}, "errors": ["PreArm: Hardware safety switch", "PreArm: Battery 1 low voltage failsafe", "PreArm: Hardware safety switch", "PreArm: Battery 1 low voltage failsafe", "PreArm: Hardware safety switch", "PreArm: Battery 1 low voltage failsafe"]}
{"timestamp": "2026-01-15T14:21:21.022921Z", "telemetry": {"lat": 28.7530059, "lon": 77.1179622, "satellites": 0, "altitude_gps_m": 0.28999999165534973, "groundspeed_mps": 0.008421408012509346}, "flight": {"mode": "STABILIZE", "armed": false}, "ekf": {"attitude": {"roll": 0.023328512907028198, "pitch": 0.0023999593686312437, "yaw": -0.5138824582099915}, "local_position": {"x": null, "y": null, "z": null}, "status": {"flags": 135, "velocity_variance": 0.0, "pos_horiz_variance": 0.002318313578143716, "pos_vert_variance": 0.04323666915297508}}, "errors": ["PreArm: Hardware safety switch", "PreArm: Battery 1 low voltage failsafe", "PreArm: Hardware safety switch", "PreArm: Battery 1 low voltage failsafe", "PreArm: Hardware safety switch", "PreArm: Battery 1 low voltage failsafe"]}
{"timestamp": "2026-01-15T14:21:21.557264Z", "telemetry": {"lat": 28.7530059, "lon": 77.1179622, "satellites": 0, "altitude_gps_m": 0.28999999165534973, "groundspeed_mps": 0.008899327367544174}, "flight": {"mode": "STABILIZE", "armed": false}, "ekf": {"attitude": {"roll": 0.02332841232419014, "pitch": 0.002437937306240201, "yaw": -0.5138890743255615}, "local_position": {"x": null, "y": null, "z": null}, "status": {"flags": 135, "velocity_variance": 0.0, "pos_horiz_variance": 0.0021735166665166616, "pos_vert_variance": 0.016501791775226593}}, "errors": ["PreArm: Hardware safety switch", "PreArm: Battery 1 low voltage failsafe", "PreArm: Hardware safety switch", "PreArm: Battery 1 low voltage failsafe", "PreArm: Hardware safety switch", "PreArm: Battery 1 low voltage failsafe"]}
{"timestamp": "2026-01-15T14:21:22.476413Z", "telemetry": {"lat": 28.7530059, "lon": 77.1179622, "satellites": 0, "altitude_gps_m": 0.28999999165534973, "groundspeed_mps": 0.004540122579783201}, "flight": {"mode": "STABILIZE", "armed": false}, "ekf": {"attitude": {"roll": 0.023412656038999557, "pitch": 0.0025007640942931175, "yaw": -0.5139122605323792}, "local_position": {"x": null, "y": null, "z": null}, "status": {"flags": 135, "velocity_variance": 0.0, "pos_horiz_variance": 0.0018229798879474401, "pos_vert_variance": 0.08852273970842361}}, "errors": ["PreArm: Hardware safety switch", "PreArm: Battery 1 low voltage failsafe", "PreArm: Hardware safety switch", "PreArm: Battery 1 low voltage failsafe", "PreArm: Hardware safety switch", "PreArm: Battery 1 low voltage failsafe"]}
{"timestamp": "2026-01-15T14:21:23.476169Z", "telemetry": {"lat": 28.7530059, "lon": 77.1179622, "satellites": 0, "altitude_gps_m": 0.28999999165534973, "groundspeed_mps": 0.0018268800340592861}, "flight": {"mode": "STABILIZE", "armed": false}, "ekf": {"attitude": {"roll": 0.023365145549178123, "pitch": 0.002627470763400197, "yaw": -0.5139123797416687}, "local_position": {"x": null, "y": null, "z": null}, "status": {"flags": 135, "velocity_variance": 0.0, "pos_horiz_variance": 0.0011895271018147469, "pos_vert_variance": 0.010789779014885426}}, "errors": ["PreArm: Hardware safety switch", "PreArm: Battery 1 low voltage failsafe", "PreArm: Hardware safety switch", "PreArm: Battery 1 low voltage failsafe", "PreArm: Hardware safety switch", "PreArm: Battery 1 low voltage failsafe"]}
{"timestamp": "2026-01-15T14:21:24.500682Z", "telemetry": {"lat": 28.7530059, "lon": 77.1179622, "satellites": 0, "altitude_gps_m": 0.28999999165534973, "groundspeed_mps": 0.003879233729094267}, "flight": {"mode": "STABILIZE", "armed": false}, "ekf": {"attitude": {"roll": 0.023401644080877304, "pitch": 0.0025528185069561005, "yaw": -0.5138977766036987}, "local_position": {"x": null, "y": null, "z": null}, "status": {"flags": 135, "velocity_variance": 0.0, "pos_horiz_variance": 0.0005150202778168023, "pos_vert_variance": 0.03710778430104256}}, "errors": ["PreArm: Hardware safety switch", "PreArm: Battery 1 low voltage failsafe", "PreArm: Hardware safety switch", "PreArm: Battery 1 low voltage failsafe", "PreArm: Hardware safety switch", "PreArm: Battery 1 low voltage failsafe"]}
{"timestamp": "2026-01-15T14:21:25.570864Z", "telemetry": {"lat": 28.7530059, "lon": 77.1179622, "satellites": 0, "altitude_gps_m": 0.28999999165534973, "groundspeed_mps": 0.004419677425175905}, "flight": {"mode": "STABILIZE", "armed": false}, "ekf": {"attitude": {"roll": 0.023376747965812683, "pitch": 0.0024861206766217947, "yaw": -0.5139033198356628}, "local_position": {"x": null, "y": null, "z": null}, "status": {"flags": 135, "velocity_variance": 0.0, "pos_horiz_variance": 0.0006152007263153791, "pos_vert_variance": 0.02744785137474537}}, "errors": ["PreArm: Hardware safety switch", "PreArm: Battery 1 low voltage failsafe", "PreArm: Hardware safety switch", "PreArm: Battery 1 low voltage failsafe", "PreArm: Hardware safety switch", "PreArm: Battery 1 low voltage failsafe"]}
{"timestamp": "2026-01-15T14:21:26.483616Z", "telemetry": {"lat": 28.7530059, "lon": 77.1179622, "satellites": 0, "altitude_gps_m": 0.28999999165534973, "groundspeed_mps": 0.008512765169143677}, "flight": {"mode": "STABILIZE", "armed": false}, "ekf": {"attitude": {"roll": 0.023386335000395775, "pitch": 0.002513181883841753, "yaw": -0.5139687061309814}, "local_position": {"x": null, "y": null, "z": null}, "status": {"flags": 135, "velocity_variance": 0.0, "pos_horiz_variance": 0.0011316186282783747, "pos_vert_variance": 0.03396158292889595}}, "errors": ["PreArm: Hardware safety switch", "PreArm: Battery 1 low voltage failsafe", "PreArm: Hardware safety switch", "PreArm: Battery 1 low voltage failsafe", "PreArm: Hardware safety switch", "PreArm: Battery 1 low voltage failsafe"]}
{"timestamp": "2026-01-15T14:21:27.469065Z", "telemetry": {"lat": 28.7530059, "lon": 77.1179622, "satellites": 0, "altitude_gps_m": 0.28999999165534973, "groundspeed_mps": 0.008930062875151634}, "flight": {"mode": "STABILIZE", "armed": false}, "ekf": {"attitude": {"roll": 0.02343740127980709, "pitch": 0.002597199520096183, "yaw": -0.5139350891113281}, "local_position": {"x": null, "y": null, "z": null}, "status": {"flags": 135, "velocity_variance": 0.0, "pos_horiz_variance": 0.0018630686681717634, "pos_vert_variance": 0.005454960744827986}}, "errors": ["PreArm: Hardware safety switch", "PreArm: Battery 1 low voltage failsafe", "PreArm: Hardware safety switch", "PreArm: Battery 1 low voltage failsafe", "PreArm: Hardware safety switch", "PreArm: Battery 1 low voltage failsafe"]}
{"timestamp": "2026-01-15T14:21:28.818862Z", "telemetry": {"lat": 28.7530059, "lon": 77.1179622, "satellites": 0, "altitude_gps_m": 0.28999999165534973, "groundspeed_mps": 0.00630391389131546}, "flight": {"mode": "STABILIZE", "armed": false}, "ekf": {"attitude": {"roll": 0.023430677130818367, "pitch": 0.0027264177333563566, "yaw": -0.5140386819839478}, "local_position": {"x": null, "y": null, "z": null}, "status": {"flags": 135, "velocity_variance": 0.0, "pos_horiz_variance": 0.0020795688033103943, "pos_vert_variance": 0.025811055675148964}}, "errors": ["PreArm: Hardware safety switch", "PreArm: Battery 1 low voltage failsafe", "PreArm: Hardware safety switch", "PreArm: Battery 1 low voltage failsafe", "PreArm: Hardware safety switch", "PreArm: Battery 1 low voltage failsafe"]}
{"timestamp": "2026-01-15T14:21:29.468922Z", "telemetry": {"lat": 28.7530059, "lon": 77.1179622, "satellites": 0, "altitude_gps_m": 0.28999999165534973, "groundspeed_mps": 0.005323638673871756}, "flight": {"mode": "STABILIZE", "armed": false}, "ekf": {"attitude": {"roll": 0.023545460775494576, "pitch": 0.00278255483135581, "yaw": -0.514037013053894}, "local_position": {"x": null, "y": null, "z": null}, "status": {"flags": 135, "velocity_variance": 0.0, "pos_horiz_variance": 0.0018385514849796891, "pos_vert_variance": 0.0004973305622115731}}, "errors": ["PreArm: Hardware safety switch", "PreArm: Battery 1 low voltage failsafe", "PreArm: Hardware safety switch", "PreArm: Battery 1 low voltage failsafe", "PreArm: Hardware safety switch", "PreArm: Battery 1 low voltage failsafe"]}
{"timestamp": "2026-01-15T14:21:30.469519Z", "telemetry": {"lat": 28.7530059, "lon": 77.1179622, "satellites": 0, "altitude_gps_m": 0.28999999165534973, "groundspeed_mps": 0.0021436072420328856}, "flight": {"mode": "STABILIZE", "armed": false}, "ekf": {"attitude": {"roll": 0.023577788844704628, "pitch": 0.0028143995441496372, "yaw": -0.5141087174415588}, "local_position": {"x": null, "y": null, "z": null}, "status": {"flags": 135, "velocity_variance": 0.0, "pos_horiz_variance": 0.000989805907011032, "pos_vert_variance": 0.012400391511619091}}, "errors": ["PreArm: Hardware safety switch", "PreArm: Battery 1 low voltage failsafe", "PreArm: Hardware safety switch", "PreArm: Battery 1 low voltage failsafe", "PreArm: Hardware safety switch", "PreArm: Battery 1 low voltage failsafe"]}
{"timestamp": "2026-01-15T14:21:31.469814Z", "telemetry": {"lat": 28.7530059, "lon": 77.1179622, "satellites": 0, "altitude_gps_m": 0.28999999165534973, "groundspeed_mps": 0.001985943643376231}, "flight": {"mode": "STABILIZE", "armed": false}, "ekf": {"attitude": {"roll": 0.02358577772974968, "pitch": 0.0028518843464553356, "yaw": -0.5141732692718506}, "local_position": {"x": null, "y": null, "z": null}, "status": {"flags": 135, "velocity_variance": 0.0, "pos_horiz_variance": 0.0005951910279691219, "pos_vert_variance": 0.00881114136427641}}, "errors": ["PreArm: Hardware safety switch", "PreArm: Battery 1 low voltage failsafe", "PreArm: Hardware safety switch", "PreArm: Battery 1 low voltage failsafe", "PreArm: Hardware safety switch", "PreArm: Battery 1 low voltage failsafe"]}
{"timestamp": "2026-01-15T14:21:32.470003Z", "telemetry": {"lat": 28.7530059, "lon": 77.1179622, "satellites": 0, "altitude_gps_m": 0.28999999165534973, "groundspeed_mps": 0.0016443474451079965}, "flight": {"mode": "STABILIZE", "armed": false}, "ekf": {"attitude": {"roll": 0.023655373603105545, "pitch": 0.0028199537191540003, "yaw": -0.5140388607978821}, "local_position": {"x": null, "y": null, "z": null}, "status": {"flags": 135, "velocity_variance": 0.0, "pos_horiz_variance": 0.00021670157730113715, "pos_vert_variance": 0.05523308366537094}}, "errors": ["PreArm: Hardware safety switch", "PreArm: Battery 1 low voltage failsafe", "PreArm: Hardware safety switch", "PreArm: Battery 1 low voltage failsafe", "PreArm: Hardware safety switch", "PreArm: Battery 1 low voltage failsafe"]}
{"timestamp": "2026-01-15T14:21:33.519275Z", "telemetry": {"lat": 28.7530059, "lon": 77.1179622, "satellites": 0, "altitude_gps_m": 0.28999999165534973, "groundspeed_mps": 0.0017362096114084125}, "flight": {"mode": "STABILIZE", "armed": false}, "ekf": {"attitude": {"roll": 0.02365283854305744, "pitch": 0.0028018224984407425, "yaw": -0.514162003993988}, "local_position": {"x": null, "y": null, "z": null}, "status": {"flags": 135, "velocity_variance": 0.0, "pos_horiz_variance": 0.0002194817061536014, "pos_vert_variance": 0.02526952140033245}}, "errors": ["PreArm: Hardware safety switch", "PreArm: Battery 1 low voltage failsafe", "PreArm: Hardware safety switch", "PreArm: Battery 1 low voltage failsafe", "PreArm: Hardware safety switch", "PreArm: Battery 1 low voltage failsafe"]}
{"timestamp": "2026-01-15T14:21:34.519459Z", "telemetry": {"lat": 28.7530059, "lon": 77.1179622, "satellites": 0, "altitude_gps_m": 0.28999999165534973, "groundspeed_mps": 0.004142262972891331}, "flight": {"mode": "STABILIZE", "armed": false}, "ekf": {"attitude": {"roll": 0.02378036081790924, "pitch": 0.0029423264786601067, "yaw": -0.5141086578369141}, "local_position": {"x": null, "y": null, "z": null}, "status": {"flags": 135, "velocity_variance": 0.0, "pos_horiz_variance": 0.0004155878268647939, "pos_vert_variance": 0.0017632858362048864}}, "errors": ["PreArm: Hardware safety switch", "PreArm: Battery 1 low voltage failsafe", "PreArm: Hardware safety switch", "PreArm: Battery 1 low voltage failsafe", "PreArm: Hardware safety switch", "PreArm: Battery 1 low voltage failsafe"]}
{"timestamp": "2026-01-15T14:21:35.499799Z", "telemetry": {"lat": 28.7530059, "lon": 77.1179622, "satellites": 0, "altitude_gps_m": 0.28999999165534973, "groundspeed_mps": 0.0047428240068256855}, "flight": {"mode": "STABILIZE", "armed": false}, "ekf": {"attitude": {"roll": 0.023679329082369804, "pitch": 0.002923019928857684, "yaw": -0.5142772793769836}, "local_position": {"x": null, "y": null, "z": null}, "status": {"flags": 135, "velocity_variance": 0.0, "pos_horiz_variance": 0.0007930525462143123, "pos_vert_variance": 0.12358946353197098}}, "errors": ["PreArm: Hardware safety switch", "PreArm: Battery 1 low voltage failsafe", "PreArm: Hardware safety switch", "PreArm: Battery 1 low voltage failsafe", "PreArm: Hardware safety switch", "PreArm: Battery 1 low voltage failsafe"]}
{"timestamp": "2026-01-15T14:21:36.482772Z", "telemetry": {"lat": 28.7530059, "lon": 77.1179622, "satellites": 0, "altitude_gps_m": 0.28999999165534973, "groundspeed_mps": 0.0036994400434195995}, "flight": {"mode": "STABILIZE", "armed": false}, "ekf": {"attitude": {"roll": 0.02358745038509369, "pitch": 0.0029267636127769947, "yaw": -0.5142661333084106}, "local_position": {"x": null, "y": null, "z": null}, "status": {"flags": 135, "velocity_variance": 0.0, "pos_horiz_variance": 0.0009610811248421669, "pos_vert_variance": 0.008366054855287075}}, "errors": ["PreArm: Hardware safety switch", "PreArm: Battery 1 low voltage failsafe", "PreArm: Hardware safety switch", "PreArm: Battery 1 low voltage failsafe", "PreArm: Hardware safety switch", "PreArm: Battery 1 low voltage failsafe"]}
{"timestamp": "2026-01-15T14:21:37.473794Z", "telemetry": {"lat": 28.7530059, "lon": 77.1179622, "satellites": 0, "altitude_gps_m": 0.28999999165534973, "groundspeed_mps": 0.0023993784561753273}, "flight": {"mode": "STABILIZE", "armed": false}, "ekf": {"attitude": {"roll": 0.023580679669976234, "pitch": 0.0028576371259987354, "yaw": -0.5143317580223083}, "local_position": {"x": null, "y": null, "z": null}, "status": {"flags": 135, "velocity_variance": 0.0, "pos_horiz_variance": 0.0008561690337955952, "pos_vert_variance": 0.03779271990060806}}, "errors": ["PreArm: Hardware safety switch", "PreArm: Battery 1 low voltage failsafe", "PreArm: Hardware safety switch", "PreArm: Battery 1 low voltage failsafe", "PreArm: Hardware safety switch", "PreArm: Battery 1 low voltage failsafe"]}
{"timestamp": "2026-01-15T14:21:38.482225Z", "telemetry": {"lat": 28.7530059, "lon": 77.1179622, "satellites": 0, "altitude_gps_m": 0.28999999165534973, "groundspeed_mps": 0.00038657383993268013}, "flight": {"mode": "STABILIZE", "armed": false}, "ekf": {"attitude": {"roll": 0.023418378084897995, "pitch": 0.0028326725587248802, "yaw": -0.5142991542816162}, "local_position": {"x": null, "y": null, "z": null}, "status": {"flags": 135, "velocity_variance": 0.0, "pos_horiz_variance": 0.0004723652091342956, "pos_vert_variance": 0.06336034834384918}}, "errors": ["PreArm: Hardware safety switch", "PreArm: Battery 1 low voltage failsafe", "PreArm: Hardware safety switch", "PreArm: Battery 1 low voltage failsafe", "PreArm: Hardware safety switch", "PreArm: Battery 1 low voltage failsafe"]}
{"timestamp": "2026-01-15T14:21:39.489900Z", "telemetry": {"lat": 28.7530059, "lon": 77.1179622, "satellites": 0, "altitude_gps_m": 0.28999999165534973, "groundspeed_mps": 0.0022132028825581074}, "flight": {"mode": "STABILIZE", "armed": false}, "ekf": {"attitude": {"roll": 0.023368779569864273, "pitch": 0.002806856296956539, "yaw": -0.514225959777832}, "local_position": {"x": null, "y": null, "z": null}, "status": {"flags": 135, "velocity_variance": 0.0, "pos_horiz_variance": 0.00010190864122705534, "pos_vert_variance": 0.027166221290826797}}, "errors": ["PreArm: Hardware safety switch", "PreArm: Battery 1 low voltage failsafe", "PreArm: Hardware safety switch", "PreArm: Battery 1 low voltage failsafe", "PreArm: Hardware safety switch", "PreArm: Battery 1 low voltage failsafe"]}
