{"timestamp": "2025-12-28T11:37:08.368382Z", "telemetry": {"lat": 28.7531174, "lon": 77.1177893, "satellites": 9, "altitude_gps_m": 200.8699951171875, "groundspeed_mps": 0.2682057023048401}, "flight": {"mode": null, "armed": null}, "ekf": {"attitude": {"roll": -0.03128859028220177, "pitch": 0.0709076076745987, "yaw": -1.8772135972976685}, "local_position": {"x": 4.890298843383789, "y": -11.395706176757812, "z": 0.8752110600471497}, "status": {"flags": 33599, "velocity_variance": 0.24551430344581604, "pos_horiz_variance": 0.008396457880735397, "pos_vert_variance": 0.13600727915763855}}, "errors": []}
{"timestamp": "2025-12-28T11:37:09.368596Z", "telemetry": {"lat": 28.7531161, "lon": 77.1177915, "satellites": 9, "altitude_gps_m": 200.76998901367188, "groundspeed_mps": 0.17681552469730377}, "flight": {"mode": "STABILIZE", "armed": false}, "ekf": {"attitude": {"roll": -0.03196599707007408, "pitch": 0.07149673998355865, "yaw": -1.8797208070755005}, "local_position": {"x": 4.823303699493408, "y": -11.265785217285156, "z": 0.9856679439544678}, "status": {"flags": 33599, "velocity_variance": 0.196646586060524, "pos_horiz_variance": 0.00711921788752079, "pos_vert_variance": 0.012436113320291042}}, "errors": []}
{"timestamp": "2025-12-28T11:37:10.367974Z", "telemetry": {"lat": 28.753121, "lon": 77.1177861, "satellites": 9, "altitude_gps_m": 200.63999938964844, "groundspeed_mps": 0.23659449815750122}, "flight": {"mode": "STABILIZE", "armed": false}, "ekf": {"attitude": {"roll": -0.03149532899260521, "pitch": 0.0712030827999115, "yaw": -1.8821933269500732}, "local_position": {"x": 5.2043232917785645, "y": -11.650867462158203, "z": 1.1130422353744507}, "status": {"flags": 33599, "velocity_variance": 0.18503814935684204, "pos_horiz_variance": 0.009587578475475311, "pos_vert_variance": 0.026959018781781197}}, "errors": []}
{"timestamp": "2025-12-28T11:37:11.367881Z", "telemetry": {"lat": 28.7531243, "lon": 77.1177862, "satellites": 9, "altitude_gps_m": 200.69000244140625, "groundspeed_mps": 0.25415846705436707}, "flight": {"mode": "STABILIZE", "armed": false}, "ekf": {"attitude": {"roll": -0.03121795877814293, "pitch": 0.07170608639717102, "yaw": -1.8846888542175293}, "local_position": {"x": 5.57570219039917, "y": -11.802257537841797, "z": 1.1125065088272095}, "status": {"flags": 33599, "velocity_variance": 0.20571494102478027, "pos_horiz_variance": 0.008414523676037788, "pos_vert_variance": 0.0005920249968767166}}, "errors": []}
{"timestamp": "2025-12-28T11:37:12.368492Z", "telemetry": {"lat": 28.7531296, "lon": 77.1177829, "satellites": 9, "altitude_gps_m": 200.8000030517578, "groundspeed_mps": 0.2681824564933777}, "flight": {"mode": "STABILIZE", "armed": false}, "ekf": {"attitude": {"roll": -0.030886072665452957, "pitch": 0.07202088832855225, "yaw": -1.8865935802459717}, "local_position": {"x": 5.931417942047119, "y": -11.781107902526855, "z": 0.9711465239524841}, "status": {"flags": 33599, "velocity_variance": 0.4607837200164795, "pos_horiz_variance": 0.015911467373371124, "pos_vert_variance": 0.004940166603773832}}, "errors": []}
{"timestamp": "2025-12-28T11:37:13.368814Z", "telemetry": {"lat": 28.7531373, "lon": 77.1177731, "satellites": 10, "altitude_gps_m": 200.86000061035156, "groundspeed_mps": 0.4310057461261749}, "flight": {"mode": "STABILIZE", "armed": false}, "ekf": {"attitude": {"roll": -0.02921653911471367, "pitch": 0.07046505063772202, "yaw": -1.8893617391586304}, "local_position": {"x": 6.732938766479492, "y": -12.36416244506836, "z": 0.9159310460090637}, "status": {"flags": 33599, "velocity_variance": 0.3289308547973633, "pos_horiz_variance": 0.02362438477575779, "pos_vert_variance": 0.027342211455106735}}, "errors": []}
{"timestamp": "2025-12-28T11:37:14.368808Z", "telemetry": {"lat": 28.753136, "lon": 77.1177668, "satellites": 8, "altitude_gps_m": 200.86000061035156, "groundspeed_mps": 0.42417028546333313}, "flight": {"mode": "STABILIZE", "armed": false}, "ekf": {"attitude": {"roll": -0.02991281822323799, "pitch": 0.06938301771879196, "yaw": -1.891835331916809}, "local_position": {"x": 6.942177772521973, "y": -12.902824401855469, "z": 0.9245799779891968}, "status": {"flags": 33599, "velocity_variance": 0.4408443570137024, "pos_horiz_variance": 0.023734647780656815, "pos_vert_variance": 0.04251694679260254}}, "errors": []}
{"timestamp": "2025-12-28T11:37:15.368189Z", "telemetry": {"lat": 28.7531347, "lon": 77.1177649, "satellites": 8, "altitude_gps_m": 200.8699951171875, "groundspeed_mps": 0.3988095819950104}, "flight": {"mode": "STABILIZE", "armed": false}, "ekf": {"attitude": {"roll": -0.030743714421987534, "pitch": 0.06914480030536652, "yaw": -1.8940404653549194}, "local_position": {"x": 7.087213039398193, "y": -13.354607582092285, "z": 0.9110352993011475}, "status": {"flags": 33599, "velocity_variance": 0.236197367310524, "pos_horiz_variance": 0.01807764731347561, "pos_vert_variance": 0.005934533197432756}}, "errors": []}
{"timestamp": "2025-12-28T11:37:16.368714Z", "telemetry": {"lat": 28.7531351, "lon": 77.1177623, "satellites": 8, "altitude_gps_m": 200.80999755859375, "groundspeed_mps": 0.3464941680431366}, "flight": {"mode": "STABILIZE", "armed": false}, "ekf": {"attitude": {"roll": -0.03196185454726219, "pitch": 0.0690038800239563, "yaw": -1.8961857557296753}, "local_position": {"x": 7.245555400848389, "y": -13.639018058776855, "z": 0.9824239015579224}, "status": {"flags": 33599, "velocity_variance": 0.24881795048713684, "pos_horiz_variance": 0.017711179330945015, "pos_vert_variance": 0.011157570406794548}}, "errors": []}
{"timestamp": "2025-12-28T11:37:17.368046Z", "telemetry": {"lat": 28.7531327, "lon": 77.1177629, "satellites": 8, "altitude_gps_m": 200.94000244140625, "groundspeed_mps": 0.22537879645824432}, "flight": {"mode": "STABILIZE", "armed": false}, "ekf": {"attitude": {"roll": -0.033085327595472336, "pitch": 0.06947405636310577, "yaw": -1.8981738090515137}, "local_position": {"x": 7.056931972503662, "y": -13.681001663208008, "z": 0.8521355986595154}, "status": {"flags": 33599, "velocity_variance": 0.15653598308563232, "pos_horiz_variance": 0.0152153130620718, "pos_vert_variance": 0.03257587552070618}}, "errors": []}
{"timestamp": "2025-12-28T11:37:18.368170Z", "telemetry": {"lat": 28.7531407, "lon": 77.1177644, "satellites": 8, "altitude_gps_m": 200.9499969482422, "groundspeed_mps": 0.25887802243232727}, "flight": {"mode": "STABILIZE", "armed": false}, "ekf": {"attitude": {"roll": -0.031964514404535294, "pitch": 0.07082369923591614, "yaw": -1.9002119302749634}, "local_position": {"x": 7.590141296386719, "y": -13.734251022338867, "z": 0.8258402943611145}, "status": {"flags": 33599, "velocity_variance": 0.2652796506881714, "pos_horiz_variance": 0.00835183821618557, "pos_vert_variance": 0.03605017438530922}}, "errors": []}
{"timestamp": "2025-12-28T11:37:19.367950Z", "telemetry": {"lat": 28.7531474, "lon": 77.1177604, "satellites": 8, "altitude_gps_m": 201.02999877929688, "groundspeed_mps": 0.3505142331123352}, "flight": {"mode": "STABILIZE", "armed": false}, "ekf": {"attitude": {"roll": -0.031258825212717056, "pitch": 0.07012799382209778, "yaw": -1.902006983757019}, "local_position": {"x": 8.204023361206055, "y": -13.904573440551758, "z": 0.7698543071746826}, "status": {"flags": 33599, "velocity_variance": 0.3114157021045685, "pos_horiz_variance": 0.012548737227916718, "pos_vert_variance": 0.04906919598579407}}, "errors": []}
{"timestamp": "2025-12-28T11:37:20.368179Z", "telemetry": {"lat": 28.7531486, "lon": 77.1177606, "satellites": 8, "altitude_gps_m": 201.0399932861328, "groundspeed_mps": 0.30152463912963867}, "flight": {"mode": "STABILIZE", "armed": false}, "ekf": {"attitude": {"roll": -0.03172501549124718, "pitch": 0.07006550580263138, "yaw": -1.9037669897079468}, "local_position": {"x": 8.341699600219727, "y": -13.985827445983887, "z": 0.73016357421875}, "status": {"flags": 33599, "velocity_variance": 0.08385288715362549, "pos_horiz_variance": 0.010163215920329094, "pos_vert_variance": 0.06347794830799103}}, "errors": []}
{"timestamp": "2025-12-28T11:37:21.368689Z", "telemetry": {"lat": 28.7531624, "lon": 77.1177564, "satellites": 7, "altitude_gps_m": 200.989990234375, "groundspeed_mps": 0.5053596496582031}, "flight": {"mode": "STABILIZE", "armed": false}, "ekf": {"attitude": {"roll": -0.028850268572568893, "pitch": 0.0700039342045784, "yaw": -1.9052501916885376}, "local_position": {"x": 9.485093116760254, "y": -14.372129440307617, "z": 0.785321056842804}, "status": {"flags": 33599, "velocity_variance": 0.2353910207748413, "pos_horiz_variance": 0.01637650467455387, "pos_vert_variance": 0.009951288811862469}}, "errors": []}
{"timestamp": "2025-12-28T11:37:22.367919Z", "telemetry": {"lat": 28.7531621, "lon": 77.1177474, "satellites": 7, "altitude_gps_m": 200.95999145507812, "groundspeed_mps": 0.570702850818634}, "flight": {"mode": "STABILIZE", "armed": false}, "ekf": {"attitude": {"roll": -0.028586361557245255, "pitch": 0.06793039292097092, "yaw": -1.907030701637268}, "local_position": {"x": 9.926323890686035, "y": -14.832133293151855, "z": 0.8168797492980957}, "status": {"flags": 33599, "velocity_variance": 0.1385723501443863, "pos_horiz_variance": 0.018516944721341133, "pos_vert_variance": 0.0033582255709916353}}, "errors": []}
{"timestamp": "2025-12-28T11:37:23.367975Z", "telemetry": {"lat": 28.753156, "lon": 77.1177456, "satellites": 7, "altitude_gps_m": 201.0, "groundspeed_mps": 0.484758198261261}, "flight": {"mode": "STABILIZE", "armed": false}, "ekf": {"attitude": {"roll": -0.030480142682790756, "pitch": 0.0668875202536583, "yaw": -1.9088596105575562}, "local_position": {"x": 10.066333770751953, "y": -15.336756706237793, "z": 0.7682941555976868}, "status": {"flags": 33599, "velocity_variance": 0.3833341598510742, "pos_horiz_variance": 0.019868260249495506, "pos_vert_variance": 0.006073129363358021}}, "errors": []}
{"timestamp": "2025-12-28T11:37:24.368810Z", "telemetry": {"lat": 28.7531508, "lon": 77.1177427, "satellites": 7, "altitude_gps_m": 200.9199981689453, "groundspeed_mps": 0.372499942779541}, "flight": {"mode": "STABILIZE", "armed": false}, "ekf": {"attitude": {"roll": -0.032612111419439316, "pitch": 0.06654010713100433, "yaw": -1.9105976819992065}, "local_position": {"x": 9.791363716125488, "y": -15.745984077453613, "z": 0.8572309017181396}, "status": {"flags": 33599, "velocity_variance": 0.28994134068489075, "pos_horiz_variance": 0.024284569546580315, "pos_vert_variance": 0.022256391122937202}}, "errors": []}
{"timestamp": "2025-12-28T11:37:25.368446Z", "telemetry": {"lat": 28.7531477, "lon": 77.117736, "satellites": 7, "altitude_gps_m": 200.9099884033203, "groundspeed_mps": 0.3963157534599304}, "flight": {"mode": "STABILIZE", "armed": false}, "ekf": {"attitude": {"roll": -0.0327543206512928, "pitch": 0.06501057744026184, "yaw": -1.912143349647522}, "local_position": {"x": 9.515209197998047, "y": -16.11136817932129, "z": 0.8671993613243103}, "status": {"flags": 33599, "velocity_variance": 0.11329358071088791, "pos_horiz_variance": 0.028402309864759445, "pos_vert_variance": 0.027391789481043816}}, "errors": []}
{"timestamp": "2025-12-28T11:37:26.368448Z", "telemetry": {"lat": 28.7531478, "lon": 77.1177336, "satellites": 8, "altitude_gps_m": 200.8699951171875, "groundspeed_mps": 0.41267868876457214}, "flight": {"mode": "STABILIZE", "armed": false}, "ekf": {"attitude": {"roll": -0.0336233414709568, "pitch": 0.064579539000988, "yaw": -1.9137777090072632}, "local_position": {"x": 9.298684120178223, "y": -16.673969268798828, "z": 0.8807147145271301}, "status": {"flags": 33599, "velocity_variance": 0.1868143528699875, "pos_horiz_variance": 0.021586213260889053, "pos_vert_variance": 0.04803016036748886}}, "errors": []}
{"timestamp": "2025-12-28T11:37:27.367775Z", "telemetry": {"lat": 28.7531573, "lon": 77.1177301, "satellites": 8, "altitude_gps_m": 200.77999877929688, "groundspeed_mps": 0.4045374095439911}, "flight": {"mode": "STABILIZE", "armed": false}, "ekf": {"attitude": {"roll": -0.03290766105055809, "pitch": 0.06522779166698456, "yaw": -1.9152791500091553}, "local_position": {"x": 9.499659538269043, "y": -16.99427032470703, "z": 1.0059638023376465}, "status": {"flags": 33599, "velocity_variance": 0.10562019795179367, "pos_horiz_variance": 0.012169678695499897, "pos_vert_variance": 0.07274916023015976}}, "errors": []}
{"timestamp": "2025-12-28T11:37:28.367903Z", "telemetry": {"lat": 28.7531596, "lon": 77.1177303, "satellites": 8, "altitude_gps_m": 200.76998901367188, "groundspeed_mps": 0.33228835463523865}, "flight": {"mode": "STABILIZE", "armed": false}, "ekf": {"attitude": {"roll": -0.03393128141760826, "pitch": 0.06583705544471741, "yaw": -1.9166991710662842}, "local_position": {"x": 9.62894058227539, "y": -17.10377311706543, "z": 1.01619291305542}, "status": {"flags": 33599, "velocity_variance": 0.11621929705142975, "pos_horiz_variance": 0.01023619994521141, "pos_vert_variance": 0.07183034718036652}}, "errors": []}
{"timestamp": "2025-12-28T11:37:29.368638Z", "telemetry": {"lat": 28.7531556, "lon": 77.1177276, "satellites": 8, "altitude_gps_m": 200.7899932861328, "groundspeed_mps": 0.3539638817310333}, "flight": {"mode": "STABILIZE", "armed": false}, "ekf": {"attitude": {"roll": -0.0360582135617733, "pitch": 0.065219447016716, "yaw": -1.918169617652893}, "local_position": {"x": 9.18797492980957, "y": -17.3582820892334, "z": 0.9605475664138794}, "status": {"flags": 33599, "velocity_variance": 0.18402792513370514, "pos_horiz_variance": 0.009332179091870785, "pos_vert_variance": 0.10621790587902069}}, "errors": []}
{"timestamp": "2025-12-28T11:37:30.367891Z", "telemetry": {"lat": 28.753161, "lon": 77.1177252, "satellites": 8, "altitude_gps_m": 200.75999450683594, "groundspeed_mps": 0.3264382481575012}, "flight": {"mode": "STABILIZE", "armed": false}, "ekf": {"attitude": {"roll": -0.03535059466958046, "pitch": 0.0659572035074234, "yaw": -1.9195877313613892}, "local_position": {"x": 9.16539478302002, "y": -17.682363510131836, "z": 1.0293869972229004}, "status": {"flags": 33599, "velocity_variance": 0.599284827709198, "pos_horiz_variance": 0.012014804407954216, "pos_vert_variance": 0.025120355188846588}}, "errors": ["PreArm: Hardware safety switch"]}
