{"timestamp": "2026-01-15T14:09:52.476573Z", "telemetry": {"lat": 28.7530059, "lon": 77.1179622, "satellites": 0, "altitude_gps_m": 0.28999999165534973, "groundspeed_mps": 0.0019610051531344652}, "flight": {"mode": "STABILIZE", "armed": false}, "ekf": {"attitude": {"roll": 0.02283005602657795, "pitch": 0.0017718158196657896, "yaw": -0.5114854574203491}, "local_position": {"x": null, "y": null, "z": null}, "status": {"flags": 135, "velocity_variance": 0.0, "pos_horiz_variance": 0.0005380120128393173, "pos_vert_variance": 0.038341209292411804}}, "errors": []}
{"timestamp": "2026-01-15T14:09:53.496699Z", "telemetry": {"lat": 28.7530059, "lon": 77.1179622, "satellites": 0, "altitude_gps_m": 0.28999999165534973, "groundspeed_mps": 0.00312601076439023}, "flight": {"mode": "STABILIZE", "armed": false}, "ekf": {"attitude": {"roll": 0.02280593290925026, "pitch": 0.001793930772691965, "yaw": -0.5113755464553833}, "local_position": {"x": null, "y": null, "z": null}, "status": {"flags": 135, "velocity_variance": 0.0, "pos_horiz_variance": 0.0005989423370920122, "pos_vert_variance": 0.037992075085639954}}, "errors": []}
{"timestamp": "2026-01-15T14:09:54.468538Z", "telemetry": {"lat": 28.7530059, "lon": 77.1179622, "satellites": 0, "altitude_gps_m": 0.28999999165534973, "groundspeed_mps": 0.002607169793918729}, "flight": {"mode": "STABILIZE", "armed": false}, "ekf": {"attitude": {"roll": 0.02272356115281582, "pitch": 0.0018397488165646791, "yaw": -0.5114094614982605}, "local_position": {"x": null, "y": null, "z": null}, "status": {"flags": 135, "velocity_variance": 0.0, "pos_horiz_variance": 0.000610017916187644, "pos_vert_variance": 0.10658688843250275}}, "errors": []}
{"timestamp": "2026-01-15T14:09:55.477681Z", "telemetry": {"lat": 28.7530059, "lon": 77.1179622, "satellites": 0, "altitude_gps_m": 0.28999999165534973, "groundspeed_mps": 0.003159864339977503}, "flight": {"mode": "STABILIZE", "armed": false}, "ekf": {"attitude": {"roll": 0.022666560485959053, "pitch": 0.0017494754865765572, "yaw": -0.5113194584846497}, "local_position": {"x": null, "y": null, "z": null}, "status": {"flags": 135, "velocity_variance": 0.0, "pos_horiz_variance": 0.00048438855446875095, "pos_vert_variance": 0.03228067234158516}}, "errors": []}
{"timestamp": "2026-01-15T14:09:56.504261Z", "telemetry": {"lat": 28.7530059, "lon": 77.1179622, "satellites": 0, "altitude_gps_m": 0.28999999165534973, "groundspeed_mps": 0.00653022201731801}, "flight": {"mode": "STABILIZE", "armed": false}, "ekf": {"attitude": {"roll": 0.02263941429555416, "pitch": 0.0016476940363645554, "yaw": -0.5113058686256409}, "local_position": {"x": null, "y": null, "z": null}, "status": {"flags": 135, "velocity_variance": 0.0, "pos_horiz_variance": 0.0005844513070769608, "pos_vert_variance": 0.039860520511865616}}, "errors": []}
{"timestamp": "2026-01-15T14:09:57.503393Z", "telemetry": {"lat": 28.7530059, "lon": 77.1179622, "satellites": 0, "altitude_gps_m": 0.28999999165534973, "groundspeed_mps": 0.0051483712159097195}, "flight": {"mode": "STABILIZE", "armed": false}, "ekf": {"attitude": {"roll": 0.02269711159169674, "pitch": 0.0016145326662808657, "yaw": -0.5112719535827637}, "local_position": {"x": null, "y": null, "z": null}, "status": {"flags": 135, "velocity_variance": 0.0, "pos_horiz_variance": 0.0012785575818270445, "pos_vert_variance": 0.023169180378317833}}, "errors": []}
{"timestamp": "2026-01-15T14:09:58.507621Z", "telemetry": {"lat": 28.7530059, "lon": 77.1179622, "satellites": 0, "altitude_gps_m": 0.28999999165534973, "groundspeed_mps": 0.005137177184224129}, "flight": {"mode": "STABILIZE", "armed": false}, "ekf": {"attitude": {"roll": 0.022820686921477318, "pitch": 0.001513483701273799, "yaw": -0.5113096237182617}, "local_position": {"x": null, "y": null, "z": null}, "status": {"flags": 135, "velocity_variance": 0.0, "pos_horiz_variance": 0.00104556605219841, "pos_vert_variance": 0.04859074577689171}}, "errors": []}
{"timestamp": "2026-01-15T14:09:59.507254Z", "telemetry": {"lat": 28.7530059, "lon": 77.1179622, "satellites": 0, "altitude_gps_m": 0.28999999165534973, "groundspeed_mps": 0.004443780984729528}, "flight": {"mode": "STABILIZE", "armed": false}, "ekf": {"attitude": {"roll": 0.02284732460975647, "pitch": 0.001418565632775426, "yaw": -0.5114762783050537}, "local_position": {"x": null, "y": null, "z": null}, "status": {"flags": 135, "velocity_variance": 0.0, "pos_horiz_variance": 0.0010245823068544269, "pos_vert_variance": 0.03445051237940788}}, "errors": []}
{"timestamp": "2026-01-15T14:10:00.507807Z", "telemetry": {"lat": 28.7530059, "lon": 77.1179622, "satellites": 0, "altitude_gps_m": 0.28999999165534973, "groundspeed_mps": 0.0036855314392596483}, "flight": {"mode": "STABILIZE", "armed": false}, "ekf": {"attitude": {"roll": 0.02297218143939972, "pitch": 0.0015397625975310802, "yaw": -0.5115106701850891}, "local_position": {"x": null, "y": null, "z": null}, "status": {"flags": 135, "velocity_variance": 0.0, "pos_horiz_variance": 0.0009137567249126732, "pos_vert_variance": 0.015610783360898495}}, "errors": []}
{"timestamp": "2026-01-15T14:10:01.507236Z", "telemetry": {"lat": 28.7530059, "lon": 77.1179622, "satellites": 0, "altitude_gps_m": 0.28999999165534973, "groundspeed_mps": 0.002683275379240513}, "flight": {"mode": "STABILIZE", "armed": false}, "ekf": {"attitude": {"roll": 0.02288324572145939, "pitch": 0.0014317412860691547, "yaw": -0.5116308331489563}, "local_position": {"x": null, "y": null, "z": null}, "status": {"flags": 135, "velocity_variance": 0.0, "pos_horiz_variance": 0.0007109566358849406, "pos_vert_variance": 0.11492828279733658}}, "errors": ["PreArm: Hardware safety switch", "PreArm: Battery 1 low voltage failsafe"]}
{"timestamp": "2026-01-15T14:10:02.479472Z", "telemetry": {"lat": 28.7530059, "lon": 77.1179622, "satellites": 0, "altitude_gps_m": 0.28999999165534973, "groundspeed_mps": 0.003108289558440447}, "flight": {"mode": "STABILIZE", "armed": false}, "ekf": {"attitude": {"roll": 0.02282268926501274, "pitch": 0.001499029342085123, "yaw": -0.5115278363227844}, "local_position": {"x": null, "y": null, "z": null}, "status": {"flags": 135, "velocity_variance": 0.0, "pos_horiz_variance": 0.0007066806429065764, "pos_vert_variance": 0.010537753812968731}}, "errors": ["PreArm: Hardware safety switch", "PreArm: Battery 1 low voltage failsafe"]}
{"timestamp": "2026-01-15T14:10:03.481055Z", "telemetry": {"lat": 28.7530059, "lon": 77.1179622, "satellites": 0, "altitude_gps_m": 0.28999999165534973, "groundspeed_mps": 0.005118857137858868}, "flight": {"mode": "STABILIZE", "armed": false}, "ekf": {"attitude": {"roll": 0.02280026115477085, "pitch": 0.0014909228775650263, "yaw": -0.5116223692893982}, "local_position": {"x": null, "y": null, "z": null}, "status": {"flags": 135, "velocity_variance": 0.0, "pos_horiz_variance": 0.0009132142295129597, "pos_vert_variance": 0.012409258633852005}}, "errors": ["PreArm: Hardware safety switch", "PreArm: Battery 1 low voltage failsafe"]}
{"timestamp": "2026-01-15T14:10:04.485710Z", "telemetry": {"lat": 28.7530059, "lon": 77.1179622, "satellites": 0, "altitude_gps_m": 0.28999999165534973, "groundspeed_mps": 0.007938165217638016}, "flight": {"mode": "STABILIZE", "armed": false}, "ekf": {"attitude": {"roll": 0.022870471701025963, "pitch": 0.0015806672163307667, "yaw": -0.511689305305481}, "local_position": {"x": null, "y": null, "z": null}, "status": {"flags": 135, "velocity_variance": 0.0, "pos_horiz_variance": 0.00102322141174227, "pos_vert_variance": 0.0009165072697214782}}, "errors": ["PreArm: Hardware safety switch", "PreArm: Battery 1 low voltage failsafe"]}
{"timestamp": "2026-01-15T14:10:05.487576Z", "telemetry": {"lat": 28.7530059, "lon": 77.1179622, "satellites": 0, "altitude_gps_m": 0.28999999165534973, "groundspeed_mps": 0.008237074129283428}, "flight": {"mode": "STABILIZE", "armed": false}, "ekf": {"attitude": {"roll": 0.022785155102610588, "pitch": 0.00174902961589396, "yaw": -0.5116866230964661}, "local_position": {"x": null, "y": null, "z": null}, "status": {"flags": 135, "velocity_variance": 0.0, "pos_horiz_variance": 0.0013696557143703103, "pos_vert_variance": 0.015172457322478294}}, "errors": ["PreArm: Hardware safety switch", "PreArm: Battery 1 low voltage failsafe"]}
{"timestamp": "2026-01-15T14:10:06.488670Z", "telemetry": {"lat": 28.7530059, "lon": 77.1179622, "satellites": 0, "altitude_gps_m": 0.28999999165534973, "groundspeed_mps": 0.005965844262391329}, "flight": {"mode": "STABILIZE", "armed": false}, "ekf": {"attitude": {"roll": 0.022793849930167198, "pitch": 0.0016585339326411486, "yaw": -0.5118392705917358}, "local_position": {"x": null, "y": null, "z": null}, "status": {"flags": 135, "velocity_variance": 0.0, "pos_horiz_variance": 0.001486612600274384, "pos_vert_variance": 0.10205024480819702}}, "errors": ["PreArm: Hardware safety switch", "PreArm: Battery 1 low voltage failsafe"]}
{"timestamp": "2026-01-15T14:10:07.515199Z", "telemetry": {"lat": 28.7530059, "lon": 77.1179622, "satellites": 0, "altitude_gps_m": 0.28999999165534973, "groundspeed_mps": 0.004713419359177351}, "flight": {"mode": "STABILIZE", "armed": false}, "ekf": {"attitude": {"roll": 0.022810345515608788, "pitch": 0.0016391919925808907, "yaw": -0.5117160081863403}, "local_position": {"x": null, "y": null, "z": null}, "status": {"flags": 135, "velocity_variance": 0.0, "pos_horiz_variance": 0.0012675864854827523, "pos_vert_variance": 0.13756975531578064}}, "errors": ["PreArm: Hardware safety switch", "PreArm: Battery 1 low voltage failsafe"]}
{"timestamp": "2026-01-15T14:10:08.515573Z", "telemetry": {"lat": 28.7530059, "lon": 77.1179622, "satellites": 0, "altitude_gps_m": 0.28999999165534973, "groundspeed_mps": 0.004176190122961998}, "flight": {"mode": "STABILIZE", "armed": false}, "ekf": {"attitude": {"roll": 0.02266082540154457, "pitch": 0.0016502959188073874, "yaw": -0.5116543173789978}, "local_position": {"x": null, "y": null, "z": null}, "status": {"flags": 135, "velocity_variance": 0.0, "pos_horiz_variance": 0.000980283017270267, "pos_vert_variance": 0.08560706675052643}}, "errors": ["PreArm: Hardware safety switch", "PreArm: Battery 1 low voltage failsafe"]}
{"timestamp": "2026-01-15T14:10:09.488897Z", "telemetry": {"lat": 28.7530059, "lon": 77.1179622, "satellites": 0, "altitude_gps_m": 0.28999999165534973, "groundspeed_mps": 0.002523306291550398}, "flight": {"mode": "STABILIZE", "armed": false}, "ekf": {"attitude": {"roll": 0.022759150713682175, "pitch": 0.0015918486751616001, "yaw": -0.5116335153579712}, "local_position": {"x": null, "y": null, "z": null}, "status": {"flags": 135, "velocity_variance": 0.0, "pos_horiz_variance": 0.0007146626594476402, "pos_vert_variance": 0.022043269127607346}}, "errors": ["PreArm: Hardware safety switch", "PreArm: Battery 1 low voltage failsafe"]}
{"timestamp": "2026-01-15T14:10:10.487311Z", "telemetry": {"lat": 28.7530059, "lon": 77.1179622, "satellites": 0, "altitude_gps_m": 0.28999999165534973, "groundspeed_mps": 0.0028497716411948204}, "flight": {"mode": "STABILIZE", "armed": false}, "ekf": {"attitude": {"roll": 0.022726409137248993, "pitch": 0.0016049682162702084, "yaw": -0.511710524559021}, "local_position": {"x": null, "y": null, "z": null}, "status": {"flags": 135, "velocity_variance": 0.0, "pos_horiz_variance": 0.0005736300372518599, "pos_vert_variance": 0.10093741118907928}}, "errors": ["PreArm: Hardware safety switch", "PreArm: Battery 1 low voltage failsafe"]}
{"timestamp": "2026-01-15T14:10:11.491169Z", "telemetry": {"lat": 28.7530059, "lon": 77.1179622, "satellites": 0, "altitude_gps_m": 0.28999999165534973, "groundspeed_mps": 0.00390395219437778}, "flight": {"mode": "STABILIZE", "armed": false}, "ekf": {"attitude": {"roll": 0.022669827565550804, "pitch": 0.0016129955183714628, "yaw": -0.5116589069366455}, "local_position": {"x": null, "y": null, "z": null}, "status": {"flags": 135, "velocity_variance": 0.0, "pos_horiz_variance": 0.0009468281641602516, "pos_vert_variance": 0.005841854028403759}}, "errors": ["PreArm: Hardware safety switch", "PreArm: Battery 1 low voltage failsafe"]}
{"timestamp": "2026-01-15T14:10:12.493168Z", "telemetry": {"lat": 28.7530059, "lon": 77.1179622, "satellites": 0, "altitude_gps_m": 0.28999999165534973, "groundspeed_mps": 0.006711455527693033}, "flight": {"mode": "STABILIZE", "armed": false}, "ekf": {"attitude": {"roll": 0.02266668528318405, "pitch": 0.0016304529272019863, "yaw": -0.5117203593254089}, "local_position": {"x": null, "y": null, "z": null}, "status": {"flags": 135, "velocity_variance": 0.0, "pos_horiz_variance": 0.0011423969408497214, "pos_vert_variance": 0.048276957124471664}}, "errors": ["PreArm: Hardware safety switch", "PreArm: Battery 1 low voltage failsafe"]}
