{"timestamp": "2026-01-15T13:55:52.507173Z", "telemetry": {"lat": 28.7530059, "lon": 77.1179622, "satellites": 0, "altitude_gps_m": 0.28999999165534973, "groundspeed_mps": 0.015401611104607582}, "flight": {"mode": "STABILIZE", "armed": false}, "ekf": {"attitude": {"roll": 0.022241678088903427, "pitch": 1.5073921531438828e-05, "yaw": -0.5530133843421936}, "local_position": {"x": null, "y": null, "z": null}, "status": {"flags": 135, "velocity_variance": 0.0, "pos_horiz_variance": 0.003377647139132023, "pos_vert_variance": 0.056936562061309814}}, "errors": []}
{"timestamp": "2026-01-15T13:55:53.491641Z", "telemetry": {"lat": 28.7530059, "lon": 77.1179622, "satellites": 0, "altitude_gps_m": 0.28999999165534973, "groundspeed_mps": 0.015923263505101204}, "flight": {"mode": "STABILIZE", "armed": false}, "ekf": {"attitude": {"roll": 0.022163882851600647, "pitch": -2.4191103875637054e-06, "yaw": -0.5529595017433167}, "local_position": {"x": null, "y": null, "z": null}, "status": {"flags": 135, "velocity_variance": 0.0, "pos_horiz_variance": 0.003699960419908166, "pos_vert_variance": 0.03262483701109886}}, "errors": []}
{"timestamp": "2026-01-15T13:55:54.487837Z", "telemetry": {"lat": 28.7530059, "lon": 77.1179622, "satellites": 0, "altitude_gps_m": 0.28999999165534973, "groundspeed_mps": 0.01769113913178444}, "flight": {"mode": "STABILIZE", "armed": false}, "ekf": {"attitude": {"roll": 0.022301234304904938, "pitch": -2.1216925233602524e-05, "yaw": -0.5529527068138123}, "local_position": {"x": null, "y": null, "z": null}, "status": {"flags": 135, "velocity_variance": 0.0, "pos_horiz_variance": 0.003983783069998026, "pos_vert_variance": 0.03500528633594513}}, "errors": []}
{"timestamp": "2026-01-15T13:55:55.487428Z", "telemetry": {"lat": 28.7530059, "lon": 77.1179622, "satellites": 0, "altitude_gps_m": 0.28999999165534973, "groundspeed_mps": 0.021136021241545677}, "flight": {"mode": "STABILIZE", "armed": false}, "ekf": {"attitude": {"roll": 0.02220546267926693, "pitch": -7.585203275084496e-05, "yaw": -0.5530088543891907}, "local_position": {"x": null, "y": null, "z": null}, "status": {"flags": 135, "velocity_variance": 0.0, "pos_horiz_variance": 0.0043952432461082935, "pos_vert_variance": 0.047652676701545715}}, "errors": []}
{"timestamp": "2026-01-15T13:55:56.491076Z", "telemetry": {"lat": 28.7530059, "lon": 77.1179622, "satellites": 0, "altitude_gps_m": 0.28999999165534973, "groundspeed_mps": 0.020268399268388748}, "flight": {"mode": "STABILIZE", "armed": false}, "ekf": {"attitude": {"roll": 0.022101102396845818, "pitch": -0.0001081596128642559, "yaw": -0.5529365539550781}, "local_position": {"x": null, "y": null, "z": null}, "status": {"flags": 135, "velocity_variance": 0.0, "pos_horiz_variance": 0.004649566486477852, "pos_vert_variance": 0.020529815927147865}}, "errors": []}
{"timestamp": "2026-01-15T13:55:57.516579Z", "telemetry": {"lat": 28.7530059, "lon": 77.1179622, "satellites": 0, "altitude_gps_m": 0.28999999165534973, "groundspeed_mps": 0.019540883600711823}, "flight": {"mode": "STABILIZE", "armed": false}, "ekf": {"attitude": {"roll": 0.022104647010564804, "pitch": -7.011834532022476e-05, "yaw": -0.5527234077453613}, "local_position": {"x": null, "y": null, "z": null}, "status": {"flags": 135, "velocity_variance": 0.0, "pos_horiz_variance": 0.004869346506893635, "pos_vert_variance": 0.02439047209918499}}, "errors": []}
{"timestamp": "2026-01-15T13:55:58.517412Z", "telemetry": {"lat": 28.7530059, "lon": 77.1179622, "satellites": 0, "altitude_gps_m": 0.28999999165534973, "groundspeed_mps": 0.020384391769766808}, "flight": {"mode": "STABILIZE", "armed": false}, "ekf": {"attitude": {"roll": 0.022081473842263222, "pitch": -1.0591931641101837e-05, "yaw": -0.5527635216712952}, "local_position": {"x": null, "y": null, "z": null}, "status": {"flags": 135, "velocity_variance": 0.0, "pos_horiz_variance": 0.004818862769752741, "pos_vert_variance": 0.010412871837615967}}, "errors": []}
{"timestamp": "2026-01-15T13:55:59.491503Z", "telemetry": {"lat": 28.7530059, "lon": 77.1179622, "satellites": 0, "altitude_gps_m": 0.28999999165534973, "groundspeed_mps": 0.01746332459151745}, "flight": {"mode": "STABILIZE", "armed": false}, "ekf": {"attitude": {"roll": 0.022269416600465775, "pitch": 0.00015410780906677246, "yaw": -0.5527747869491577}, "local_position": {"x": null, "y": null, "z": null}, "status": {"flags": 135, "velocity_variance": 0.0, "pos_horiz_variance": 0.00468915980309248, "pos_vert_variance": 0.1034357026219368}}, "errors": []}
{"timestamp": "2026-01-15T13:56:00.491138Z", "telemetry": {"lat": 28.7530059, "lon": 77.1179622, "satellites": 0, "altitude_gps_m": 0.28999999165534973, "groundspeed_mps": 0.01572265662252903}, "flight": {"mode": "STABILIZE", "armed": false}, "ekf": {"attitude": {"roll": 0.02225162275135517, "pitch": 0.00031007127836346626, "yaw": -0.552627444267273}, "local_position": {"x": null, "y": null, "z": null}, "status": {"flags": 135, "velocity_variance": 0.0, "pos_horiz_variance": 0.0040139746852219105, "pos_vert_variance": 0.10229403525590897}}, "errors": []}
{"timestamp": "2026-01-15T13:56:01.499379Z", "telemetry": {"lat": 28.7530059, "lon": 77.1179622, "satellites": 0, "altitude_gps_m": 0.28999999165534973, "groundspeed_mps": 0.01458354014903307}, "flight": {"mode": "STABILIZE", "armed": false}, "ekf": {"attitude": {"roll": 0.022170748561620712, "pitch": 0.0004795454442501068, "yaw": -0.5525782704353333}, "local_position": {"x": null, "y": null, "z": null}, "status": {"flags": 135, "velocity_variance": 0.0, "pos_horiz_variance": 0.004031335469335318, "pos_vert_variance": 0.02761266939342022}}, "errors": []}
{"timestamp": "2026-01-15T13:56:02.494605Z", "telemetry": {"lat": 28.7530059, "lon": 77.1179622, "satellites": 0, "altitude_gps_m": 0.28999999165534973, "groundspeed_mps": 0.010724963620305061}, "flight": {"mode": "STABILIZE", "armed": false}, "ekf": {"attitude": {"roll": 0.022218717262148857, "pitch": 0.0005384990945458412, "yaw": -0.5525394678115845}, "local_position": {"x": null, "y": null, "z": null}, "status": {"flags": 135, "velocity_variance": 0.0, "pos_horiz_variance": 0.0033822066616266966, "pos_vert_variance": 0.021017353981733322}}, "errors": []}
{"timestamp": "2026-01-15T13:56:03.524540Z", "telemetry": {"lat": 28.7530059, "lon": 77.1179622, "satellites": 0, "altitude_gps_m": 0.28999999165534973, "groundspeed_mps": 0.008414165116846561}, "flight": {"mode": "STABILIZE", "armed": false}, "ekf": {"attitude": {"roll": 0.022194119170308113, "pitch": 0.0005283607169985771, "yaw": -0.5524408221244812}, "local_position": {"x": null, "y": null, "z": null}, "status": {"flags": 135, "velocity_variance": 0.0, "pos_horiz_variance": 0.00280220084823668, "pos_vert_variance": 0.017055366188287735}}, "errors": []}
{"timestamp": "2026-01-15T13:56:04.488393Z", "telemetry": {"lat": 28.7530059, "lon": 77.1179622, "satellites": 0, "altitude_gps_m": 0.28999999165534973, "groundspeed_mps": 0.005736034829169512}, "flight": {"mode": "STABILIZE", "armed": false}, "ekf": {"attitude": {"roll": 0.022218771278858185, "pitch": 0.0005700606852769852, "yaw": -0.5525513887405396}, "local_position": {"x": null, "y": null, "z": null}, "status": {"flags": 135, "velocity_variance": 0.0, "pos_horiz_variance": 0.0022090936545282602, "pos_vert_variance": 0.01745852455496788}}, "errors": []}
{"timestamp": "2026-01-15T13:56:05.500129Z", "telemetry": {"lat": 28.7530059, "lon": 77.1179622, "satellites": 0, "altitude_gps_m": 0.28999999165534973, "groundspeed_mps": 0.008293957449495792}, "flight": {"mode": "STABILIZE", "armed": false}, "ekf": {"attitude": {"roll": 0.022273490205407143, "pitch": 0.0005760150961577892, "yaw": -0.5526308417320251}, "local_position": {"x": null, "y": null, "z": null}, "status": {"flags": 135, "velocity_variance": 0.0, "pos_horiz_variance": 0.001872128457762301, "pos_vert_variance": 0.12045343965291977}}, "errors": []}
{"timestamp": "2026-01-15T13:56:06.495370Z", "telemetry": {"lat": 28.7530059, "lon": 77.1179622, "satellites": 0, "altitude_gps_m": 0.28999999165534973, "groundspeed_mps": 0.010373180732131004}, "flight": {"mode": "STABILIZE", "armed": false}, "ekf": {"attitude": {"roll": 0.022406544536352158, "pitch": 0.0005018156953155994, "yaw": -0.5525496006011963}, "local_position": {"x": null, "y": null, "z": null}, "status": {"flags": 135, "velocity_variance": 0.0, "pos_horiz_variance": 0.002088586101308465, "pos_vert_variance": 0.008825031109154224}}, "errors": []}
{"timestamp": "2026-01-15T13:56:07.495755Z", "telemetry": {"lat": 28.7530059, "lon": 77.1179622, "satellites": 0, "altitude_gps_m": 0.28999999165534973, "groundspeed_mps": 0.013109838590025902}, "flight": {"mode": "STABILIZE", "armed": false}, "ekf": {"attitude": {"roll": 0.02250041626393795, "pitch": 0.0004498208872973919, "yaw": -0.5523872971534729}, "local_position": {"x": null, "y": null, "z": null}, "status": {"flags": 135, "velocity_variance": 0.0, "pos_horiz_variance": 0.0027375391218811274, "pos_vert_variance": 0.10976874828338623}}, "errors": []}
{"timestamp": "2026-01-15T13:56:08.494398Z", "telemetry": {"lat": 28.7530059, "lon": 77.1179622, "satellites": 0, "altitude_gps_m": 0.28999999165534973, "groundspeed_mps": 0.014441457577049732}, "flight": {"mode": "STABILIZE", "armed": false}, "ekf": {"attitude": {"roll": 0.02242659404873848, "pitch": 0.00042768288403749466, "yaw": -0.5525410175323486}, "local_position": {"x": null, "y": null, "z": null}, "status": {"flags": 135, "velocity_variance": 0.0, "pos_horiz_variance": 0.003063156269490719, "pos_vert_variance": 0.03214680030941963}}, "errors": []}
{"timestamp": "2026-01-15T13:56:09.496319Z", "telemetry": {"lat": 28.7530059, "lon": 77.1179622, "satellites": 0, "altitude_gps_m": 0.28999999165534973, "groundspeed_mps": 0.01463064644485712}, "flight": {"mode": "STABILIZE", "armed": false}, "ekf": {"attitude": {"roll": 0.022390233352780342, "pitch": 0.000493382103741169, "yaw": -0.5524246692657471}, "local_position": {"x": null, "y": null, "z": null}, "status": {"flags": 135, "velocity_variance": 0.0, "pos_horiz_variance": 0.0033529752399772406, "pos_vert_variance": 0.020059676840901375}}, "errors": []}
{"timestamp": "2026-01-15T13:56:10.496478Z", "telemetry": {"lat": 28.7530059, "lon": 77.1179622, "satellites": 0, "altitude_gps_m": 0.28999999165534973, "groundspeed_mps": 0.01444157399237156}, "flight": {"mode": "STABILIZE", "armed": false}, "ekf": {"attitude": {"roll": 0.022304203361272812, "pitch": 0.0004902160726487637, "yaw": -0.552298367023468}, "local_position": {"x": null, "y": null, "z": null}, "status": {"flags": 135, "velocity_variance": 0.0, "pos_horiz_variance": 0.003549974411725998, "pos_vert_variance": 0.011620553210377693}}, "errors": ["PreArm: Hardware safety switch"]}
{"timestamp": "2026-01-15T13:56:11.469425Z", "telemetry": {"lat": 28.7530059, "lon": 77.1179622, "satellites": 0, "altitude_gps_m": 0.28999999165534973, "groundspeed_mps": 0.014937409199774265}, "flight": {"mode": "STABILIZE", "armed": false}, "ekf": {"attitude": {"roll": 0.022314807400107384, "pitch": 0.00039872992783784866, "yaw": -0.5524230599403381}, "local_position": {"x": null, "y": null, "z": null}, "status": {"flags": 135, "velocity_variance": 0.0, "pos_horiz_variance": 0.003607660997658968, "pos_vert_variance": 0.03046458400785923}}, "errors": ["PreArm: Hardware safety switch"]}
{"timestamp": "2026-01-15T13:56:12.470181Z", "telemetry": {"lat": 28.7530059, "lon": 77.1179622, "satellites": 0, "altitude_gps_m": 0.28999999165534973, "groundspeed_mps": 0.013731430284678936}, "flight": {"mode": "STABILIZE", "armed": false}, "ekf": {"attitude": {"roll": 0.022202445194125175, "pitch": 0.0004399544559419155, "yaw": -0.552372395992279}, "local_position": {"x": null, "y": null, "z": null}, "status": {"flags": 135, "velocity_variance": 0.0, "pos_horiz_variance": 0.003453971352428198, "pos_vert_variance": 0.08437012881040573}}, "errors": ["PreArm: Hardware safety switch"]}
{"timestamp": "2026-01-15T13:56:13.469601Z", "telemetry": {"lat": 28.7530059, "lon": 77.1179622, "satellites": 0, "altitude_gps_m": 0.28999999165534973, "groundspeed_mps": 0.012369428761303425}, "flight": {"mode": "STABILIZE", "armed": false}, "ekf": {"attitude": {"roll": 0.022140702232718468, "pitch": 0.0001559876836836338, "yaw": -0.5522902011871338}, "local_position": {"x": null, "y": null, "z": null}, "status": {"flags": 135, "velocity_variance": 0.0, "pos_horiz_variance": 0.003231601556763053, "pos_vert_variance": 0.024441277608275414}}, "errors": ["PreArm: Hardware safety switch"]}
{"timestamp": "2026-01-15T13:56:14.500216Z", "telemetry": {"lat": 28.7530059, "lon": 77.1179622, "satellites": 0, "altitude_gps_m": 0.28999999165534973, "groundspeed_mps": 0.013481909409165382}, "flight": {"mode": "STABILIZE", "armed": false}, "ekf": {"attitude": {"roll": 0.022106045857071877, "pitch": 0.00017700623720884323, "yaw": -0.5522541403770447}, "local_position": {"x": null, "y": null, "z": null}, "status": {"flags": 135, "velocity_variance": 0.0, "pos_horiz_variance": 0.0032400249037891626, "pos_vert_variance": 0.005825930740684271}}, "errors": ["PreArm: Hardware safety switch"]}
{"timestamp": "2026-01-15T13:56:15.500524Z", "telemetry": {"lat": 28.7530059, "lon": 77.1179622, "satellites": 0, "altitude_gps_m": 0.28999999165534973, "groundspeed_mps": 0.014956464990973473}, "flight": {"mode": "STABILIZE", "armed": false}, "ekf": {"attitude": {"roll": 0.022023893892765045, "pitch": 0.00012273946776986122, "yaw": -0.5523184537887573}, "local_position": {"x": null, "y": null, "z": null}, "status": {"flags": 135, "velocity_variance": 0.0, "pos_horiz_variance": 0.0033625534269958735, "pos_vert_variance": 0.06640812009572983}}, "errors": ["PreArm: Hardware safety switch"]}
{"timestamp": "2026-01-15T13:56:16.499119Z", "telemetry": {"lat": 28.7530059, "lon": 77.1179622, "satellites": 0, "altitude_gps_m": 0.28999999165534973, "groundspeed_mps": 0.01495906338095665}, "flight": {"mode": "STABILIZE", "armed": false}, "ekf": {"attitude": {"roll": 0.022035302594304085, "pitch": 0.0001152409240603447, "yaw": -0.5525979399681091}, "local_position": {"x": null, "y": null, "z": null}, "status": {"flags": 135, "velocity_variance": 0.0, "pos_horiz_variance": 0.0035117913503199816, "pos_vert_variance": 0.01151250023394823}}, "errors": ["PreArm: Hardware safety switch"]}
{"timestamp": "2026-01-15T13:56:17.504495Z", "telemetry": {"lat": 28.7530059, "lon": 77.1179622, "satellites": 0, "altitude_gps_m": 0.28999999165534973, "groundspeed_mps": 0.014771136455237865}, "flight": {"mode": "STABILIZE", "armed": false}, "ekf": {"attitude": {"roll": 0.022081473842263222, "pitch": 3.539910539984703e-05, "yaw": -0.5526479482650757}, "local_position": {"x": null, "y": null, "z": null}, "status": {"flags": 135, "velocity_variance": 0.0, "pos_horiz_variance": 0.0034641018137335777, "pos_vert_variance": 0.07512257993221283}}, "errors": ["PreArm: Hardware safety switch"]}
{"timestamp": "2026-01-15T13:56:18.504780Z", "telemetry": {"lat": 28.7530059, "lon": 77.1179622, "satellites": 0, "altitude_gps_m": 0.28999999165534973, "groundspeed_mps": 0.014764582738280296}, "flight": {"mode": "STABILIZE", "armed": false}, "ekf": {"attitude": {"roll": 0.022110937163233757, "pitch": 3.312760964035988e-05, "yaw": -0.5526291131973267}, "local_position": {"x": null, "y": null, "z": null}, "status": {"flags": 135, "velocity_variance": 0.0, "pos_horiz_variance": 0.0034823280293494463, "pos_vert_variance": 0.002249494194984436}}, "errors": ["PreArm: Hardware safety switch"]}
{"timestamp": "2026-01-15T13:56:19.480094Z", "telemetry": {"lat": 28.7530059, "lon": 77.1179622, "satellites": 0, "altitude_gps_m": 0.28999999165534973, "groundspeed_mps": 0.014764582738280296}, "flight": {"mode": "STABILIZE", "armed": false}, "ekf": {"attitude": {"roll": 0.022110937163233757, "pitch": 3.312760964035988e-05, "yaw": -0.5526291131973267}, "local_position": {"x": null, "y": null, "z": null}, "status": {"flags": 135, "velocity_variance": 0.0, "pos_horiz_variance": 0.0034823280293494463, "pos_vert_variance": 0.002249494194984436}}, "errors": ["PreArm: Hardware safety switch"]}
{"timestamp": "2026-01-15T13:56:20.477895Z", "telemetry": {"lat": 28.7530059, "lon": 77.1179622, "satellites": 0, "altitude_gps_m": 0.28999999165534973, "groundspeed_mps": 0.014764582738280296}, "flight": {"mode": "STABILIZE", "armed": false}, "ekf": {"attitude": {"roll": 0.022110937163233757, "pitch": 3.312760964035988e-05, "yaw": -0.5526291131973267}, "local_position": {"x": null, "y": null, "z": null}, "status": {"flags": 135, "velocity_variance": 0.0, "pos_horiz_variance": 0.0034823280293494463, "pos_vert_variance": 0.002249494194984436}}, "errors": ["PreArm: Hardware safety switch"]}
{"timestamp": "2026-01-15T13:56:21.479025Z", "telemetry": {"lat": 28.7530059, "lon": 77.1179622, "satellites": 0, "altitude_gps_m": 0.28999999165534973, "groundspeed_mps": 0.014764582738280296}, "flight": {"mode": "STABILIZE", "armed": false}, "ekf": {"attitude": {"roll": 0.022110937163233757, "pitch": 3.312760964035988e-05, "yaw": -0.5526291131973267}, "local_position": {"x": null, "y": null, "z": null}, "status": {"flags": 135, "velocity_variance": 0.0, "pos_horiz_variance": 0.0034823280293494463, "pos_vert_variance": 0.002249494194984436}}, "errors": ["PreArm: Hardware safety switch"]}
{"timestamp": "2026-01-15T13:56:22.486036Z", "telemetry": {"lat": 28.7530059, "lon": 77.1179622, "satellites": 0, "altitude_gps_m": 0.28999999165534973, "groundspeed_mps": 0.014764582738280296}, "flight": {"mode": "STABILIZE", "armed": false}, "ekf": {"attitude": {"roll": 0.022110937163233757, "pitch": 3.312760964035988e-05, "yaw": -0.5526291131973267}, "local_position": {"x": null, "y": null, "z": null}, "status": {"flags": 135, "velocity_variance": 0.0, "pos_horiz_variance": 0.0034823280293494463, "pos_vert_variance": 0.002249494194984436}}, "errors": ["PreArm: Hardware safety switch"]}
{"timestamp": "2026-01-15T13:56:23.508458Z", "telemetry": {"lat": 28.7530059, "lon": 77.1179622, "satellites": 0, "altitude_gps_m": 0.28999999165534973, "groundspeed_mps": 0.014764582738280296}, "flight": {"mode": "STABILIZE", "armed": false}, "ekf": {"attitude": {"roll": 0.022110937163233757, "pitch": 3.312760964035988e-05, "yaw": -0.5526291131973267}, "local_position": {"x": null, "y": null, "z": null}, "status": {"flags": 135, "velocity_variance": 0.0, "pos_horiz_variance": 0.0034823280293494463, "pos_vert_variance": 0.002249494194984436}}, "errors": ["PreArm: Hardware safety switch"]}
{"timestamp": "2026-01-15T13:56:24.508080Z", "telemetry": {"lat": 28.7530059, "lon": 77.1179622, "satellites": 0, "altitude_gps_m": 0.28999999165534973, "groundspeed_mps": 0.014764582738280296}, "flight": {"mode": "STABILIZE", "armed": false}, "ekf": {"attitude": {"roll": 0.022110937163233757, "pitch": 3.312760964035988e-05, "yaw": -0.5526291131973267}, "local_position": {"x": null, "y": null, "z": null}, "status": {"flags": 135, "velocity_variance": 0.0, "pos_horiz_variance": 0.0034823280293494463, "pos_vert_variance": 0.002249494194984436}}, "errors": ["PreArm: Hardware safety switch"]}
{"timestamp": "2026-01-15T13:56:25.512065Z", "telemetry": {"lat": 28.7530059, "lon": 77.1179622, "satellites": 0, "altitude_gps_m": 0.28999999165534973, "groundspeed_mps": 0.014764582738280296}, "flight": {"mode": "STABILIZE", "armed": false}, "ekf": {"attitude": {"roll": 0.022110937163233757, "pitch": 3.312760964035988e-05, "yaw": -0.5526291131973267}, "local_position": {"x": null, "y": null, "z": null}, "status": {"flags": 135, "velocity_variance": 0.0, "pos_horiz_variance": 0.0034823280293494463, "pos_vert_variance": 0.002249494194984436}}, "errors": ["PreArm: Hardware safety switch"]}
{"timestamp": "2026-01-15T13:56:26.512258Z", "telemetry": {"lat": 28.7530059, "lon": 77.1179622, "satellites": 0, "altitude_gps_m": 0.28999999165534973, "groundspeed_mps": 0.014764582738280296}, "flight": {"mode": "STABILIZE", "armed": false}, "ekf": {"attitude": {"roll": 0.022110937163233757, "pitch": 3.312760964035988e-05, "yaw": -0.5526291131973267}, "local_position": {"x": null, "y": null, "z": null}, "status": {"flags": 135, "velocity_variance": 0.0, "pos_horiz_variance": 0.0034823280293494463, "pos_vert_variance": 0.002249494194984436}}, "errors": ["PreArm: Hardware safety switch"]}
{"timestamp": "2026-01-15T13:56:27.488265Z", "telemetry": {"lat": 28.7530059, "lon": 77.1179622, "satellites": 0, "altitude_gps_m": 0.28999999165534973, "groundspeed_mps": 0.014764582738280296}, "flight": {"mode": "STABILIZE", "armed": false}, "ekf": {"attitude": {"roll": 0.022110937163233757, "pitch": 3.312760964035988e-05, "yaw": -0.5526291131973267}, "local_position": {"x": null, "y": null, "z": null}, "status": {"flags": 135, "velocity_variance": 0.0, "pos_horiz_variance": 0.0034823280293494463, "pos_vert_variance": 0.002249494194984436}}, "errors": ["PreArm: Hardware safety switch"]}
{"timestamp": "2026-01-15T13:56:28.489956Z", "telemetry": {"lat": 28.7530059, "lon": 77.1179622, "satellites": 0, "altitude_gps_m": 0.28999999165534973, "groundspeed_mps": 0.014764582738280296}, "flight": {"mode": "STABILIZE", "armed": false}, "ekf": {"attitude": {"roll": 0.022110937163233757, "pitch": 3.312760964035988e-05, "yaw": -0.5526291131973267}, "local_position": {"x": null, "y": null, "z": null}, "status": {"flags": 135, "velocity_variance": 0.0, "pos_horiz_variance": 0.0034823280293494463, "pos_vert_variance": 0.002249494194984436}}, "errors": ["PreArm: Hardware safety switch"]}
{"timestamp": "2026-01-15T13:56:29.516318Z", "telemetry": {"lat": 28.7530059, "lon": 77.1179622, "satellites": 0, "altitude_gps_m": 0.28999999165534973, "groundspeed_mps": 0.014764582738280296}, "flight": {"mode": "STABILIZE", "armed": false}, "ekf": {"attitude": {"roll": 0.022110937163233757, "pitch": 3.312760964035988e-05, "yaw": -0.5526291131973267}, "local_position": {"x": null, "y": null, "z": null}, "status": {"flags": 135, "velocity_variance": 0.0, "pos_horiz_variance": 0.0034823280293494463, "pos_vert_variance": 0.002249494194984436}}, "errors": ["PreArm: Hardware safety switch"]}
{"timestamp": "2026-01-15T13:56:30.516230Z", "telemetry": {"lat": 28.7530059, "lon": 77.1179622, "satellites": 0, "altitude_gps_m": 0.28999999165534973, "groundspeed_mps": 0.014764582738280296}, "flight": {"mode": "STABILIZE", "armed": false}, "ekf": {"attitude": {"roll": 0.022110937163233757, "pitch": 3.312760964035988e-05, "yaw": -0.5526291131973267}, "local_position": {"x": null, "y": null, "z": null}, "status": {"flags": 135, "velocity_variance": 0.0, "pos_horiz_variance": 0.0034823280293494463, "pos_vert_variance": 0.002249494194984436}}, "errors": ["PreArm: Hardware safety switch"]}
{"timestamp": "2026-01-15T13:56:31.492075Z", "telemetry": {"lat": 28.7530059, "lon": 77.1179622, "satellites": 0, "altitude_gps_m": 0.28999999165534973, "groundspeed_mps": 0.014764582738280296}, "flight": {"mode": "STABILIZE", "armed": false}, "ekf": {"attitude": {"roll": 0.022438963875174522, "pitch": 0.00013545062392950058, "yaw": -0.5529947280883789}, "local_position": {"x": null, "y": null, "z": null}, "status": {"flags": 135, "velocity_variance": 0.0, "pos_horiz_variance": 0.004842108115553856, "pos_vert_variance": 0.026542678475379944}}, "errors": ["PreArm: Hardware safety switch"]}
{"timestamp": "2026-01-15T13:56:32.493327Z", "telemetry": {"lat": 28.7530059, "lon": 77.1179622, "satellites": 0, "altitude_gps_m": 0.28999999165534973, "groundspeed_mps": 0.019752822816371918}, "flight": {"mode": "STABILIZE", "armed": false}, "ekf": {"attitude": {"roll": 0.022262701764702797, "pitch": 0.00016320450231432915, "yaw": -0.5530486702919006}, "local_position": {"x": null, "y": null, "z": null}, "status": {"flags": 135, "velocity_variance": 0.0, "pos_horiz_variance": 0.004811813589185476, "pos_vert_variance": 0.052864402532577515}}, "errors": ["PreArm: Hardware safety switch"]}
{"timestamp": "2026-01-15T13:56:33.488986Z", "telemetry": {"lat": 28.7530059, "lon": 77.1179622, "satellites": 0, "altitude_gps_m": 0.28999999165534973, "groundspeed_mps": 0.02062288299202919}, "flight": {"mode": "STABILIZE", "armed": false}, "ekf": {"attitude": {"roll": 0.022243455052375793, "pitch": 0.00019567925482988358, "yaw": -0.5530714392662048}, "local_position": {"x": null, "y": null, "z": null}, "status": {"flags": 135, "velocity_variance": 0.0, "pos_horiz_variance": 0.0048856125213205814, "pos_vert_variance": 0.00026015841285698116}}, "errors": ["PreArm: Hardware safety switch"]}
{"timestamp": "2026-01-15T13:56:34.497503Z", "telemetry": {"lat": 28.7530059, "lon": 77.1179622, "satellites": 0, "altitude_gps_m": 0.28999999165534973, "groundspeed_mps": 0.016469398513436317}, "flight": {"mode": "STABILIZE", "armed": false}, "ekf": {"attitude": {"roll": 0.02225666120648384, "pitch": 6.682565435767174e-05, "yaw": -0.5531025528907776}, "local_position": {"x": null, "y": null, "z": null}, "status": {"flags": 135, "velocity_variance": 0.0, "pos_horiz_variance": 0.004539083689451218, "pos_vert_variance": 0.06061752885580063}}, "errors": ["PreArm: Hardware safety switch"]}
{"timestamp": "2026-01-15T13:56:35.494360Z", "telemetry": {"lat": 28.7530059, "lon": 77.1179622, "satellites": 0, "altitude_gps_m": 0.28999999165534973, "groundspeed_mps": 0.01710348017513752}, "flight": {"mode": "STABILIZE", "armed": false}, "ekf": {"attitude": {"roll": 0.02225375361740589, "pitch": -5.1233917474746704e-05, "yaw": -0.5530155897140503}, "local_position": {"x": null, "y": null, "z": null}, "status": {"flags": 135, "velocity_variance": 0.0, "pos_horiz_variance": 0.004275177605450153, "pos_vert_variance": 0.05660215765237808}}, "errors": ["PreArm: Hardware safety switch"]}
{"timestamp": "2026-01-15T13:56:36.496155Z", "telemetry": {"lat": 28.7530059, "lon": 77.1179622, "satellites": 0, "altitude_gps_m": 0.28999999165534973, "groundspeed_mps": 0.017212359234690666}, "flight": {"mode": "STABILIZE", "armed": false}, "ekf": {"attitude": {"roll": 0.022189170122146606, "pitch": -5.404232069849968e-05, "yaw": -0.55303555727005}, "local_position": {"x": null, "y": null, "z": null}, "status": {"flags": 135, "velocity_variance": 0.0, "pos_horiz_variance": 0.004293107893317938, "pos_vert_variance": 0.03985853120684624}}, "errors": ["PreArm: Hardware safety switch"]}
{"timestamp": "2026-01-15T13:56:37.497169Z", "telemetry": {"lat": 28.7530059, "lon": 77.1179622, "satellites": 0, "altitude_gps_m": 0.28999999165534973, "groundspeed_mps": 0.017712799832224846}, "flight": {"mode": "STABILIZE", "armed": false}, "ekf": {"attitude": {"roll": 0.022266611456871033, "pitch": -4.799012094736099e-05, "yaw": -0.5529206991195679}, "local_position": {"x": null, "y": null, "z": null}, "status": {"flags": 135, "velocity_variance": 0.0, "pos_horiz_variance": 0.004242801573127508, "pos_vert_variance": 0.014206375926733017}}, "errors": ["PreArm: Hardware safety switch"]}
{"timestamp": "2026-01-15T13:56:38.524088Z", "telemetry": {"lat": 28.7530059, "lon": 77.1179622, "satellites": 0, "altitude_gps_m": 0.28999999165534973, "groundspeed_mps": 0.019845880568027496}, "flight": {"mode": "STABILIZE", "armed": false}, "ekf": {"attitude": {"roll": 0.022243699058890343, "pitch": -0.00013130391016602516, "yaw": -0.5530294179916382}, "local_position": {"x": null, "y": null, "z": null}, "status": {"flags": 135, "velocity_variance": 0.0, "pos_horiz_variance": 0.004437376279383898, "pos_vert_variance": 0.0007634357898496091}}, "errors": ["PreArm: Hardware safety switch"]}
{"timestamp": "2026-01-15T13:56:39.492569Z", "telemetry": {"lat": 28.7530059, "lon": 77.1179622, "satellites": 0, "altitude_gps_m": 0.28999999165534973, "groundspeed_mps": 0.02154921181499958}, "flight": {"mode": "STABILIZE", "armed": false}, "ekf": {"attitude": {"roll": 0.022289646789431572, "pitch": -0.00013452908024191856, "yaw": -0.5530072450637817}, "local_position": {"x": null, "y": null, "z": null}, "status": {"flags": 135, "velocity_variance": 0.0, "pos_horiz_variance": 0.004977429751306772, "pos_vert_variance": 0.10022186487913132}}, "errors": ["PreArm: Hardware safety switch"]}
{"timestamp": "2026-01-15T13:56:40.493718Z", "telemetry": {"lat": 28.7530059, "lon": 77.1179622, "satellites": 0, "altitude_gps_m": 0.28999999165534973, "groundspeed_mps": 0.02186162956058979}, "flight": {"mode": "STABILIZE", "armed": false}, "ekf": {"attitude": {"roll": 0.022380828857421875, "pitch": -0.00011483673006296158, "yaw": -0.5531280040740967}, "local_position": {"x": null, "y": null, "z": null}, "status": {"flags": 135, "velocity_variance": 0.0, "pos_horiz_variance": 0.005117721389979124, "pos_vert_variance": 0.08598066866397858}}, "errors": ["PreArm: Hardware safety switch"]}
{"timestamp": "2026-01-15T13:56:41.502288Z", "telemetry": {"lat": 28.7530059, "lon": 77.1179622, "satellites": 0, "altitude_gps_m": 0.28999999165534973, "groundspeed_mps": 0.02145572565495968}, "flight": {"mode": "STABILIZE", "armed": false}, "ekf": {"attitude": {"roll": 0.02243468537926674, "pitch": -9.96333546936512e-05, "yaw": -0.5531629323959351}, "local_position": {"x": null, "y": null, "z": null}, "status": {"flags": 135, "velocity_variance": 0.0, "pos_horiz_variance": 0.005121550988405943, "pos_vert_variance": 0.0164580587297678}}, "errors": ["PreArm: Hardware safety switch", "PreArm: Hardware safety switch"]}
{"timestamp": "2026-01-15T13:56:42.492321Z", "telemetry": {"lat": 28.7530059, "lon": 77.1179622, "satellites": 0, "altitude_gps_m": 0.28999999165534973, "groundspeed_mps": 0.022241216152906418}, "flight": {"mode": "STABILIZE", "armed": false}, "ekf": {"attitude": {"roll": 0.022468559443950653, "pitch": -7.65225850045681e-05, "yaw": -0.5531439185142517}, "local_position": {"x": null, "y": null, "z": null}, "status": {"flags": 135, "velocity_variance": 0.0, "pos_horiz_variance": 0.005274608731269836, "pos_vert_variance": 0.029474591836333275}}, "errors": ["PreArm: Hardware safety switch", "PreArm: Hardware safety switch"]}
{"timestamp": "2026-01-15T13:56:43.498473Z", "telemetry": {"lat": 28.7530059, "lon": 77.1179622, "satellites": 0, "altitude_gps_m": 0.28999999165534973, "groundspeed_mps": 0.024259643629193306}, "flight": {"mode": "STABILIZE", "armed": false}, "ekf": {"attitude": {"roll": 0.022399697452783585, "pitch": 2.978648990392685e-05, "yaw": -0.5531566739082336}, "local_position": {"x": null, "y": null, "z": null}, "status": {"flags": 135, "velocity_variance": 0.0, "pos_horiz_variance": 0.005533585324883461, "pos_vert_variance": 0.05992106348276138}}, "errors": ["PreArm: Hardware safety switch", "PreArm: Hardware safety switch"]}
{"timestamp": "2026-01-15T13:56:44.496709Z", "telemetry": {"lat": 28.7530059, "lon": 77.1179622, "satellites": 0, "altitude_gps_m": 0.28999999165534973, "groundspeed_mps": 0.022596176713705063}, "flight": {"mode": "STABILIZE", "armed": false}, "ekf": {"attitude": {"roll": 0.022156571969389915, "pitch": 9.01147723197937e-05, "yaw": -0.5531734824180603}, "local_position": {"x": null, "y": null, "z": null}, "status": {"flags": 135, "velocity_variance": 0.0, "pos_horiz_variance": 0.005651512648910284, "pos_vert_variance": 0.03406616672873497}}, "errors": ["PreArm: Hardware safety switch", "PreArm: Hardware safety switch"]}
{"timestamp": "2026-01-15T13:56:45.501038Z", "telemetry": {"lat": 28.7530059, "lon": 77.1179622, "satellites": 0, "altitude_gps_m": 0.28999999165534973, "groundspeed_mps": 0.022596176713705063}, "flight": {"mode": "STABILIZE", "armed": false}, "ekf": {"attitude": {"roll": 0.022156571969389915, "pitch": 9.01147723197937e-05, "yaw": -0.5531734824180603}, "local_position": {"x": null, "y": null, "z": null}, "status": {"flags": 135, "velocity_variance": 0.0, "pos_horiz_variance": 0.005598281044512987, "pos_vert_variance": 0.008428133092820644}}, "errors": ["PreArm: Hardware safety switch", "PreArm: Hardware safety switch"]}
{"timestamp": "2026-01-15T13:56:46.496168Z", "telemetry": {"lat": 28.7530059, "lon": 77.1179622, "satellites": 0, "altitude_gps_m": 0.28999999165534973, "groundspeed_mps": 0.022596176713705063}, "flight": {"mode": "STABILIZE", "armed": false}, "ekf": {"attitude": {"roll": 0.022156571969389915, "pitch": 9.01147723197937e-05, "yaw": -0.5531734824180603}, "local_position": {"x": null, "y": null, "z": null}, "status": {"flags": 135, "velocity_variance": 0.0, "pos_horiz_variance": 0.005598281044512987, "pos_vert_variance": 0.008428133092820644}}, "errors": ["PreArm: Hardware safety switch", "PreArm: Hardware safety switch"]}
