{"timestamp": "2026-01-15T13:42:24.870017Z", "telemetry": {"lat": 28.7530059, "lon": 77.1179622, "satellites": 0, "altitude_gps_m": 0.28999999165534973, "groundspeed_mps": 0.05278901755809784}, "flight": {"mode": "STABILIZE", "armed": false}, "ekf": {"attitude": {"roll": 0.014152368530631065, "pitch": 0.005546259228140116, "yaw": -0.23301388323307037}, "local_position": {"x": null, "y": null, "z": null}, "status": {"flags": 135, "velocity_variance": 0.0, "pos_horiz_variance": 0.012915058061480522, "pos_vert_variance": 0.03914288431406021}}, "errors": []}
{"timestamp": "2026-01-15T13:42:25.917019Z", "telemetry": {"lat": 28.7530059, "lon": 77.1179622, "satellites": 0, "altitude_gps_m": 0.28999999165534973, "groundspeed_mps": 0.04945584759116173}, "flight": {"mode": "STABILIZE", "armed": false}, "ekf": {"attitude": {"roll": 0.014282161369919777, "pitch": 0.005632707383483648, "yaw": -0.23306332528591156}, "local_position": {"x": null, "y": null, "z": null}, "status": {"flags": 135, "velocity_variance": 0.0, "pos_horiz_variance": 0.012722866609692574, "pos_vert_variance": 0.06627847254276276}}, "errors": []}
{"timestamp": "2026-01-15T13:42:26.998629Z", "telemetry": {"lat": 28.7530059, "lon": 77.1179622, "satellites": 0, "altitude_gps_m": 0.28999999165534973, "groundspeed_mps": 0.04446324333548546}, "flight": {"mode": "STABILIZE", "armed": false}, "ekf": {"attitude": {"roll": 0.014417925849556923, "pitch": 0.005679701920598745, "yaw": -0.23300659656524658}, "local_position": {"x": null, "y": null, "z": null}, "status": {"flags": 135, "velocity_variance": 0.0, "pos_horiz_variance": 0.012083394452929497, "pos_vert_variance": 0.015171886421740055}}, "errors": []}
{"timestamp": "2026-01-15T13:42:28.003202Z", "telemetry": {"lat": 28.7530059, "lon": 77.1179622, "satellites": 0, "altitude_gps_m": 0.28999999165534973, "groundspeed_mps": 0.03936044126749039}, "flight": {"mode": "STABILIZE", "armed": false}, "ekf": {"attitude": {"roll": 0.014521706849336624, "pitch": 0.005702269729226828, "yaw": -0.2328881323337555}, "local_position": {"x": null, "y": null, "z": null}, "status": {"flags": 135, "velocity_variance": 0.0, "pos_horiz_variance": 0.011097951792180538, "pos_vert_variance": 0.018551800400018692}}, "errors": []}
{"timestamp": "2026-01-15T13:42:29.002715Z", "telemetry": {"lat": 28.7530059, "lon": 77.1179622, "satellites": 0, "altitude_gps_m": 0.28999999165534973, "groundspeed_mps": 0.04132731258869171}, "flight": {"mode": "STABILIZE", "armed": false}, "ekf": {"attitude": {"roll": 0.014748942106962204, "pitch": 0.005722811911255121, "yaw": -0.23268352448940277}, "local_position": {"x": null, "y": null, "z": null}, "status": {"flags": 135, "velocity_variance": 0.0, "pos_horiz_variance": 0.010031561367213726, "pos_vert_variance": 0.0021511921659111977}}, "errors": []}
{"timestamp": "2026-01-15T13:42:30.002783Z", "telemetry": {"lat": 28.7530059, "lon": 77.1179622, "satellites": 0, "altitude_gps_m": 0.28999999165534973, "groundspeed_mps": 0.04432405158877373}, "flight": {"mode": "STABILIZE", "armed": false}, "ekf": {"attitude": {"roll": 0.01478942297399044, "pitch": 0.005631834734231234, "yaw": -0.2326752245426178}, "local_position": {"x": null, "y": null, "z": null}, "status": {"flags": 135, "velocity_variance": 0.0, "pos_horiz_variance": 0.01024868618696928, "pos_vert_variance": 0.013033523224294186}}, "errors": []}
{"timestamp": "2026-01-15T13:42:30.975216Z", "telemetry": {"lat": 28.7530059, "lon": 77.1179622, "satellites": 0, "altitude_gps_m": 0.28999999165534973, "groundspeed_mps": 0.04821496456861496}, "flight": {"mode": "STABILIZE", "armed": false}, "ekf": {"attitude": {"roll": 0.014860939234495163, "pitch": 0.0055709900334477425, "yaw": -0.23263199627399445}, "local_position": {"x": null, "y": null, "z": null}, "status": {"flags": 135, "velocity_variance": 0.0, "pos_horiz_variance": 0.010795511305332184, "pos_vert_variance": 0.03677070885896683}}, "errors": []}
{"timestamp": "2026-01-15T13:42:31.974832Z", "telemetry": {"lat": 28.7530059, "lon": 77.1179622, "satellites": 0, "altitude_gps_m": 0.28999999165534973, "groundspeed_mps": 0.0533829890191555}, "flight": {"mode": "STABILIZE", "armed": false}, "ekf": {"attitude": {"roll": 0.014758354052901268, "pitch": 0.005534902680665255, "yaw": -0.23239102959632874}, "local_position": {"x": null, "y": null, "z": null}, "status": {"flags": 135, "velocity_variance": 0.0, "pos_horiz_variance": 0.011876249685883522, "pos_vert_variance": 0.030261484906077385}}, "errors": []}
{"timestamp": "2026-01-15T13:42:32.978987Z", "telemetry": {"lat": 28.7530059, "lon": 77.1179622, "satellites": 0, "altitude_gps_m": 0.28999999165534973, "groundspeed_mps": 0.053938426077365875}, "flight": {"mode": "STABILIZE", "armed": false}, "ekf": {"attitude": {"roll": 0.014638926833868027, "pitch": 0.005536725278943777, "yaw": -0.23228773474693298}, "local_position": {"x": null, "y": null, "z": null}, "status": {"flags": 135, "velocity_variance": 0.0, "pos_horiz_variance": 0.012543464079499245, "pos_vert_variance": 0.03121485374867916}}, "errors": []}
{"timestamp": "2026-01-15T13:42:34.006167Z", "telemetry": {"lat": 28.7530059, "lon": 77.1179622, "satellites": 0, "altitude_gps_m": 0.28999999165534973, "groundspeed_mps": 0.050796832889318466}, "flight": {"mode": "STABILIZE", "armed": false}, "ekf": {"attitude": {"roll": 0.014483477920293808, "pitch": 0.005576892755925655, "yaw": -0.232291117310524}, "local_position": {"x": null, "y": null, "z": null}, "status": {"flags": 135, "velocity_variance": 0.0, "pos_horiz_variance": 0.01269048172980547, "pos_vert_variance": 0.02315940335392952}}, "errors": []}
{"timestamp": "2026-01-15T13:42:35.006425Z", "telemetry": {"lat": 28.7530059, "lon": 77.1179622, "satellites": 0, "altitude_gps_m": 0.28999999165534973, "groundspeed_mps": 0.04942774772644043}, "flight": {"mode": "STABILIZE", "armed": false}, "ekf": {"attitude": {"roll": 0.014323865994811058, "pitch": 0.005733970087021589, "yaw": -0.23228338360786438}, "local_position": {"x": null, "y": null, "z": null}, "status": {"flags": 135, "velocity_variance": 0.0, "pos_horiz_variance": 0.012442544102668762, "pos_vert_variance": 0.0064821927808225155}}, "errors": []}
{"timestamp": "2026-01-15T13:42:35.979679Z", "telemetry": {"lat": 28.7530059, "lon": 77.1179622, "satellites": 0, "altitude_gps_m": 0.28999999165534973, "groundspeed_mps": 0.04714807868003845}, "flight": {"mode": "STABILIZE", "armed": false}, "ekf": {"attitude": {"roll": 0.014064604416489601, "pitch": 0.005860758014023304, "yaw": -0.23222924768924713}, "local_position": {"x": null, "y": null, "z": null}, "status": {"flags": 135, "velocity_variance": 0.0, "pos_horiz_variance": 0.012090334668755531, "pos_vert_variance": 0.004350573290139437}}, "errors": []}
{"timestamp": "2026-01-15T13:42:36.985975Z", "telemetry": {"lat": 28.7530059, "lon": 77.1179622, "satellites": 0, "altitude_gps_m": 0.28999999165534973, "groundspeed_mps": 0.04556095600128174}, "flight": {"mode": "STABILIZE", "armed": false}, "ekf": {"attitude": {"roll": 0.013892032206058502, "pitch": 0.0059779733419418335, "yaw": -0.2322419285774231}, "local_position": {"x": null, "y": null, "z": null}, "status": {"flags": 135, "velocity_variance": 0.0, "pos_horiz_variance": 0.01175647508352995, "pos_vert_variance": 0.11411327123641968}}, "errors": []}
{"timestamp": "2026-01-15T13:42:37.987566Z", "telemetry": {"lat": 28.7530059, "lon": 77.1179622, "satellites": 0, "altitude_gps_m": 0.28999999165534973, "groundspeed_mps": 0.04400898888707161}, "flight": {"mode": "STABILIZE", "armed": false}, "ekf": {"attitude": {"roll": 0.013649852946400642, "pitch": 0.0061059133149683475, "yaw": -0.23224163055419922}, "local_position": {"x": null, "y": null, "z": null}, "status": {"flags": 135, "velocity_variance": 0.0, "pos_horiz_variance": 0.011141971684992313, "pos_vert_variance": 0.09475071728229523}}, "errors": []}
{"timestamp": "2026-01-15T13:42:38.985245Z", "telemetry": {"lat": 28.7530059, "lon": 77.1179622, "satellites": 0, "altitude_gps_m": 0.28999999165534973, "groundspeed_mps": 0.04057640954852104}, "flight": {"mode": "STABILIZE", "armed": false}, "ekf": {"attitude": {"roll": 0.013567369431257248, "pitch": 0.006270796060562134, "yaw": -0.23236456513404846}, "local_position": {"x": null, "y": null, "z": null}, "status": {"flags": 135, "velocity_variance": 0.0, "pos_horiz_variance": 0.010503962635993958, "pos_vert_variance": 0.07889007031917572}}, "errors": []}
{"timestamp": "2026-01-15T13:42:40.014335Z", "telemetry": {"lat": 28.7530059, "lon": 77.1179622, "satellites": 0, "altitude_gps_m": 0.28999999165534973, "groundspeed_mps": 0.03969959542155266}, "flight": {"mode": "STABILIZE", "armed": false}, "ekf": {"attitude": {"roll": 0.01351100578904152, "pitch": 0.006192302796989679, "yaw": -0.23244422674179077}, "local_position": {"x": null, "y": null, "z": null}, "status": {"flags": 135, "velocity_variance": 0.0, "pos_horiz_variance": 0.010027648881077766, "pos_vert_variance": 0.007970370352268219}}, "errors": []}
{"timestamp": "2026-01-15T13:42:41.014086Z", "telemetry": {"lat": 28.7530059, "lon": 77.1179622, "satellites": 0, "altitude_gps_m": 0.28999999165534973, "groundspeed_mps": 0.03900038078427315}, "flight": {"mode": "STABILIZE", "armed": false}, "ekf": {"attitude": {"roll": 0.013471363112330437, "pitch": 0.006097631063312292, "yaw": -0.2324334681034088}, "local_position": {"x": null, "y": null, "z": null}, "status": {"flags": 135, "velocity_variance": 0.0, "pos_horiz_variance": 0.009861697442829609, "pos_vert_variance": 0.06150463968515396}}, "errors": []}
{"timestamp": "2026-01-15T13:42:41.989242Z", "telemetry": {"lat": 28.7530059, "lon": 77.1179622, "satellites": 0, "altitude_gps_m": 0.28999999165534973, "groundspeed_mps": 0.039981234818696976}, "flight": {"mode": "STABILIZE", "armed": false}, "ekf": {"attitude": {"roll": 0.013381492346525192, "pitch": 0.006077392492443323, "yaw": -0.23253729939460754}, "local_position": {"x": null, "y": null, "z": null}, "status": {"flags": 135, "velocity_variance": 0.0, "pos_horiz_variance": 0.009612764231860638, "pos_vert_variance": 0.020236635580658913}}, "errors": []}
{"timestamp": "2026-01-15T13:42:42.989679Z", "telemetry": {"lat": 28.7530059, "lon": 77.1179622, "satellites": 0, "altitude_gps_m": 0.28999999165534973, "groundspeed_mps": 0.046753037720918655}, "flight": {"mode": "STABILIZE", "armed": false}, "ekf": {"attitude": {"roll": 0.01331738755106926, "pitch": 0.0060676648281514645, "yaw": -0.2325192093849182}, "local_position": {"x": null, "y": null, "z": null}, "status": {"flags": 135, "velocity_variance": 0.0, "pos_horiz_variance": 0.009983100928366184, "pos_vert_variance": 0.06399325281381607}}, "errors": []}
{"timestamp": "2026-01-15T13:42:43.991825Z", "telemetry": {"lat": 28.7530059, "lon": 77.1179622, "satellites": 0, "altitude_gps_m": 0.28999999165534973, "groundspeed_mps": 0.04863458126783371}, "flight": {"mode": "STABILIZE", "armed": false}, "ekf": {"attitude": {"roll": 0.013319384306669235, "pitch": 0.005821670405566692, "yaw": -0.23240678012371063}, "local_position": {"x": null, "y": null, "z": null}, "status": {"flags": 135, "velocity_variance": 0.0, "pos_horiz_variance": 0.011059587821364403, "pos_vert_variance": 0.07501331716775894}}, "errors": []}
{"timestamp": "2026-01-15T13:42:44.992728Z", "telemetry": {"lat": 28.7530059, "lon": 77.1179622, "satellites": 0, "altitude_gps_m": 0.28999999165534973, "groundspeed_mps": 0.05064060539007187}, "flight": {"mode": "STABILIZE", "armed": false}, "ekf": {"attitude": {"roll": 0.013391107320785522, "pitch": 0.005819309037178755, "yaw": -0.2323325276374817}, "local_position": {"x": null, "y": null, "z": null}, "status": {"flags": 135, "velocity_variance": 0.0, "pos_horiz_variance": 0.011635007336735725, "pos_vert_variance": 0.07364559918642044}}, "errors": []}
{"timestamp": "2026-01-15T13:42:45.993647Z", "telemetry": {"lat": 28.7530059, "lon": 77.1179622, "satellites": 0, "altitude_gps_m": 0.28999999165534973, "groundspeed_mps": 0.04914155974984169}, "flight": {"mode": "STABILIZE", "armed": false}, "ekf": {"attitude": {"roll": 0.013600796461105347, "pitch": 0.005806542932987213, "yaw": -0.23237742483615875}, "local_position": {"x": null, "y": null, "z": null}, "status": {"flags": 135, "velocity_variance": 0.0, "pos_horiz_variance": 0.011725504882633686, "pos_vert_variance": 0.11354664713144302}}, "errors": []}
{"timestamp": "2026-01-15T13:42:46.998028Z", "telemetry": {"lat": 28.7530059, "lon": 77.1179622, "satellites": 0, "altitude_gps_m": 0.28999999165534973, "groundspeed_mps": 0.0506923533976078}, "flight": {"mode": "STABILIZE", "armed": false}, "ekf": {"attitude": {"roll": 0.01367190107703209, "pitch": 0.005750885233283043, "yaw": -0.23242849111557007}, "local_position": {"x": null, "y": null, "z": null}, "status": {"flags": 135, "velocity_variance": 0.0, "pos_horiz_variance": 0.01198775414377451, "pos_vert_variance": 0.04023369401693344}}, "errors": []}
{"timestamp": "2026-01-15T13:42:47.995514Z", "telemetry": {"lat": 28.7530059, "lon": 77.1179622, "satellites": 0, "altitude_gps_m": 0.28999999165534973, "groundspeed_mps": 0.050433482974767685}, "flight": {"mode": "STABILIZE", "armed": false}, "ekf": {"attitude": {"roll": 0.013744335621595383, "pitch": 0.005713408812880516, "yaw": -0.2326086014509201}, "local_position": {"x": null, "y": null, "z": null}, "status": {"flags": 135, "velocity_variance": 0.0, "pos_horiz_variance": 0.01224755123257637, "pos_vert_variance": 0.0021235193125903606}}, "errors": []}
{"timestamp": "2026-01-15T13:42:48.998696Z", "telemetry": {"lat": 28.7530059, "lon": 77.1179622, "satellites": 0, "altitude_gps_m": 0.28999999165534973, "groundspeed_mps": 0.04926744103431702}, "flight": {"mode": "STABILIZE", "armed": false}, "ekf": {"attitude": {"roll": 0.013752929866313934, "pitch": 0.005751661956310272, "yaw": -0.232601135969162}, "local_position": {"x": null, "y": null, "z": null}, "status": {"flags": 135, "velocity_variance": 0.0, "pos_horiz_variance": 0.012114474549889565, "pos_vert_variance": 0.009506771340966225}}, "errors": []}
{"timestamp": "2026-01-15T13:42:49.994730Z", "telemetry": {"lat": 28.7530059, "lon": 77.1179622, "satellites": 0, "altitude_gps_m": 0.28999999165534973, "groundspeed_mps": 0.04976847395300865}, "flight": {"mode": "STABILIZE", "armed": false}, "ekf": {"attitude": {"roll": 0.013901177793741226, "pitch": 0.005787231028079987, "yaw": -0.23272737860679626}, "local_position": {"x": null, "y": null, "z": null}, "status": {"flags": 135, "velocity_variance": 0.0, "pos_horiz_variance": 0.01199775468558073, "pos_vert_variance": 0.016107067465782166}}, "errors": []}
{"timestamp": "2026-01-15T13:42:50.999725Z", "telemetry": {"lat": 28.7530059, "lon": 77.1179622, "satellites": 0, "altitude_gps_m": 0.28999999165534973, "groundspeed_mps": 0.050333183258771896}, "flight": {"mode": "STABILIZE", "armed": false}, "ekf": {"attitude": {"roll": 0.014070326462388039, "pitch": 0.005893681198358536, "yaw": -0.23275336623191833}, "local_position": {"x": null, "y": null, "z": null}, "status": {"flags": 135, "velocity_variance": 0.0, "pos_horiz_variance": 0.012226467952132225, "pos_vert_variance": 0.04099566861987114}}, "errors": []}
{"timestamp": "2026-01-15T13:42:51.991439Z", "telemetry": {"lat": 28.7530059, "lon": 77.1179622, "satellites": 0, "altitude_gps_m": 0.28999999165534973, "groundspeed_mps": 0.0447678379714489}, "flight": {"mode": "STABILIZE", "armed": false}, "ekf": {"attitude": {"roll": 0.014079352840781212, "pitch": 0.005990574136376381, "yaw": -0.23284287750720978}, "local_position": {"x": null, "y": null, "z": null}, "status": {"flags": 135, "velocity_variance": 0.0, "pos_horiz_variance": 0.011754297651350498, "pos_vert_variance": 0.04828522354364395}}, "errors": []}
{"timestamp": "2026-01-15T13:42:53.002167Z", "telemetry": {"lat": 28.7530059, "lon": 77.1179622, "satellites": 0, "altitude_gps_m": 0.28999999165534973, "groundspeed_mps": 0.04275200515985489}, "flight": {"mode": "STABILIZE", "armed": false}, "ekf": {"attitude": {"roll": 0.014015696942806244, "pitch": 0.006052011623978615, "yaw": -0.2329837530851364}, "local_position": {"x": null, "y": null, "z": null}, "status": {"flags": 135, "velocity_variance": 0.0, "pos_horiz_variance": 0.011111192405223846, "pos_vert_variance": 0.026238130405545235}}, "errors": []}
{"timestamp": "2026-01-15T13:42:54.002747Z", "telemetry": {"lat": 28.7530059, "lon": 77.1179622, "satellites": 0, "altitude_gps_m": 0.28999999165534973, "groundspeed_mps": 0.04111730307340622}, "flight": {"mode": "STABILIZE", "armed": false}, "ekf": {"attitude": {"roll": 0.014124361798167229, "pitch": 0.006032607983797789, "yaw": -0.23299017548561096}, "local_position": {"x": null, "y": null, "z": null}, "status": {"flags": 135, "velocity_variance": 0.0, "pos_horiz_variance": 0.010511321015655994, "pos_vert_variance": 0.028335507959127426}}, "errors": []}
{"timestamp": "2026-01-15T13:42:54.992701Z", "telemetry": {"lat": 28.7530059, "lon": 77.1179622, "satellites": 0, "altitude_gps_m": 0.28999999165534973, "groundspeed_mps": 0.042726293206214905}, "flight": {"mode": "STABILIZE", "armed": false}, "ekf": {"attitude": {"roll": 0.014079470187425613, "pitch": 0.00603265967220068, "yaw": -0.23315991461277008}, "local_position": {"x": null, "y": null, "z": null}, "status": {"flags": 135, "velocity_variance": 0.0, "pos_horiz_variance": 0.010287352837622166, "pos_vert_variance": 0.022978710010647774}}, "errors": ["PreArm: Hardware safety switch"]}
{"timestamp": "2026-01-15T13:42:55.994067Z", "telemetry": {"lat": 28.7530059, "lon": 77.1179622, "satellites": 0, "altitude_gps_m": 0.28999999165534973, "groundspeed_mps": 0.043079085648059845}, "flight": {"mode": "STABILIZE", "armed": false}, "ekf": {"attitude": {"roll": 0.014211522415280342, "pitch": 0.005903949961066246, "yaw": -0.23316878080368042}, "local_position": {"x": null, "y": null, "z": null}, "status": {"flags": 135, "velocity_variance": 0.0, "pos_horiz_variance": 0.010348470881581306, "pos_vert_variance": 0.013000273145735264}}, "errors": ["PreArm: Hardware safety switch"]}
{"timestamp": "2026-01-15T13:42:57.000418Z", "telemetry": {"lat": 28.7530059, "lon": 77.1179622, "satellites": 0, "altitude_gps_m": 0.28999999165534973, "groundspeed_mps": 0.046024397015571594}, "flight": {"mode": "STABILIZE", "armed": false}, "ekf": {"attitude": {"roll": 0.014310207217931747, "pitch": 0.005970187950879335, "yaw": -0.23339731991291046}, "local_position": {"x": null, "y": null, "z": null}, "status": {"flags": 135, "velocity_variance": 0.0, "pos_horiz_variance": 0.010600646957755089, "pos_vert_variance": 0.08843874931335449}}, "errors": ["PreArm: Hardware safety switch"]}
{"timestamp": "2026-01-15T13:42:57.970287Z", "telemetry": {"lat": 28.7530059, "lon": 77.1179622, "satellites": 0, "altitude_gps_m": 0.28999999165534973, "groundspeed_mps": 0.04504638537764549}, "flight": {"mode": "STABILIZE", "armed": false}, "ekf": {"attitude": {"roll": 0.014351824298501015, "pitch": 0.005980327725410461, "yaw": -0.23352792859077454}, "local_position": {"x": null, "y": null, "z": null}, "status": {"flags": 135, "velocity_variance": 0.0, "pos_horiz_variance": 0.010975902900099754, "pos_vert_variance": 0.01594550348818302}}, "errors": ["PreArm: Hardware safety switch"]}
{"timestamp": "2026-01-15T13:42:58.971933Z", "telemetry": {"lat": 28.7530059, "lon": 77.1179622, "satellites": 0, "altitude_gps_m": 0.28999999165534973, "groundspeed_mps": 0.04409079626202583}, "flight": {"mode": "STABILIZE", "armed": false}, "ekf": {"attitude": {"roll": 0.014393182471394539, "pitch": 0.005932880099862814, "yaw": -0.23365560173988342}, "local_position": {"x": null, "y": null, "z": null}, "status": {"flags": 135, "velocity_variance": 0.0, "pos_horiz_variance": 0.010912187397480011, "pos_vert_variance": 0.12943565845489502}}, "errors": ["PreArm: Hardware safety switch"]}
{"timestamp": "2026-01-15T13:42:59.997581Z", "telemetry": {"lat": 28.7530059, "lon": 77.1179622, "satellites": 0, "altitude_gps_m": 0.28999999165534973, "groundspeed_mps": 0.04644240066409111}, "flight": {"mode": "STABILIZE", "armed": false}, "ekf": {"attitude": {"roll": 0.014319397509098053, "pitch": 0.005949748679995537, "yaw": -0.23362480103969574}, "local_position": {"x": null, "y": null, "z": null}, "status": {"flags": 135, "velocity_variance": 0.0, "pos_horiz_variance": 0.010928288102149963, "pos_vert_variance": 0.007469600532203913}}, "errors": ["PreArm: Hardware safety switch"]}
{"timestamp": "2026-01-15T13:43:01.002041Z", "telemetry": {"lat": 28.7530059, "lon": 77.1179622, "satellites": 0, "altitude_gps_m": 0.28999999165534973, "groundspeed_mps": 0.046749867498874664}, "flight": {"mode": "STABILIZE", "armed": false}, "ekf": {"attitude": {"roll": 0.014348369091749191, "pitch": 0.005867936182767153, "yaw": -0.2335376888513565}, "local_position": {"x": null, "y": null, "z": null}, "status": {"flags": 135, "velocity_variance": 0.0, "pos_horiz_variance": 0.01128873135894537, "pos_vert_variance": 0.031296227127313614}}, "errors": ["PreArm: Hardware safety switch"]}
{"timestamp": "2026-01-15T13:43:02.001491Z", "telemetry": {"lat": 28.7530059, "lon": 77.1179622, "satellites": 0, "altitude_gps_m": 0.28999999165534973, "groundspeed_mps": 0.04666896164417267}, "flight": {"mode": "STABILIZE", "armed": false}, "ekf": {"attitude": {"roll": 0.014497514814138412, "pitch": 0.005791568662971258, "yaw": -0.23361781239509583}, "local_position": {"x": null, "y": null, "z": null}, "status": {"flags": 135, "velocity_variance": 0.0, "pos_horiz_variance": 0.011314638890326023, "pos_vert_variance": 0.0007587766158394516}}, "errors": ["PreArm: Hardware safety switch"]}
{"timestamp": "2026-01-15T13:43:03.002082Z", "telemetry": {"lat": 28.7530059, "lon": 77.1179622, "satellites": 0, "altitude_gps_m": 0.28999999165534973, "groundspeed_mps": 0.04899360612034798}, "flight": {"mode": "STABILIZE", "armed": false}, "ekf": {"attitude": {"roll": 0.014428278431296349, "pitch": 0.005702921189367771, "yaw": -0.23378124833106995}, "local_position": {"x": null, "y": null, "z": null}, "status": {"flags": 135, "velocity_variance": 0.0, "pos_horiz_variance": 0.011375128291547298, "pos_vert_variance": 0.06839049607515335}}, "errors": ["PreArm: Hardware safety switch"]}
{"timestamp": "2026-01-15T13:43:03.983025Z", "telemetry": {"lat": 28.7530059, "lon": 77.1179622, "satellites": 0, "altitude_gps_m": 0.28999999165534973, "groundspeed_mps": 0.048100776970386505}, "flight": {"mode": "STABILIZE", "armed": false}, "ekf": {"attitude": {"roll": 0.014424869790673256, "pitch": 0.005690188612788916, "yaw": -0.23400668799877167}, "local_position": {"x": null, "y": null, "z": null}, "status": {"flags": 135, "velocity_variance": 0.0, "pos_horiz_variance": 0.011621810495853424, "pos_vert_variance": 0.1269812136888504}}, "errors": ["PreArm: Hardware safety switch"]}
{"timestamp": "2026-01-15T13:43:04.974045Z", "telemetry": {"lat": 28.7530059, "lon": 77.1179622, "satellites": 0, "altitude_gps_m": 0.28999999165534973, "groundspeed_mps": 0.04856891185045242}, "flight": {"mode": "STABILIZE", "armed": false}, "ekf": {"attitude": {"roll": 0.014392681419849396, "pitch": 0.00549601623788476, "yaw": -0.2340511679649353}, "local_position": {"x": null, "y": null, "z": null}, "status": {"flags": 135, "velocity_variance": 0.0, "pos_horiz_variance": 0.01174494344741106, "pos_vert_variance": 0.14844673871994019}}, "errors": ["PreArm: Hardware safety switch"]}
{"timestamp": "2026-01-15T13:43:05.972986Z", "telemetry": {"lat": 28.7530059, "lon": 77.1179622, "satellites": 0, "altitude_gps_m": 0.28999999165534973, "groundspeed_mps": 0.05129888281226158}, "flight": {"mode": "STABILIZE", "armed": false}, "ekf": {"attitude": {"roll": 0.014400869607925415, "pitch": 0.005493657197803259, "yaw": -0.2340865582227707}, "local_position": {"x": null, "y": null, "z": null}, "status": {"flags": 135, "velocity_variance": 0.0, "pos_horiz_variance": 0.01192648708820343, "pos_vert_variance": 0.06586498022079468}}, "errors": ["PreArm: Hardware safety switch"]}
{"timestamp": "2026-01-15T13:43:06.982692Z", "telemetry": {"lat": 28.7530059, "lon": 77.1179622, "satellites": 0, "altitude_gps_m": 0.28999999165534973, "groundspeed_mps": 0.053294070065021515}, "flight": {"mode": "STABILIZE", "armed": false}, "ekf": {"attitude": {"roll": 0.01432497613132, "pitch": 0.005578301381319761, "yaw": -0.23418128490447998}, "local_position": {"x": null, "y": null, "z": null}, "status": {"flags": 135, "velocity_variance": 0.0, "pos_horiz_variance": 0.012422079220414162, "pos_vert_variance": 0.04243319481611252}}, "errors": ["PreArm: Hardware safety switch"]}
{"timestamp": "2026-01-15T13:43:08.041044Z", "telemetry": {"lat": 28.7530059, "lon": 77.1179622, "satellites": 0, "altitude_gps_m": 0.28999999165534973, "groundspeed_mps": 0.051862265914678574}, "flight": {"mode": "STABILIZE", "armed": false}, "ekf": {"attitude": {"roll": 0.014407733455300331, "pitch": 0.005706376861780882, "yaw": -0.2340557873249054}, "local_position": {"x": null, "y": null, "z": null}, "status": {"flags": 135, "velocity_variance": 0.0, "pos_horiz_variance": 0.012636620551347733, "pos_vert_variance": 0.059949927031993866}}, "errors": ["PreArm: Hardware safety switch"]}
{"timestamp": "2026-01-15T13:43:08.976556Z", "telemetry": {"lat": 28.7530059, "lon": 77.1179622, "satellites": 0, "altitude_gps_m": 0.28999999165534973, "groundspeed_mps": 0.04847533628344536}, "flight": {"mode": "STABILIZE", "armed": false}, "ekf": {"attitude": {"roll": 0.014332136139273643, "pitch": 0.005791924893856049, "yaw": -0.2341172695159912}, "local_position": {"x": null, "y": null, "z": null}, "status": {"flags": 135, "velocity_variance": 0.0, "pos_horiz_variance": 0.012318786233663559, "pos_vert_variance": 0.05869925394654274}}, "errors": ["PreArm: Hardware safety switch"]}
{"timestamp": "2026-01-15T13:43:09.978556Z", "telemetry": {"lat": 28.7530059, "lon": 77.1179622, "satellites": 0, "altitude_gps_m": 0.28999999165534973, "groundspeed_mps": 0.049105167388916016}, "flight": {"mode": "STABILIZE", "armed": false}, "ekf": {"attitude": {"roll": 0.014182982966303825, "pitch": 0.005879053846001625, "yaw": -0.23416878283023834}, "local_position": {"x": null, "y": null, "z": null}, "status": {"flags": 135, "velocity_variance": 0.0, "pos_horiz_variance": 0.01207173801958561, "pos_vert_variance": 0.03955483064055443}}, "errors": ["PreArm: Hardware safety switch"]}
{"timestamp": "2026-01-15T13:43:10.986366Z", "telemetry": {"lat": 28.7530059, "lon": 77.1179622, "satellites": 0, "altitude_gps_m": 0.28999999165534973, "groundspeed_mps": 0.046609316021203995}, "flight": {"mode": "STABILIZE", "armed": false}, "ekf": {"attitude": {"roll": 0.014091169461607933, "pitch": 0.006050321739166975, "yaw": -0.2340879738330841}, "local_position": {"x": null, "y": null, "z": null}, "status": {"flags": 135, "velocity_variance": 0.0, "pos_horiz_variance": 0.011880866251885891, "pos_vert_variance": 0.026455067098140717}}, "errors": ["PreArm: Hardware safety switch"]}
{"timestamp": "2026-01-15T13:43:11.987111Z", "telemetry": {"lat": 28.7530059, "lon": 77.1179622, "satellites": 0, "altitude_gps_m": 0.28999999165534973, "groundspeed_mps": 0.043225813657045364}, "flight": {"mode": "STABILIZE", "armed": false}, "ekf": {"attitude": {"roll": 0.013981714844703674, "pitch": 0.006225534714758396, "yaw": -0.234158456325531}, "local_position": {"x": null, "y": null, "z": null}, "status": {"flags": 135, "velocity_variance": 0.0, "pos_horiz_variance": 0.01151387207210064, "pos_vert_variance": 0.007014820817857981}}, "errors": ["PreArm: Hardware safety switch"]}
{"timestamp": "2026-01-15T13:43:12.982597Z", "telemetry": {"lat": 28.7530059, "lon": 77.1179622, "satellites": 0, "altitude_gps_m": 0.28999999165534973, "groundspeed_mps": 0.043225813657045364}, "flight": {"mode": "STABILIZE", "armed": false}, "ekf": {"attitude": {"roll": 0.013981714844703674, "pitch": 0.006225534714758396, "yaw": -0.234158456325531}, "local_position": {"x": null, "y": null, "z": null}, "status": {"flags": 135, "velocity_variance": 0.0, "pos_horiz_variance": 0.011384719982743263, "pos_vert_variance": 0.0075698778964579105}}, "errors": ["PreArm: Hardware safety switch"]}
