{"timestamp": "2026-01-15T13:41:29.554454Z", "telemetry": {"lat": null, "lon": null, "satellites": null, "altitude_gps_m": 0.28999999165534973, "groundspeed_mps": 0.05855970457196236}, "flight": {"mode": "STABILIZE", "armed": false}, "ekf": {"attitude": {"roll": 0.01329798623919487, "pitch": 0.004877897445112467, "yaw": -0.23369531333446503}, "local_position": {"x": null, "y": null, "z": null}, "status": {"flags": null, "velocity_variance": null, "pos_horiz_variance": null, "pos_vert_variance": null}}, "errors": []}
{"timestamp": "2026-01-15T13:41:30.521808Z", "telemetry": {"lat": 28.7530059, "lon": 77.1179622, "satellites": 0, "altitude_gps_m": 0.28999999165534973, "groundspeed_mps": 0.05497101694345474}, "flight": {"mode": "STABILIZE", "armed": false}, "ekf": {"attitude": {"roll": 0.013276569545269012, "pitch": 0.0050242445431649685, "yaw": -0.23370902240276337}, "local_position": {"x": null, "y": null, "z": null}, "status": {"flags": 135, "velocity_variance": 0.0, "pos_horiz_variance": 0.01458741258829832, "pos_vert_variance": 0.006630008574575186}}, "errors": []}
{"timestamp": "2026-01-15T13:41:31.473658Z", "telemetry": {"lat": 28.7530059, "lon": 77.1179622, "satellites": 0, "altitude_gps_m": 0.28999999165534973, "groundspeed_mps": 0.05182072892785072}, "flight": {"mode": "STABILIZE", "armed": false}, "ekf": {"attitude": {"roll": 0.013433082029223442, "pitch": 0.005070495419204235, "yaw": -0.23369036614894867}, "local_position": {"x": null, "y": null, "z": null}, "status": {"flags": 135, "velocity_variance": 0.0, "pos_horiz_variance": 0.013700533658266068, "pos_vert_variance": 0.04537500441074371}}, "errors": []}
{"timestamp": "2026-01-15T13:41:32.494203Z", "telemetry": {"lat": 28.7530059, "lon": 77.1179622, "satellites": 0, "altitude_gps_m": 0.28999999165534973, "groundspeed_mps": 0.05234955996274948}, "flight": {"mode": "STABILIZE", "armed": false}, "ekf": {"attitude": {"roll": 0.013444516807794571, "pitch": 0.005032495595514774, "yaw": -0.23364323377609253}, "local_position": {"x": null, "y": null, "z": null}, "status": {"flags": 135, "velocity_variance": 0.0, "pos_horiz_variance": 0.013193563558161259, "pos_vert_variance": 0.001140149193815887}}, "errors": []}
{"timestamp": "2026-01-15T13:41:33.515005Z", "telemetry": {"lat": 28.7530059, "lon": 77.1179622, "satellites": 0, "altitude_gps_m": 0.28999999165534973, "groundspeed_mps": 0.05127516761422157}, "flight": {"mode": "STABILIZE", "armed": false}, "ekf": {"attitude": {"roll": 0.013655053451657295, "pitch": 0.005004336126148701, "yaw": -0.23360440135002136}, "local_position": {"x": null, "y": null, "z": null}, "status": {"flags": 135, "velocity_variance": 0.0, "pos_horiz_variance": 0.01288196537643671, "pos_vert_variance": 0.01246614195406437}}, "errors": []}
{"timestamp": "2026-01-15T13:41:34.519621Z", "telemetry": {"lat": 28.7530059, "lon": 77.1179622, "satellites": 0, "altitude_gps_m": 0.28999999165534973, "groundspeed_mps": 0.054835520684719086}, "flight": {"mode": "STABILIZE", "armed": false}, "ekf": {"attitude": {"roll": 0.013965027406811714, "pitch": 0.0049653141759335995, "yaw": -0.23356258869171143}, "local_position": {"x": null, "y": null, "z": null}, "status": {"flags": 135, "velocity_variance": 0.0, "pos_horiz_variance": 0.012994837015867233, "pos_vert_variance": 0.012892747297883034}}, "errors": []}
{"timestamp": "2026-01-15T13:41:35.519057Z", "telemetry": {"lat": 28.7530059, "lon": 77.1179622, "satellites": 0, "altitude_gps_m": 0.28999999165534973, "groundspeed_mps": 0.05476662144064903}, "flight": {"mode": "STABILIZE", "armed": false}, "ekf": {"attitude": {"roll": 0.014067452400922775, "pitch": 0.004948573186993599, "yaw": -0.23346206545829773}, "local_position": {"x": null, "y": null, "z": null}, "status": {"flags": 135, "velocity_variance": 0.0, "pos_horiz_variance": 0.013257579877972603, "pos_vert_variance": 0.09070108830928802}}, "errors": []}
{"timestamp": "2026-01-15T13:41:36.494483Z", "telemetry": {"lat": 28.7530059, "lon": 77.1179622, "satellites": 0, "altitude_gps_m": 0.28999999165534973, "groundspeed_mps": 0.058014947921037674}, "flight": {"mode": "STABILIZE", "armed": false}, "ekf": {"attitude": {"roll": 0.014190476387739182, "pitch": 0.0048406003043055534, "yaw": -0.23346291482448578}, "local_position": {"x": null, "y": null, "z": null}, "status": {"flags": 135, "velocity_variance": 0.0, "pos_horiz_variance": 0.013414966873824596, "pos_vert_variance": 0.025803256779909134}}, "errors": []}
{"timestamp": "2026-01-15T13:41:37.497373Z", "telemetry": {"lat": 28.7530059, "lon": 77.1179622, "satellites": 0, "altitude_gps_m": 0.28999999165534973, "groundspeed_mps": 0.05920785292983055}, "flight": {"mode": "STABILIZE", "armed": false}, "ekf": {"attitude": {"roll": 0.0140468068420887, "pitch": 0.004711200948804617, "yaw": -0.23330780863761902}, "local_position": {"x": null, "y": null, "z": null}, "status": {"flags": 135, "velocity_variance": 0.0, "pos_horiz_variance": 0.01411406323313713, "pos_vert_variance": 0.001290814601816237}}, "errors": []}
{"timestamp": "2026-01-15T13:41:38.493545Z", "telemetry": {"lat": 28.7530059, "lon": 77.1179622, "satellites": 0, "altitude_gps_m": 0.28999999165534973, "groundspeed_mps": 0.06130901351571083}, "flight": {"mode": "STABILIZE", "armed": false}, "ekf": {"attitude": {"roll": 0.013890404254198074, "pitch": 0.004771315958350897, "yaw": -0.23317201435565948}, "local_position": {"x": null, "y": null, "z": null}, "status": {"flags": 135, "velocity_variance": 0.0, "pos_horiz_variance": 0.01429925486445427, "pos_vert_variance": 0.07216361165046692}}, "errors": []}
{"timestamp": "2026-01-15T13:41:39.495306Z", "telemetry": {"lat": 28.7530059, "lon": 77.1179622, "satellites": 0, "altitude_gps_m": 0.28999999165534973, "groundspeed_mps": 0.05957452952861786}, "flight": {"mode": "STABILIZE", "armed": false}, "ekf": {"attitude": {"roll": 0.013669813051819801, "pitch": 0.0048580956645309925, "yaw": -0.23304866254329681}, "local_position": {"x": null, "y": null, "z": null}, "status": {"flags": 135, "velocity_variance": 0.0, "pos_horiz_variance": 0.014528194442391396, "pos_vert_variance": 0.0033673387952148914}}, "errors": []}
{"timestamp": "2026-01-15T13:41:40.503076Z", "telemetry": {"lat": 28.7530059, "lon": 77.1179622, "satellites": 0, "altitude_gps_m": 0.28999999165534973, "groundspeed_mps": 0.054994113743305206}, "flight": {"mode": "STABILIZE", "armed": false}, "ekf": {"attitude": {"roll": 0.013461027294397354, "pitch": 0.004994506482034922, "yaw": -0.23290106654167175}, "local_position": {"x": null, "y": null, "z": null}, "status": {"flags": 135, "velocity_variance": 0.0, "pos_horiz_variance": 0.014079476706683636, "pos_vert_variance": 0.04829365015029907}}, "errors": []}
{"timestamp": "2026-01-15T13:41:41.491424Z", "telemetry": {"lat": 28.7530059, "lon": 77.1179622, "satellites": 0, "altitude_gps_m": 0.28999999165534973, "groundspeed_mps": 0.054216720163822174}, "flight": {"mode": "STABILIZE", "armed": false}, "ekf": {"attitude": {"roll": 0.013230998069047928, "pitch": 0.005030281841754913, "yaw": -0.2330079972743988}, "local_position": {"x": null, "y": null, "z": null}, "status": {"flags": 135, "velocity_variance": 0.0, "pos_horiz_variance": 0.013614457100629807, "pos_vert_variance": 0.001226116786710918}}, "errors": []}
{"timestamp": "2026-01-15T13:41:42.502898Z", "telemetry": {"lat": 28.7530059, "lon": 77.1179622, "satellites": 0, "altitude_gps_m": 0.28999999165534973, "groundspeed_mps": 0.05599121004343033}, "flight": {"mode": "STABILIZE", "armed": false}, "ekf": {"attitude": {"roll": 0.012888867408037186, "pitch": 0.005092442501336336, "yaw": -0.2331724315881729}, "local_position": {"x": null, "y": null, "z": null}, "status": {"flags": 135, "velocity_variance": 0.0, "pos_horiz_variance": 0.013411357067525387, "pos_vert_variance": 0.030741382390260696}}, "errors": []}
{"timestamp": "2026-01-15T13:41:43.500022Z", "telemetry": {"lat": 28.7530059, "lon": 77.1179622, "satellites": 0, "altitude_gps_m": 0.28999999165534973, "groundspeed_mps": 0.05690386891365051}, "flight": {"mode": "STABILIZE", "armed": false}, "ekf": {"attitude": {"roll": 0.012842554599046707, "pitch": 0.0050722407177090645, "yaw": -0.2332649827003479}, "local_position": {"x": null, "y": null, "z": null}, "status": {"flags": 135, "velocity_variance": 0.0, "pos_horiz_variance": 0.01358338724821806, "pos_vert_variance": 0.018201781436800957}}, "errors": []}
{"timestamp": "2026-01-15T13:41:44.480044Z", "telemetry": {"lat": 28.7530059, "lon": 77.1179622, "satellites": 0, "altitude_gps_m": 0.28999999165534973, "groundspeed_mps": 0.05726683512330055}, "flight": {"mode": "STABILIZE", "armed": false}, "ekf": {"attitude": {"roll": 0.012838087975978851, "pitch": 0.00492502748966217, "yaw": -0.23351749777793884}, "local_position": {"x": null, "y": null, "z": null}, "status": {"flags": 135, "velocity_variance": 0.0, "pos_horiz_variance": 0.013592814095318317, "pos_vert_variance": 0.032394539564847946}}, "errors": []}
{"timestamp": "2026-01-15T13:41:45.510846Z", "telemetry": {"lat": 28.7530059, "lon": 77.1179622, "satellites": 0, "altitude_gps_m": 0.28999999165534973, "groundspeed_mps": 0.05976655334234238}, "flight": {"mode": "STABILIZE", "armed": false}, "ekf": {"attitude": {"roll": 0.012858286499977112, "pitch": 0.004872964695096016, "yaw": -0.23345981538295746}, "local_position": {"x": null, "y": null, "z": null}, "status": {"flags": 135, "velocity_variance": 0.0, "pos_horiz_variance": 0.014007178135216236, "pos_vert_variance": 0.09003814309835434}}, "errors": []}
{"timestamp": "2026-01-15T13:41:46.510818Z", "telemetry": {"lat": 28.7530059, "lon": 77.1179622, "satellites": 0, "altitude_gps_m": 0.28999999165534973, "groundspeed_mps": 0.06084281578660011}, "flight": {"mode": "STABILIZE", "armed": false}, "ekf": {"attitude": {"roll": 0.012935161590576172, "pitch": 0.004696568474173546, "yaw": -0.23356573283672333}, "local_position": {"x": null, "y": null, "z": null}, "status": {"flags": 135, "velocity_variance": 0.0, "pos_horiz_variance": 0.014252224005758762, "pos_vert_variance": 0.041671592742204666}}, "errors": []}
{"timestamp": "2026-01-15T13:41:47.514577Z", "telemetry": {"lat": 28.7530059, "lon": 77.1179622, "satellites": 0, "altitude_gps_m": 0.28999999165534973, "groundspeed_mps": 0.06344209611415863}, "flight": {"mode": "STABILIZE", "armed": false}, "ekf": {"attitude": {"roll": 0.013146787881851196, "pitch": 0.004654525313526392, "yaw": -0.23368030786514282}, "local_position": {"x": null, "y": null, "z": null}, "status": {"flags": 135, "velocity_variance": 0.0, "pos_horiz_variance": 0.014965267851948738, "pos_vert_variance": 0.0009424866875633597}}, "errors": []}
{"timestamp": "2026-01-15T13:41:48.485606Z", "telemetry": {"lat": 28.7530059, "lon": 77.1179622, "satellites": 0, "altitude_gps_m": 0.28999999165534973, "groundspeed_mps": 0.06437747180461884}, "flight": {"mode": "STABILIZE", "armed": false}, "ekf": {"attitude": {"roll": 0.013319958001375198, "pitch": 0.004582958295941353, "yaw": -0.23380544781684875}, "local_position": {"x": null, "y": null, "z": null}, "status": {"flags": 135, "velocity_variance": 0.0, "pos_horiz_variance": 0.015352574177086353, "pos_vert_variance": 0.046431154012680054}}, "errors": []}
{"timestamp": "2026-01-15T13:41:49.486999Z", "telemetry": {"lat": 28.7530059, "lon": 77.1179622, "satellites": 0, "altitude_gps_m": 0.28999999165534973, "groundspeed_mps": 0.06403455138206482}, "flight": {"mode": "STABILIZE", "armed": false}, "ekf": {"attitude": {"roll": 0.013402547687292099, "pitch": 0.004620476625859737, "yaw": -0.23379386961460114}, "local_position": {"x": null, "y": null, "z": null}, "status": {"flags": 135, "velocity_variance": 0.0, "pos_horiz_variance": 0.015458207577466965, "pos_vert_variance": 0.033534079790115356}}, "errors": []}
{"timestamp": "2026-01-15T13:41:50.489509Z", "telemetry": {"lat": 28.7530059, "lon": 77.1179622, "satellites": 0, "altitude_gps_m": 0.28999999165534973, "groundspeed_mps": 0.0627894476056099}, "flight": {"mode": "STABILIZE", "armed": false}, "ekf": {"attitude": {"roll": 0.013554982841014862, "pitch": 0.004631378687918186, "yaw": -0.23384740948677063}, "local_position": {"x": null, "y": null, "z": null}, "status": {"flags": 135, "velocity_variance": 0.0, "pos_horiz_variance": 0.015464194118976593, "pos_vert_variance": 0.02226630598306656}}, "errors": []}
