{"timestamp": "2026-01-15T14:08:18.637583Z", "telemetry": {"lat": 28.7530059, "lon": 77.1179622, "satellites": 0, "altitude_gps_m": 0.28999999165534973, "groundspeed_mps": 0.002560078864917159}, "flight": {"mode": "STABILIZE", "armed": false}, "ekf": {"attitude": {"roll": 0.0230572447180748, "pitch": 0.002146827057003975, "yaw": -0.5141371488571167}, "local_position": {"x": null, "y": null, "z": null}, "status": {"flags": 135, "velocity_variance": 0.0, "pos_horiz_variance": 0.00043938038288615644, "pos_vert_variance": 0.052380044013261795}}, "errors": []}
{"timestamp": "2026-01-15T14:08:19.617885Z", "telemetry": {"lat": 28.7530059, "lon": 77.1179622, "satellites": 0, "altitude_gps_m": 0.28999999165534973, "groundspeed_mps": 0.004414497409015894}, "flight": {"mode": "STABILIZE", "armed": false}, "ekf": {"attitude": {"roll": 0.023138094693422318, "pitch": 0.002001093467697501, "yaw": -0.5140908360481262}, "local_position": {"x": null, "y": null, "z": null}, "status": {"flags": 135, "velocity_variance": 0.0, "pos_horiz_variance": 0.0007382557960227132, "pos_vert_variance": 0.026823407039046288}}, "errors": []}
{"timestamp": "2026-01-15T14:08:20.550429Z", "telemetry": {"lat": 28.7530059, "lon": 77.1179622, "satellites": 0, "altitude_gps_m": 0.28999999165534973, "groundspeed_mps": 0.0033159852027893066}, "flight": {"mode": "STABILIZE", "armed": false}, "ekf": {"attitude": {"roll": 0.023200225085020065, "pitch": 0.002132776193320751, "yaw": -0.5139833688735962}, "local_position": {"x": null, "y": null, "z": null}, "status": {"flags": 135, "velocity_variance": 0.0, "pos_horiz_variance": 0.0008058652165345848, "pos_vert_variance": 0.038865167647600174}}, "errors": []}
{"timestamp": "2026-01-15T14:08:21.516442Z", "telemetry": {"lat": 28.7530059, "lon": 77.1179622, "satellites": 0, "altitude_gps_m": 0.28999999165534973, "groundspeed_mps": 0.00316830282099545}, "flight": {"mode": "STABILIZE", "armed": false}, "ekf": {"attitude": {"roll": 0.02325309067964554, "pitch": 0.001953527797013521, "yaw": -0.5141421556472778}, "local_position": {"x": null, "y": null, "z": null}, "status": {"flags": 135, "velocity_variance": 0.0, "pos_horiz_variance": 0.0009955456480383873, "pos_vert_variance": 0.015621253289282322}}, "errors": []}
{"timestamp": "2026-01-15T14:08:22.488664Z", "telemetry": {"lat": 28.7530059, "lon": 77.1179622, "satellites": 0, "altitude_gps_m": 0.28999999165534973, "groundspeed_mps": 0.0036659648176282644}, "flight": {"mode": "STABILIZE", "armed": false}, "ekf": {"attitude": {"roll": 0.023377710953354836, "pitch": 0.002079392084851861, "yaw": -0.5141745209693909}, "local_position": {"x": null, "y": null, "z": null}, "status": {"flags": 135, "velocity_variance": 0.0, "pos_horiz_variance": 0.0010389385279268026, "pos_vert_variance": 0.0005142821464687586}}, "errors": []}
{"timestamp": "2026-01-15T14:08:23.492094Z", "telemetry": {"lat": 28.7530059, "lon": 77.1179622, "satellites": 0, "altitude_gps_m": 0.28999999165534973, "groundspeed_mps": 0.006065562833100557}, "flight": {"mode": "STABILIZE", "armed": false}, "ekf": {"attitude": {"roll": 0.02312600612640381, "pitch": 0.00184511742554605, "yaw": -0.5144093036651611}, "local_position": {"x": null, "y": null, "z": null}, "status": {"flags": 135, "velocity_variance": 0.0, "pos_horiz_variance": 0.0009290253510698676, "pos_vert_variance": 0.023495640605688095}}, "errors": []}
{"timestamp": "2026-01-15T14:08:24.513378Z", "telemetry": {"lat": 28.7530059, "lon": 77.1179622, "satellites": 0, "altitude_gps_m": 0.28999999165534973, "groundspeed_mps": 0.0079635726287961}, "flight": {"mode": "STABILIZE", "armed": false}, "ekf": {"attitude": {"roll": 0.02326478622853756, "pitch": 0.0023360601626336575, "yaw": -0.5141477584838867}, "local_position": {"x": null, "y": null, "z": null}, "status": {"flags": 135, "velocity_variance": 0.0, "pos_horiz_variance": 0.0018226944375783205, "pos_vert_variance": 0.016660183668136597}}, "errors": []}
{"timestamp": "2026-01-15T14:08:25.513884Z", "telemetry": {"lat": 28.7530059, "lon": 77.1179622, "satellites": 0, "altitude_gps_m": 0.28999999165534973, "groundspeed_mps": 0.005816186778247356}, "flight": {"mode": "STABILIZE", "armed": false}, "ekf": {"attitude": {"roll": 0.023265885189175606, "pitch": 0.0024674702435731888, "yaw": -0.5143963694572449}, "local_position": {"x": null, "y": null, "z": null}, "status": {"flags": 135, "velocity_variance": 0.0, "pos_horiz_variance": 0.0017224658513441682, "pos_vert_variance": 0.025735782459378242}}, "errors": []}
{"timestamp": "2026-01-15T14:08:26.487826Z", "telemetry": {"lat": 28.7530059, "lon": 77.1179622, "satellites": 0, "altitude_gps_m": 0.28999999165534973, "groundspeed_mps": 0.005381521303206682}, "flight": {"mode": "STABILIZE", "armed": false}, "ekf": {"attitude": {"roll": 0.023390138521790504, "pitch": 0.00276088435202837, "yaw": -0.5139591097831726}, "local_position": {"x": null, "y": null, "z": null}, "status": {"flags": 135, "velocity_variance": 0.0, "pos_horiz_variance": 0.0008980095735751092, "pos_vert_variance": 0.05127377808094025}}, "errors": []}
{"timestamp": "2026-01-15T14:08:27.491671Z", "telemetry": {"lat": 28.7530059, "lon": 77.1179622, "satellites": 0, "altitude_gps_m": 0.28999999165534973, "groundspeed_mps": 0.004206271376460791}, "flight": {"mode": "STABILIZE", "armed": false}, "ekf": {"attitude": {"roll": 0.023140694946050644, "pitch": 0.002550978446379304, "yaw": -0.5144739747047424}, "local_position": {"x": null, "y": null, "z": null}, "status": {"flags": 135, "velocity_variance": 0.0, "pos_horiz_variance": 0.00014204262697603554, "pos_vert_variance": 0.026811150833964348}}, "errors": []}
{"timestamp": "2026-01-15T14:08:28.492389Z", "telemetry": {"lat": 28.7530059, "lon": 77.1179622, "satellites": 0, "altitude_gps_m": 0.28999999165534973, "groundspeed_mps": 0.004473112989217043}, "flight": {"mode": "STABILIZE", "armed": false}, "ekf": {"attitude": {"roll": 0.02317860908806324, "pitch": 0.0025174152106046677, "yaw": -0.5143965482711792}, "local_position": {"x": null, "y": null, "z": null}, "status": {"flags": 135, "velocity_variance": 0.0, "pos_horiz_variance": 0.0005523386062122881, "pos_vert_variance": 0.015446933917701244}}, "errors": []}
{"timestamp": "2026-01-15T14:08:29.495162Z", "telemetry": {"lat": 28.7530059, "lon": 77.1179622, "satellites": 0, "altitude_gps_m": 0.28999999165534973, "groundspeed_mps": 0.0017247297801077366}, "flight": {"mode": "STABILIZE", "armed": false}, "ekf": {"attitude": {"roll": 0.02303639054298401, "pitch": 0.002396410796791315, "yaw": -0.5144551992416382}, "local_position": {"x": null, "y": null, "z": null}, "status": {"flags": 135, "velocity_variance": 0.0, "pos_horiz_variance": 0.0006853283266536891, "pos_vert_variance": 0.07229316979646683}}, "errors": ["PreArm: Hardware safety switch", "PreArm: Battery 1 low voltage failsafe"]}
{"timestamp": "2026-01-15T14:08:30.492098Z", "telemetry": {"lat": 28.7530059, "lon": 77.1179622, "satellites": 0, "altitude_gps_m": 0.28999999165534973, "groundspeed_mps": 0.001900177332572639}, "flight": {"mode": "STABILIZE", "armed": false}, "ekf": {"attitude": {"roll": 0.02295071631669998, "pitch": 0.0022099590860307217, "yaw": -0.5144271850585938}, "local_position": {"x": null, "y": null, "z": null}, "status": {"flags": 135, "velocity_variance": 0.0, "pos_horiz_variance": 0.00019359932048246264, "pos_vert_variance": 0.010783195495605469}}, "errors": ["PreArm: Hardware safety switch", "PreArm: Battery 1 low voltage failsafe"]}
{"timestamp": "2026-01-15T14:08:31.493092Z", "telemetry": {"lat": 28.7530059, "lon": 77.1179622, "satellites": 0, "altitude_gps_m": 0.28999999165534973, "groundspeed_mps": 0.005795437842607498}, "flight": {"mode": "STABILIZE", "armed": false}, "ekf": {"attitude": {"roll": 0.022923747077584267, "pitch": 0.0020869567524641752, "yaw": -0.5145660042762756}, "local_position": {"x": null, "y": null, "z": null}, "status": {"flags": 135, "velocity_variance": 0.0, "pos_horiz_variance": 0.0004523520765360445, "pos_vert_variance": 0.010154590010643005}}, "errors": ["PreArm: Hardware safety switch", "PreArm: Battery 1 low voltage failsafe"]}
{"timestamp": "2026-01-15T14:08:32.496137Z", "telemetry": {"lat": 28.7530059, "lon": 77.1179622, "satellites": 0, "altitude_gps_m": 0.28999999165534973, "groundspeed_mps": 0.0035980723332613707}, "flight": {"mode": "STABILIZE", "armed": false}, "ekf": {"attitude": {"roll": 0.022709058597683907, "pitch": 0.0014372493606060743, "yaw": -0.5144331455230713}, "local_position": {"x": null, "y": null, "z": null}, "status": {"flags": 135, "velocity_variance": 0.0, "pos_horiz_variance": 0.001297529088333249, "pos_vert_variance": 0.062116920948028564}}, "errors": ["PreArm: Hardware safety switch", "PreArm: Battery 1 low voltage failsafe"]}
{"timestamp": "2026-01-15T14:08:33.498250Z", "telemetry": {"lat": 28.7530059, "lon": 77.1179622, "satellites": 0, "altitude_gps_m": 0.28999999165534973, "groundspeed_mps": 0.009096866473555565}, "flight": {"mode": "STABILIZE", "armed": false}, "ekf": {"attitude": {"roll": 0.022870518267154694, "pitch": 0.0019552158191800117, "yaw": -0.5145856142044067}, "local_position": {"x": null, "y": null, "z": null}, "status": {"flags": 135, "velocity_variance": 0.0, "pos_horiz_variance": 0.001603698474355042, "pos_vert_variance": 0.008981795981526375}}, "errors": ["PreArm: Hardware safety switch", "PreArm: Battery 1 low voltage failsafe"]}
{"timestamp": "2026-01-15T14:08:34.495900Z", "telemetry": {"lat": 28.7530059, "lon": 77.1179622, "satellites": 0, "altitude_gps_m": 0.28999999165534973, "groundspeed_mps": 0.009131625294685364}, "flight": {"mode": "STABILIZE", "armed": false}, "ekf": {"attitude": {"roll": 0.022875767201185226, "pitch": 0.0019171044696122408, "yaw": -0.5144907832145691}, "local_position": {"x": null, "y": null, "z": null}, "status": {"flags": 135, "velocity_variance": 0.0, "pos_horiz_variance": 0.0019686142913997173, "pos_vert_variance": 0.06796956062316895}}, "errors": ["PreArm: Hardware safety switch", "PreArm: Battery 1 low voltage failsafe"]}
{"timestamp": "2026-01-15T14:08:35.493261Z", "telemetry": {"lat": 28.7530059, "lon": 77.1179622, "satellites": 0, "altitude_gps_m": 0.28999999165534973, "groundspeed_mps": 0.009371808730065823}, "flight": {"mode": "STABILIZE", "armed": false}, "ekf": {"attitude": {"roll": 0.022848796099424362, "pitch": 0.002011435804888606, "yaw": -0.5144410133361816}, "local_position": {"x": null, "y": null, "z": null}, "status": {"flags": 135, "velocity_variance": 0.0, "pos_horiz_variance": 0.002191936131566763, "pos_vert_variance": 0.06671142578125}}, "errors": ["PreArm: Hardware safety switch", "PreArm: Battery 1 low voltage failsafe"]}
{"timestamp": "2026-01-15T14:08:36.493238Z", "telemetry": {"lat": 28.7530059, "lon": 77.1179622, "satellites": 0, "altitude_gps_m": 0.28999999165534973, "groundspeed_mps": 0.010029604658484459}, "flight": {"mode": "STABILIZE", "armed": false}, "ekf": {"attitude": {"roll": 0.022930141538381577, "pitch": 0.0018903198651969433, "yaw": -0.5145779252052307}, "local_position": {"x": null, "y": null, "z": null}, "status": {"flags": 135, "velocity_variance": 0.0, "pos_horiz_variance": 0.002342474414035678, "pos_vert_variance": 0.017117269337177277}}, "errors": ["PreArm: Hardware safety switch", "PreArm: Battery 1 low voltage failsafe"]}
{"timestamp": "2026-01-15T14:08:37.503278Z", "telemetry": {"lat": 28.7530059, "lon": 77.1179622, "satellites": 0, "altitude_gps_m": 0.28999999165534973, "groundspeed_mps": 0.01020740158855915}, "flight": {"mode": "STABILIZE", "armed": false}, "ekf": {"attitude": {"roll": 0.02291574515402317, "pitch": 0.001968724187463522, "yaw": -0.5144832730293274}, "local_position": {"x": null, "y": null, "z": null}, "status": {"flags": 135, "velocity_variance": 0.0, "pos_horiz_variance": 0.00261612213216722, "pos_vert_variance": 0.03578576445579529}}, "errors": ["PreArm: Hardware safety switch", "PreArm: Battery 1 low voltage failsafe"]}
{"timestamp": "2026-01-15T14:08:38.502564Z", "telemetry": {"lat": 28.7530059, "lon": 77.1179622, "satellites": 0, "altitude_gps_m": 0.28999999165534973, "groundspeed_mps": 0.012549061328172684}, "flight": {"mode": "STABILIZE", "armed": false}, "ekf": {"attitude": {"roll": 0.022929344326257706, "pitch": 0.0019652051851153374, "yaw": -0.5145858526229858}, "local_position": {"x": null, "y": null, "z": null}, "status": {"flags": 135, "velocity_variance": 0.0, "pos_horiz_variance": 0.002934013493359089, "pos_vert_variance": 0.08242971450090408}}, "errors": ["PreArm: Hardware safety switch", "PreArm: Battery 1 low voltage failsafe"]}
{"timestamp": "2026-01-15T14:08:39.469934Z", "telemetry": {"lat": 28.7530059, "lon": 77.1179622, "satellites": 0, "altitude_gps_m": 0.28999999165534973, "groundspeed_mps": 0.010450826026499271}, "flight": {"mode": "STABILIZE", "armed": false}, "ekf": {"attitude": {"roll": 0.02311583235859871, "pitch": 0.002095932839438319, "yaw": -0.5146907567977905}, "local_position": {"x": null, "y": null, "z": null}, "status": {"flags": 135, "velocity_variance": 0.0, "pos_horiz_variance": 0.0028467399533838034, "pos_vert_variance": 0.020631689578294754}}, "errors": ["PreArm: Hardware safety switch", "PreArm: Battery 1 low voltage failsafe"]}
{"timestamp": "2026-01-15T14:08:40.504652Z", "telemetry": {"lat": 28.7530059, "lon": 77.1179622, "satellites": 0, "altitude_gps_m": 0.28999999165534973, "groundspeed_mps": 0.006019354332238436}, "flight": {"mode": "LOITER", "armed": false}, "ekf": {"attitude": {"roll": 0.023217326030135155, "pitch": 0.002104987157508731, "yaw": -0.5145856142044067}, "local_position": {"x": null, "y": null, "z": null}, "status": {"flags": 135, "velocity_variance": 0.0, "pos_horiz_variance": 0.0024337563663721085, "pos_vert_variance": 0.06935640424489975}}, "errors": ["PreArm: Hardware safety switch", "PreArm: Battery 1 low voltage failsafe"]}
{"timestamp": "2026-01-15T14:08:41.497125Z", "telemetry": {"lat": 28.7530059, "lon": 77.1179622, "satellites": 0, "altitude_gps_m": 0.28999999165534973, "groundspeed_mps": 0.006963653024286032}, "flight": {"mode": "LOITER", "armed": false}, "ekf": {"attitude": {"roll": 0.023261411115527153, "pitch": 0.002300386782735586, "yaw": -0.5145291090011597}, "local_position": {"x": null, "y": null, "z": null}, "status": {"flags": 135, "velocity_variance": 0.0, "pos_horiz_variance": 0.0018948777578771114, "pos_vert_variance": 0.0686149150133133}}, "errors": ["PreArm: Hardware safety switch", "PreArm: Battery 1 low voltage failsafe"]}
{"timestamp": "2026-01-15T14:08:42.497434Z", "telemetry": {"lat": 28.7530059, "lon": 77.1179622, "satellites": 0, "altitude_gps_m": 0.28999999165534973, "groundspeed_mps": 0.007074421737343073}, "flight": {"mode": "STABILIZE", "armed": false}, "ekf": {"attitude": {"roll": 0.02319774217903614, "pitch": 0.0023131563793867826, "yaw": -0.5144875049591064}, "local_position": {"x": null, "y": null, "z": null}, "status": {"flags": 135, "velocity_variance": 0.0, "pos_horiz_variance": 0.0014713862910866737, "pos_vert_variance": 0.009592268615961075}}, "errors": ["PreArm: Hardware safety switch", "PreArm: Battery 1 low voltage failsafe"]}
{"timestamp": "2026-01-15T14:08:43.497274Z", "telemetry": {"lat": 28.7530059, "lon": 77.1179622, "satellites": 0, "altitude_gps_m": 0.28999999165534973, "groundspeed_mps": 0.0076849800534546375}, "flight": {"mode": "STABILIZE", "armed": false}, "ekf": {"attitude": {"roll": 0.023099012672901154, "pitch": 0.0022769379429519176, "yaw": -0.5143120288848877}, "local_position": {"x": null, "y": null, "z": null}, "status": {"flags": 135, "velocity_variance": 0.0, "pos_horiz_variance": 0.0016520702047273517, "pos_vert_variance": 0.025238290429115295}}, "errors": ["PreArm: Hardware safety switch", "PreArm: Battery 1 low voltage failsafe"]}
{"timestamp": "2026-01-15T14:08:44.501548Z", "telemetry": {"lat": 28.7530059, "lon": 77.1179622, "satellites": 0, "altitude_gps_m": 0.28999999165534973, "groundspeed_mps": 0.004010540898889303}, "flight": {"mode": "STABILIZE", "armed": false}, "ekf": {"attitude": {"roll": 0.023135393857955933, "pitch": 0.002432433655485511, "yaw": -0.5142205953598022}, "local_position": {"x": null, "y": null, "z": null}, "status": {"flags": 135, "velocity_variance": 0.0, "pos_horiz_variance": 0.0015602376079186797, "pos_vert_variance": 0.07044260948896408}}, "errors": ["PreArm: Hardware safety switch", "PreArm: Battery 1 low voltage failsafe"]}
{"timestamp": "2026-01-15T14:08:45.501538Z", "telemetry": {"lat": 28.7530059, "lon": 77.1179622, "satellites": 0, "altitude_gps_m": 0.28999999165534973, "groundspeed_mps": 0.003263538470491767}, "flight": {"mode": "STABILIZE", "armed": false}, "ekf": {"attitude": {"roll": 0.023192282766103745, "pitch": 0.0024213572032749653, "yaw": -0.5141944885253906}, "local_position": {"x": null, "y": null, "z": null}, "status": {"flags": 135, "velocity_variance": 0.0, "pos_horiz_variance": 0.0009153569117188454, "pos_vert_variance": 0.0025242383126169443}}, "errors": ["PreArm: Hardware safety switch", "PreArm: Battery 1 low voltage failsafe"]}
{"timestamp": "2026-01-15T14:08:46.475702Z", "telemetry": {"lat": 28.7530059, "lon": 77.1179622, "satellites": 0, "altitude_gps_m": 0.28999999165534973, "groundspeed_mps": 0.003633911954239011}, "flight": {"mode": "STABILIZE", "armed": false}, "ekf": {"attitude": {"roll": 0.02311123162508011, "pitch": 0.002394737210124731, "yaw": -0.5141748189926147}, "local_position": {"x": null, "y": null, "z": null}, "status": {"flags": 135, "velocity_variance": 0.0, "pos_horiz_variance": 0.0008491643238812685, "pos_vert_variance": 0.031910818070173264}}, "errors": ["PreArm: Hardware safety switch", "PreArm: Battery 1 low voltage failsafe"]}
{"timestamp": "2026-01-15T14:08:47.474281Z", "telemetry": {"lat": 28.7530059, "lon": 77.1179622, "satellites": 0, "altitude_gps_m": 0.28999999165534973, "groundspeed_mps": 0.002759443363174796}, "flight": {"mode": "STABILIZE", "armed": false}, "ekf": {"attitude": {"roll": 0.023035582154989243, "pitch": 0.0025228443555533886, "yaw": -0.5143976807594299}, "local_position": {"x": null, "y": null, "z": null}, "status": {"flags": 135, "velocity_variance": 0.0, "pos_horiz_variance": 0.0008381095249205828, "pos_vert_variance": 0.01967938244342804}}, "errors": ["PreArm: Hardware safety switch", "PreArm: Battery 1 low voltage failsafe"]}
{"timestamp": "2026-01-15T14:08:48.480242Z", "telemetry": {"lat": 28.7530059, "lon": 77.1179622, "satellites": 0, "altitude_gps_m": 0.28999999165534973, "groundspeed_mps": 0.0017130287596955895}, "flight": {"mode": "STABILIZE", "armed": false}, "ekf": {"attitude": {"roll": 0.022994238883256912, "pitch": 0.002350865164771676, "yaw": -0.5142760872840881}, "local_position": {"x": null, "y": null, "z": null}, "status": {"flags": 135, "velocity_variance": 0.0, "pos_horiz_variance": 0.0004397863813210279, "pos_vert_variance": 0.09144233912229538}}, "errors": ["PreArm: Hardware safety switch", "PreArm: Battery 1 low voltage failsafe"]}
{"timestamp": "2026-01-15T14:08:49.505166Z", "telemetry": {"lat": 28.7530059, "lon": 77.1179622, "satellites": 0, "altitude_gps_m": 0.28999999165534973, "groundspeed_mps": 0.001079192035831511}, "flight": {"mode": "STABILIZE", "armed": false}, "ekf": {"attitude": {"roll": 0.022949092090129852, "pitch": 0.002206444274634123, "yaw": -0.5140759944915771}, "local_position": {"x": null, "y": null, "z": null}, "status": {"flags": 135, "velocity_variance": 0.0, "pos_horiz_variance": 0.0003466754569672048, "pos_vert_variance": 0.040878333151340485}}, "errors": ["PreArm: Hardware safety switch", "PreArm: Battery 1 low voltage failsafe"]}
{"timestamp": "2026-01-15T14:08:50.479667Z", "telemetry": {"lat": 28.7530059, "lon": 77.1179622, "satellites": 0, "altitude_gps_m": 0.28999999165534973, "groundspeed_mps": 0.0028031959664076567}, "flight": {"mode": "STABILIZE", "armed": false}, "ekf": {"attitude": {"roll": 0.022968195378780365, "pitch": 0.0022252975031733513, "yaw": -0.514141321182251}, "local_position": {"x": null, "y": null, "z": null}, "status": {"flags": 135, "velocity_variance": 0.0, "pos_horiz_variance": 7.0630326263199095e-06, "pos_vert_variance": 0.033284686505794525}}, "errors": ["PreArm: Hardware safety switch", "PreArm: Battery 1 low voltage failsafe"]}
{"timestamp": "2026-01-15T14:08:51.478626Z", "telemetry": {"lat": 28.7530059, "lon": 77.1179622, "satellites": 0, "altitude_gps_m": 0.28999999165534973, "groundspeed_mps": 0.0013774129329249263}, "flight": {"mode": "STABILIZE", "armed": false}, "ekf": {"attitude": {"roll": 0.02316156215965748, "pitch": 0.002175298286601901, "yaw": -0.5142448544502258}, "local_position": {"x": null, "y": null, "z": null}, "status": {"flags": 135, "velocity_variance": 0.0, "pos_horiz_variance": 0.00044473452726379037, "pos_vert_variance": 0.060061097145080566}}, "errors": ["PreArm: Hardware safety switch", "PreArm: Battery 1 low voltage failsafe"]}
{"timestamp": "2026-01-15T14:08:52.479746Z", "telemetry": {"lat": 28.7530059, "lon": 77.1179622, "satellites": 0, "altitude_gps_m": 0.28999999165534973, "groundspeed_mps": 0.001994667574763298}, "flight": {"mode": "STABILIZE", "armed": false}, "ekf": {"attitude": {"roll": 0.023101620376110077, "pitch": 0.002019805833697319, "yaw": -0.5141410827636719}, "local_position": {"x": null, "y": null, "z": null}, "status": {"flags": 135, "velocity_variance": 0.0, "pos_horiz_variance": 0.0002238219603896141, "pos_vert_variance": 0.13446609675884247}}, "errors": ["PreArm: Hardware safety switch", "PreArm: Battery 1 low voltage failsafe"]}
{"timestamp": "2026-01-15T14:08:53.482556Z", "telemetry": {"lat": 28.7530059, "lon": 77.1179622, "satellites": 0, "altitude_gps_m": 0.28999999165534973, "groundspeed_mps": 0.0034927797969430685}, "flight": {"mode": "STABILIZE", "armed": false}, "ekf": {"attitude": {"roll": 0.02306598424911499, "pitch": 0.00205031200312078, "yaw": -0.5140437483787537}, "local_position": {"x": null, "y": null, "z": null}, "status": {"flags": 135, "velocity_variance": 0.0, "pos_horiz_variance": 0.00047102587996050715, "pos_vert_variance": 0.017962291836738586}}, "errors": ["PreArm: Hardware safety switch", "PreArm: Battery 1 low voltage failsafe"]}
{"timestamp": "2026-01-15T14:08:54.508949Z", "telemetry": {"lat": 28.7530059, "lon": 77.1179622, "satellites": 0, "altitude_gps_m": 0.28999999165534973, "groundspeed_mps": 0.005464974790811539}, "flight": {"mode": "STABILIZE", "armed": false}, "ekf": {"attitude": {"roll": 0.023142371326684952, "pitch": 0.001985982758924365, "yaw": -0.5139644145965576}, "local_position": {"x": null, "y": null, "z": null}, "status": {"flags": 135, "velocity_variance": 0.0, "pos_horiz_variance": 0.0010439528850838542, "pos_vert_variance": 0.004281818866729736}}, "errors": ["PreArm: Hardware safety switch", "PreArm: Battery 1 low voltage failsafe"]}
{"timestamp": "2026-01-15T14:08:55.481163Z", "telemetry": {"lat": 28.7530059, "lon": 77.1179622, "satellites": 0, "altitude_gps_m": 0.28999999165534973, "groundspeed_mps": 0.006460966542363167}, "flight": {"mode": "STABILIZE", "armed": false}, "ekf": {"attitude": {"roll": 0.023184308782219887, "pitch": 0.001954879844561219, "yaw": -0.5140535235404968}, "local_position": {"x": null, "y": null, "z": null}, "status": {"flags": 135, "velocity_variance": 0.0, "pos_horiz_variance": 0.001091487007215619, "pos_vert_variance": 0.029526742175221443}}, "errors": ["PreArm: Hardware safety switch", "PreArm: Battery 1 low voltage failsafe"]}
{"timestamp": "2026-01-15T14:08:56.483439Z", "telemetry": {"lat": 28.7530059, "lon": 77.1179622, "satellites": 0, "altitude_gps_m": 0.28999999165534973, "groundspeed_mps": 0.005681334994733334}, "flight": {"mode": "STABILIZE", "armed": false}, "ekf": {"attitude": {"roll": 0.02330409176647663, "pitch": 0.0019497701432555914, "yaw": -0.5139516592025757}, "local_position": {"x": null, "y": null, "z": null}, "status": {"flags": 135, "velocity_variance": 0.0, "pos_horiz_variance": 0.00133921904489398, "pos_vert_variance": 0.047529179602861404}}, "errors": ["PreArm: Hardware safety switch", "PreArm: Battery 1 low voltage failsafe"]}
{"timestamp": "2026-01-15T14:08:57.491181Z", "telemetry": {"lat": 28.7530059, "lon": 77.1179622, "satellites": 0, "altitude_gps_m": 0.28999999165534973, "groundspeed_mps": 0.003970833960920572}, "flight": {"mode": "STABILIZE", "armed": false}, "ekf": {"attitude": {"roll": 0.023241374641656876, "pitch": 0.0019000046886503696, "yaw": -0.5140151381492615}, "local_position": {"x": null, "y": null, "z": null}, "status": {"flags": 135, "velocity_variance": 0.0, "pos_horiz_variance": 0.0011014967458322644, "pos_vert_variance": 0.04061026871204376}}, "errors": ["PreArm: Hardware safety switch", "PreArm: Battery 1 low voltage failsafe"]}
{"timestamp": "2026-01-15T14:08:58.490412Z", "telemetry": {"lat": 28.7530059, "lon": 77.1179622, "satellites": 0, "altitude_gps_m": 0.28999999165534973, "groundspeed_mps": 0.005295280832797289}, "flight": {"mode": "STABILIZE", "armed": false}, "ekf": {"attitude": {"roll": 0.02314930222928524, "pitch": 0.0017699056770652533, "yaw": -0.5140948295593262}, "local_position": {"x": null, "y": null, "z": null}, "status": {"flags": 135, "velocity_variance": 0.0, "pos_horiz_variance": 0.0011147685581818223, "pos_vert_variance": 0.015044907107949257}}, "errors": ["PreArm: Hardware safety switch", "PreArm: Battery 1 low voltage failsafe"]}
{"timestamp": "2026-01-15T14:08:59.513626Z", "telemetry": {"lat": 28.7530059, "lon": 77.1179622, "satellites": 0, "altitude_gps_m": 0.28999999165534973, "groundspeed_mps": 0.0064019872806966305}, "flight": {"mode": "STABILIZE", "armed": false}, "ekf": {"attitude": {"roll": 0.02307366020977497, "pitch": 0.001551551977172494, "yaw": -0.5141600966453552}, "local_position": {"x": null, "y": null, "z": null}, "status": {"flags": 135, "velocity_variance": 0.0, "pos_horiz_variance": 0.0013122669188305736, "pos_vert_variance": 0.0631011575460434}}, "errors": ["PreArm: Hardware safety switch", "PreArm: Battery 1 low voltage failsafe"]}
