{"timestamp": "2026-01-15T13:50:09.781976Z", "telemetry": {"lat": 28.7530059, "lon": 77.1179622, "satellites": 0, "altitude_gps_m": 0.28999999165534973, "groundspeed_mps": 0.035318709909915924}, "flight": {"mode": "STABILIZE", "armed": false}, "ekf": {"attitude": {"roll": 0.02039916068315506, "pitch": -0.0012092767283320427, "yaw": -0.5622523427009583}, "local_position": {"x": null, "y": null, "z": null}, "status": {"flags": 135, "velocity_variance": 0.0, "pos_horiz_variance": 0.008945108391344547, "pos_vert_variance": 0.004721237346529961}}, "errors": []}
{"timestamp": "2026-01-15T13:50:10.855420Z", "telemetry": {"lat": 28.7530059, "lon": 77.1179622, "satellites": 0, "altitude_gps_m": 0.28999999165534973, "groundspeed_mps": 0.032128650695085526}, "flight": {"mode": "STABILIZE", "armed": false}, "ekf": {"attitude": {"roll": 0.020487874746322632, "pitch": -0.0011122971773147583, "yaw": -0.5622149705886841}, "local_position": {"x": null, "y": null, "z": null}, "status": {"flags": 135, "velocity_variance": 0.0, "pos_horiz_variance": 0.008624597452580929, "pos_vert_variance": 0.0011329281842336059}}, "errors": []}
{"timestamp": "2026-01-15T13:50:11.914162Z", "telemetry": {"lat": 28.7530059, "lon": 77.1179622, "satellites": 0, "altitude_gps_m": 0.28999999165534973, "groundspeed_mps": 0.02933528460562229}, "flight": {"mode": "STABILIZE", "armed": false}, "ekf": {"attitude": {"roll": 0.020581578835844994, "pitch": -0.0010284078307449818, "yaw": -0.562189519405365}, "local_position": {"x": null, "y": null, "z": null}, "status": {"flags": 135, "velocity_variance": 0.0, "pos_horiz_variance": 0.008096987381577492, "pos_vert_variance": 0.05173000320792198}}, "errors": []}
{"timestamp": "2026-01-15T13:50:12.982290Z", "telemetry": {"lat": 28.7530059, "lon": 77.1179622, "satellites": 0, "altitude_gps_m": 0.28999999165534973, "groundspeed_mps": 0.02568001300096512}, "flight": {"mode": "STABILIZE", "armed": false}, "ekf": {"attitude": {"roll": 0.020605772733688354, "pitch": -0.0009807744063436985, "yaw": -0.5620253682136536}, "local_position": {"x": null, "y": null, "z": null}, "status": {"flags": 135, "velocity_variance": 0.0, "pos_horiz_variance": 0.00711418129503727, "pos_vert_variance": 0.050576843321323395}}, "errors": []}
{"timestamp": "2026-01-15T13:50:13.985284Z", "telemetry": {"lat": 28.7530059, "lon": 77.1179622, "satellites": 0, "altitude_gps_m": 0.28999999165534973, "groundspeed_mps": 0.025015106424689293}, "flight": {"mode": "STABILIZE", "armed": false}, "ekf": {"attitude": {"roll": 0.020629407837986946, "pitch": -0.001108724158257246, "yaw": -0.561855673789978}, "local_position": {"x": null, "y": null, "z": null}, "status": {"flags": 135, "velocity_variance": 0.0, "pos_horiz_variance": 0.0066304197534918785, "pos_vert_variance": 0.021658489480614662}}, "errors": []}
{"timestamp": "2026-01-15T13:50:14.991241Z", "telemetry": {"lat": 28.7530059, "lon": 77.1179622, "satellites": 0, "altitude_gps_m": 0.28999999165534973, "groundspeed_mps": 0.028453107923269272}, "flight": {"mode": "STABILIZE", "armed": false}, "ekf": {"attitude": {"roll": 0.0207096878439188, "pitch": -0.0010385354980826378, "yaw": -0.5619345307350159}, "local_position": {"x": null, "y": null, "z": null}, "status": {"flags": 135, "velocity_variance": 0.0, "pos_horiz_variance": 0.006641355808824301, "pos_vert_variance": 0.046204645186662674}}, "errors": []}
{"timestamp": "2026-01-15T13:50:15.993312Z", "telemetry": {"lat": 28.7530059, "lon": 77.1179622, "satellites": 0, "altitude_gps_m": 0.28999999165534973, "groundspeed_mps": 0.028494663536548615}, "flight": {"mode": "STABILIZE", "armed": false}, "ekf": {"attitude": {"roll": 0.020802214741706848, "pitch": -0.001154028344899416, "yaw": -0.5618353486061096}, "local_position": {"x": null, "y": null, "z": null}, "status": {"flags": 135, "velocity_variance": 0.0, "pos_horiz_variance": 0.006899302359670401, "pos_vert_variance": 0.05935822054743767}}, "errors": []}
{"timestamp": "2026-01-15T13:50:16.994865Z", "telemetry": {"lat": 28.7530059, "lon": 77.1179622, "satellites": 0, "altitude_gps_m": 0.28999999165534973, "groundspeed_mps": 0.027819545939564705}, "flight": {"mode": "STABILIZE", "armed": false}, "ekf": {"attitude": {"roll": 0.020952537655830383, "pitch": -0.0011664694175124168, "yaw": -0.5615565776824951}, "local_position": {"x": null, "y": null, "z": null}, "status": {"flags": 135, "velocity_variance": 0.0, "pos_horiz_variance": 0.006908326875418425, "pos_vert_variance": 0.013762426562607288}}, "errors": []}
{"timestamp": "2026-01-15T13:50:17.994638Z", "telemetry": {"lat": 28.7530059, "lon": 77.1179622, "satellites": 0, "altitude_gps_m": 0.28999999165534973, "groundspeed_mps": 0.02664787322282791}, "flight": {"mode": "STABILIZE", "armed": false}, "ekf": {"attitude": {"roll": 0.021006977185606956, "pitch": -0.0011591366492211819, "yaw": -0.5613788366317749}, "local_position": {"x": null, "y": null, "z": null}, "status": {"flags": 135, "velocity_variance": 0.0, "pos_horiz_variance": 0.006882053799927235, "pos_vert_variance": 0.08426427841186523}}, "errors": []}
{"timestamp": "2026-01-15T13:50:18.996328Z", "telemetry": {"lat": 28.7530059, "lon": 77.1179622, "satellites": 0, "altitude_gps_m": 0.28999999165534973, "groundspeed_mps": 0.02897549979388714}, "flight": {"mode": "STABILIZE", "armed": false}, "ekf": {"attitude": {"roll": 0.02092774212360382, "pitch": -0.0012860712595283985, "yaw": -0.5612215995788574}, "local_position": {"x": null, "y": null, "z": null}, "status": {"flags": 135, "velocity_variance": 0.0, "pos_horiz_variance": 0.006719109136611223, "pos_vert_variance": 0.03597024828195572}}, "errors": []}
{"timestamp": "2026-01-15T13:50:19.996120Z", "telemetry": {"lat": 28.7530059, "lon": 77.1179622, "satellites": 0, "altitude_gps_m": 0.28999999165534973, "groundspeed_mps": 0.031860895454883575}, "flight": {"mode": "STABILIZE", "armed": false}, "ekf": {"attitude": {"roll": 0.020965030416846275, "pitch": -0.0012778183445334435, "yaw": -0.561058759689331}, "local_position": {"x": null, "y": null, "z": null}, "status": {"flags": 135, "velocity_variance": 0.0, "pos_horiz_variance": 0.007104805205017328, "pos_vert_variance": 0.09841302782297134}}, "errors": []}
{"timestamp": "2026-01-15T13:50:20.993960Z", "telemetry": {"lat": 28.7530059, "lon": 77.1179622, "satellites": 0, "altitude_gps_m": 0.28999999165534973, "groundspeed_mps": 0.033642079681158066}, "flight": {"mode": "STABILIZE", "armed": false}, "ekf": {"attitude": {"roll": 0.020901786163449287, "pitch": -0.0012997547164559364, "yaw": -0.5609552264213562}, "local_position": {"x": null, "y": null, "z": null}, "status": {"flags": 135, "velocity_variance": 0.0, "pos_horiz_variance": 0.007666390389204025, "pos_vert_variance": 0.014124837704002857}}, "errors": []}
{"timestamp": "2026-01-15T13:50:21.993791Z", "telemetry": {"lat": 28.7530059, "lon": 77.1179622, "satellites": 0, "altitude_gps_m": 0.28999999165534973, "groundspeed_mps": 0.03141719102859497}, "flight": {"mode": "STABILIZE", "armed": false}, "ekf": {"attitude": {"roll": 0.020803596824407578, "pitch": -0.001297422219067812, "yaw": -0.5607839226722717}, "local_position": {"x": null, "y": null, "z": null}, "status": {"flags": 135, "velocity_variance": 0.0, "pos_horiz_variance": 0.007862540893256664, "pos_vert_variance": 0.12938770651817322}}, "errors": []}
{"timestamp": "2026-01-15T13:50:22.996003Z", "telemetry": {"lat": 28.7530059, "lon": 77.1179622, "satellites": 0, "altitude_gps_m": 0.28999999165534973, "groundspeed_mps": 0.02955033630132675}, "flight": {"mode": "STABILIZE", "armed": false}, "ekf": {"attitude": {"roll": 0.02087072841823101, "pitch": -0.0013026157394051552, "yaw": -0.5606516003608704}, "local_position": {"x": null, "y": null, "z": null}, "status": {"flags": 135, "velocity_variance": 0.0, "pos_horiz_variance": 0.007652242202311754, "pos_vert_variance": 0.06747222691774368}}, "errors": []}
{"timestamp": "2026-01-15T13:50:23.994725Z", "telemetry": {"lat": 28.7530059, "lon": 77.1179622, "satellites": 0, "altitude_gps_m": 0.28999999165534973, "groundspeed_mps": 0.029555771499872208}, "flight": {"mode": "STABILIZE", "armed": false}, "ekf": {"attitude": {"roll": 0.020738424733281136, "pitch": -0.0012520523741841316, "yaw": -0.5605751276016235}, "local_position": {"x": null, "y": null, "z": null}, "status": {"flags": 135, "velocity_variance": 0.0, "pos_horiz_variance": 0.007549608126282692, "pos_vert_variance": 0.008890951052308083}}, "errors": []}
{"timestamp": "2026-01-15T13:50:24.993034Z", "telemetry": {"lat": 28.7530059, "lon": 77.1179622, "satellites": 0, "altitude_gps_m": 0.28999999165534973, "groundspeed_mps": 0.028386352583765984}, "flight": {"mode": "STABILIZE", "armed": false}, "ekf": {"attitude": {"roll": 0.02069847844541073, "pitch": -0.001260107383131981, "yaw": -0.5604172945022583}, "local_position": {"x": null, "y": null, "z": null}, "status": {"flags": 135, "velocity_variance": 0.0, "pos_horiz_variance": 0.007304140366613865, "pos_vert_variance": 0.11303844302892685}}, "errors": []}
{"timestamp": "2026-01-15T13:50:25.992784Z", "telemetry": {"lat": 28.7530059, "lon": 77.1179622, "satellites": 0, "altitude_gps_m": 0.28999999165534973, "groundspeed_mps": 0.02928583323955536}, "flight": {"mode": "STABILIZE", "armed": false}, "ekf": {"attitude": {"roll": 0.02075454406440258, "pitch": -0.0011636107228696346, "yaw": -0.5605400204658508}, "local_position": {"x": null, "y": null, "z": null}, "status": {"flags": 135, "velocity_variance": 0.0, "pos_horiz_variance": 0.007287028711289167, "pos_vert_variance": 0.03800523653626442}}, "errors": []}
{"timestamp": "2026-01-15T13:50:27.008631Z", "telemetry": {"lat": 28.7530059, "lon": 77.1179622, "satellites": 0, "altitude_gps_m": 0.28999999165534973, "groundspeed_mps": 0.027964716777205467}, "flight": {"mode": "STABILIZE", "armed": false}, "ekf": {"attitude": {"roll": 0.020892586559057236, "pitch": -0.001197767909616232, "yaw": -0.5603665113449097}, "local_position": {"x": null, "y": null, "z": null}, "status": {"flags": 135, "velocity_variance": 0.0, "pos_horiz_variance": 0.007087657693773508, "pos_vert_variance": 0.09411648660898209}}, "errors": []}
{"timestamp": "2026-01-15T13:50:27.970001Z", "telemetry": {"lat": 28.7530059, "lon": 77.1179622, "satellites": 0, "altitude_gps_m": 0.28999999165534973, "groundspeed_mps": 0.027053190395236015}, "flight": {"mode": "STABILIZE", "armed": false}, "ekf": {"attitude": {"roll": 0.02086940035223961, "pitch": -0.0013323440216481686, "yaw": -0.5603383183479309}, "local_position": {"x": null, "y": null, "z": null}, "status": {"flags": 135, "velocity_variance": 0.0, "pos_horiz_variance": 0.0068352557718753815, "pos_vert_variance": 0.02145036682486534}}, "errors": []}
{"timestamp": "2026-01-15T13:50:28.969573Z", "telemetry": {"lat": 28.7530059, "lon": 77.1179622, "satellites": 0, "altitude_gps_m": 0.28999999165534973, "groundspeed_mps": 0.028833582997322083}, "flight": {"mode": "STABILIZE", "armed": false}, "ekf": {"attitude": {"roll": 0.020932065322995186, "pitch": -0.0012969467788934708, "yaw": -0.560215175151825}, "local_position": {"x": null, "y": null, "z": null}, "status": {"flags": 135, "velocity_variance": 0.0, "pos_horiz_variance": 0.006877803709357977, "pos_vert_variance": 0.011713665910065174}}, "errors": []}
{"timestamp": "2026-01-15T13:50:29.997253Z", "telemetry": {"lat": 28.7530059, "lon": 77.1179622, "satellites": 0, "altitude_gps_m": 0.28999999165534973, "groundspeed_mps": 0.03264142945408821}, "flight": {"mode": "STABILIZE", "armed": false}, "ekf": {"attitude": {"roll": 0.020905442535877228, "pitch": -0.0013515311293303967, "yaw": -0.5601113438606262}, "local_position": {"x": null, "y": null, "z": null}, "status": {"flags": 135, "velocity_variance": 0.0, "pos_horiz_variance": 0.007097530644387007, "pos_vert_variance": 0.03704855218529701}}, "errors": []}
{"timestamp": "2026-01-15T13:50:31.000678Z", "telemetry": {"lat": 28.7530059, "lon": 77.1179622, "satellites": 0, "altitude_gps_m": 0.28999999165534973, "groundspeed_mps": 0.03364526852965355}, "flight": {"mode": "STABILIZE", "armed": false}, "ekf": {"attitude": {"roll": 0.02088596113026142, "pitch": -0.0014248122461140156, "yaw": -0.5600928068161011}, "local_position": {"x": null, "y": null, "z": null}, "status": {"flags": 135, "velocity_variance": 0.0, "pos_horiz_variance": 0.007772032171487808, "pos_vert_variance": 0.08332309126853943}}, "errors": []}
{"timestamp": "2026-01-15T13:50:32.000863Z", "telemetry": {"lat": 28.7530059, "lon": 77.1179622, "satellites": 0, "altitude_gps_m": 0.28999999165534973, "groundspeed_mps": 0.03438994660973549}, "flight": {"mode": "STABILIZE", "armed": false}, "ekf": {"attitude": {"roll": 0.020908335223793983, "pitch": -0.0013329312205314636, "yaw": -0.5599918365478516}, "local_position": {"x": null, "y": null, "z": null}, "status": {"flags": 135, "velocity_variance": 0.0, "pos_horiz_variance": 0.00811300240457058, "pos_vert_variance": 0.023255884647369385}}, "errors": []}
{"timestamp": "2026-01-15T13:50:33.000923Z", "telemetry": {"lat": 28.7530059, "lon": 77.1179622, "satellites": 0, "altitude_gps_m": 0.28999999165534973, "groundspeed_mps": 0.032466717064380646}, "flight": {"mode": "STABILIZE", "armed": false}, "ekf": {"attitude": {"roll": 0.020963450893759727, "pitch": -0.0012544435448944569, "yaw": -0.559927225112915}, "local_position": {"x": null, "y": null, "z": null}, "status": {"flags": 135, "velocity_variance": 0.0, "pos_horiz_variance": 0.008085248060524464, "pos_vert_variance": 0.055640559643507004}}, "errors": []}
{"timestamp": "2026-01-15T13:50:34.001108Z", "telemetry": {"lat": 28.7530059, "lon": 77.1179622, "satellites": 0, "altitude_gps_m": 0.28999999165534973, "groundspeed_mps": 0.031388092786073685}, "flight": {"mode": "STABILIZE", "armed": false}, "ekf": {"attitude": {"roll": 0.020992254838347435, "pitch": -0.0011326181702315807, "yaw": -0.5596680641174316}, "local_position": {"x": null, "y": null, "z": null}, "status": {"flags": 135, "velocity_variance": 0.0, "pos_horiz_variance": 0.007905836217105389, "pos_vert_variance": 0.02015092223882675}}, "errors": ["PreArm: Hardware safety switch"]}
{"timestamp": "2026-01-15T13:50:35.004296Z", "telemetry": {"lat": 28.7530059, "lon": 77.1179622, "satellites": 0, "altitude_gps_m": 0.28999999165534973, "groundspeed_mps": 0.030113810673356056}, "flight": {"mode": "STABILIZE", "armed": false}, "ekf": {"attitude": {"roll": 0.021132223308086395, "pitch": -0.0010097869671881199, "yaw": -0.559486448764801}, "local_position": {"x": null, "y": null, "z": null}, "status": {"flags": 135, "velocity_variance": 0.0, "pos_horiz_variance": 0.007629643194377422, "pos_vert_variance": 0.0007540632504969835}}, "errors": ["PreArm: Hardware safety switch"]}
{"timestamp": "2026-01-15T13:50:35.977677Z", "telemetry": {"lat": 28.7530059, "lon": 77.1179622, "satellites": 0, "altitude_gps_m": 0.28999999165534973, "groundspeed_mps": 0.026219449937343597}, "flight": {"mode": "STABILIZE", "armed": false}, "ekf": {"attitude": {"roll": 0.02118823304772377, "pitch": -0.0009074294939637184, "yaw": -0.5593910813331604}, "local_position": {"x": null, "y": null, "z": null}, "status": {"flags": 135, "velocity_variance": 0.0, "pos_horiz_variance": 0.007157576736062765, "pos_vert_variance": 0.0570945180952549}}, "errors": ["PreArm: Hardware safety switch"]}
