{"timestamp": "2026-01-15T12:29:43.921764Z", "telemetry": {"lat": 28.7531224, "lon": 77.1179067, "satellites": 10, "altitude_gps_m": 202.97999572753906, "groundspeed_mps": 0.1823732852935791}, "flight": {"mode": "STABILIZE", "armed": false}, "ekf": {"attitude": {"roll": 0.054914332926273346, "pitch": -0.009551096707582474, "yaw": -2.098982334136963}, "local_position": {"x": 3.3646762371063232, "y": 1.1476190090179443, "z": 9.342432022094727}, "status": {"flags": 33599, "velocity_variance": 0.09171398729085922, "pos_horiz_variance": 0.03295702859759331, "pos_vert_variance": 0.020042261108756065}}, "errors": []}
{"timestamp": "2026-01-15T12:29:44.968616Z", "telemetry": {"lat": 28.7531228, "lon": 77.1179077, "satellites": 10, "altitude_gps_m": 203.00999450683594, "groundspeed_mps": 0.20174437761306763}, "flight": {"mode": "STABILIZE", "armed": false}, "ekf": {"attitude": {"roll": 0.0549851655960083, "pitch": -0.009489482268691063, "yaw": -2.098205089569092}, "local_position": {"x": 3.424487352371216, "y": 1.5077067613601685, "z": 9.317605972290039}, "status": {"flags": 33599, "velocity_variance": 0.19710996747016907, "pos_horiz_variance": 0.025687960907816887, "pos_vert_variance": 0.007725563831627369}}, "errors": []}
{"timestamp": "2026-01-15T12:29:45.992041Z", "telemetry": {"lat": 28.7531242, "lon": 77.1179089, "satellites": 10, "altitude_gps_m": 203.11000061035156, "groundspeed_mps": 0.1323818564414978}, "flight": {"mode": "STABILIZE", "armed": false}, "ekf": {"attitude": {"roll": 0.05622150003910065, "pitch": -0.010131269693374634, "yaw": -2.0966944694519043}, "local_position": {"x": 3.618596315383911, "y": 1.7880427837371826, "z": 9.208739280700684}, "status": {"flags": 33599, "velocity_variance": 0.06206408888101578, "pos_horiz_variance": 0.020136499777436256, "pos_vert_variance": 0.017865439876914024}}, "errors": []}
{"timestamp": "2026-01-15T12:29:46.993074Z", "telemetry": {"lat": 28.7531242, "lon": 77.1179151, "satellites": 10, "altitude_gps_m": 203.09999084472656, "groundspeed_mps": 0.15042626857757568}, "flight": {"mode": "STABILIZE", "armed": false}, "ekf": {"attitude": {"roll": 0.05600770190358162, "pitch": -0.009850174188613892, "yaw": -2.09590482711792}, "local_position": {"x": 3.7025694847106934, "y": 2.1090054512023926, "z": 9.230340957641602}, "status": {"flags": 33599, "velocity_variance": 0.17273381352424622, "pos_horiz_variance": 0.02713242918252945, "pos_vert_variance": 0.007367165759205818}}, "errors": ["PreArm: Hardware safety switch"]}
{"timestamp": "2026-01-15T12:29:48.049857Z", "telemetry": {"lat": 28.7531244, "lon": 77.1179199, "satellites": 10, "altitude_gps_m": 203.08999633789062, "groundspeed_mps": 0.17282404005527496}, "flight": {"mode": "STABILIZE", "armed": false}, "ekf": {"attitude": {"roll": 0.05603411793708801, "pitch": -0.009754309430718422, "yaw": -2.094949722290039}, "local_position": {"x": 3.7995715141296387, "y": 2.508885145187378, "z": 9.239402770996094}, "status": {"flags": 33599, "velocity_variance": 0.246752068400383, "pos_horiz_variance": 0.029782714322209358, "pos_vert_variance": 0.07236145436763763}}, "errors": ["PreArm: Hardware safety switch"]}
{"timestamp": "2026-01-15T12:29:48.994468Z", "telemetry": {"lat": 28.7531238, "lon": 77.1179239, "satellites": 10, "altitude_gps_m": 203.0699920654297, "groundspeed_mps": 0.23585928976535797}, "flight": {"mode": "STABILIZE", "armed": false}, "ekf": {"attitude": {"roll": 0.05508683621883392, "pitch": -0.009286550804972649, "yaw": -2.094132661819458}, "local_position": {"x": 3.76100492477417, "y": 3.0051777362823486, "z": 9.254762649536133}, "status": {"flags": 33599, "velocity_variance": 0.19506725668907166, "pos_horiz_variance": 0.026199031621217728, "pos_vert_variance": 0.039913058280944824}}, "errors": ["PreArm: Hardware safety switch"]}
{"timestamp": "2026-01-15T12:29:49.997704Z", "telemetry": {"lat": 28.7531246, "lon": 77.1179242, "satellites": 10, "altitude_gps_m": 203.12998962402344, "groundspeed_mps": 0.1516626924276352}, "flight": {"mode": "STABILIZE", "armed": false}, "ekf": {"attitude": {"roll": 0.0561407208442688, "pitch": -0.010697955265641212, "yaw": -2.092869758605957}, "local_position": {"x": 3.8567793369293213, "y": 3.1947059631347656, "z": 9.200554847717285}, "status": {"flags": 33599, "velocity_variance": 0.04839414730668068, "pos_horiz_variance": 0.021465489640831947, "pos_vert_variance": 0.09919041395187378}}, "errors": ["PreArm: Hardware safety switch"]}
{"timestamp": "2026-01-15T12:29:50.996784Z", "telemetry": {"lat": 28.7531257, "lon": 77.117924, "satellites": 10, "altitude_gps_m": 203.1999969482422, "groundspeed_mps": 0.09724052995443344}, "flight": {"mode": "STABILIZE", "armed": false}, "ekf": {"attitude": {"roll": 0.0570291131734848, "pitch": -0.011366315186023712, "yaw": -2.092280626296997}, "local_position": {"x": 3.9533774852752686, "y": 3.318927526473999, "z": 9.119363784790039}, "status": {"flags": 33599, "velocity_variance": 0.07948987185955048, "pos_horiz_variance": 0.016529619693756104, "pos_vert_variance": 0.0017242833273485303}}, "errors": ["PreArm: Hardware safety switch"]}
{"timestamp": "2026-01-15T12:29:52.001303Z", "telemetry": {"lat": 28.7531253, "lon": 77.1179287, "satellites": 10, "altitude_gps_m": 203.22999572753906, "groundspeed_mps": 0.06163114681839943}, "flight": {"mode": "STABILIZE", "armed": false}, "ekf": {"attitude": {"roll": 0.05673600733280182, "pitch": -0.011754762381315231, "yaw": -2.09147572517395}, "local_position": {"x": 3.973247766494751, "y": 3.4952306747436523, "z": 9.096182823181152}, "status": {"flags": 33599, "velocity_variance": 0.08407581597566605, "pos_horiz_variance": 0.02406807616353035, "pos_vert_variance": 0.027014516294002533}}, "errors": ["PreArm: Hardware safety switch"]}
{"timestamp": "2026-01-15T12:29:53.002222Z", "telemetry": {"lat": 28.7531246, "lon": 77.1179357, "satellites": 10, "altitude_gps_m": 203.0800018310547, "groundspeed_mps": 0.10284575819969177}, "flight": {"mode": "STABILIZE", "armed": false}, "ekf": {"attitude": {"roll": 0.05532390624284744, "pitch": -0.011090157553553581, "yaw": -2.090578556060791}, "local_position": {"x": 3.8915929794311523, "y": 3.9450619220733643, "z": 9.250879287719727}, "status": {"flags": 33599, "velocity_variance": 0.09105778485536575, "pos_horiz_variance": 0.0315631665289402, "pos_vert_variance": 0.049680694937705994}}, "errors": ["PreArm: Hardware safety switch"]}
{"timestamp": "2026-01-15T12:29:53.990660Z", "telemetry": {"lat": 28.7531254, "lon": 77.1179347, "satellites": 10, "altitude_gps_m": 203.11000061035156, "groundspeed_mps": 0.10920660942792892}, "flight": {"mode": "STABILIZE", "armed": false}, "ekf": {"attitude": {"roll": 0.05567521974444389, "pitch": -0.011630602180957794, "yaw": -2.0900778770446777}, "local_position": {"x": 3.8401763439178467, "y": 4.274722576141357, "z": 9.218799591064453}, "status": {"flags": 33599, "velocity_variance": 0.23214799165725708, "pos_horiz_variance": 0.020306667312979698, "pos_vert_variance": 0.02856481820344925}}, "errors": ["PreArm: Hardware safety switch"]}
{"timestamp": "2026-01-15T12:29:55.001885Z", "telemetry": {"lat": 28.7531261, "lon": 77.1179329, "satellites": 10, "altitude_gps_m": 203.14999389648438, "groundspeed_mps": 0.03896668180823326}, "flight": {"mode": "STABILIZE", "armed": false}, "ekf": {"attitude": {"roll": 0.05619336664676666, "pitch": -0.012430746108293533, "yaw": -2.089353561401367}, "local_position": {"x": 3.8987255096435547, "y": 4.333144187927246, "z": 9.175617218017578}, "status": {"flags": 33599, "velocity_variance": 0.21132612228393555, "pos_horiz_variance": 0.012678677216172218, "pos_vert_variance": 0.05107111111283302}}, "errors": ["PreArm: Hardware safety switch"]}
{"timestamp": "2026-01-15T12:29:55.974036Z", "telemetry": {"lat": 28.753128, "lon": 77.1179297, "satellites": 10, "altitude_gps_m": 203.08999633789062, "groundspeed_mps": 0.115089051425457}, "flight": {"mode": "STABILIZE", "armed": false}, "ekf": {"attitude": {"roll": 0.05781194940209389, "pitch": -0.013543928042054176, "yaw": -2.088336229324341}, "local_position": {"x": 4.042382717132568, "y": 4.161899566650391, "z": 9.24650764465332}, "status": {"flags": 33599, "velocity_variance": 0.08175740391016006, "pos_horiz_variance": 0.010034596547484398, "pos_vert_variance": 0.04412037134170532}}, "errors": ["PreArm: Hardware safety switch"]}
{"timestamp": "2026-01-15T12:29:57.004652Z", "telemetry": {"lat": 28.75313, "lon": 77.1179351, "satellites": 10, "altitude_gps_m": 203.11000061035156, "groundspeed_mps": 0.14118172228336334}, "flight": {"mode": "STABILIZE", "armed": false}, "ekf": {"attitude": {"roll": 0.05822858586907387, "pitch": -0.012616410851478577, "yaw": -2.087782382965088}, "local_position": {"x": 4.297542572021484, "y": 4.185357093811035, "z": 9.211882591247559}, "status": {"flags": 33599, "velocity_variance": 0.0758512020111084, "pos_horiz_variance": 0.02105685882270336, "pos_vert_variance": 0.06274924427270889}}, "errors": ["PreArm: Hardware safety switch"]}
{"timestamp": "2026-01-15T12:29:57.996531Z", "telemetry": {"lat": 28.7531284, "lon": 77.1179363, "satellites": 10, "altitude_gps_m": 203.08999633789062, "groundspeed_mps": 0.10973984748125076}, "flight": {"mode": "STABILIZE", "armed": false}, "ekf": {"attitude": {"roll": 0.05735709145665169, "pitch": -0.01226106472313404, "yaw": -2.08707857131958}, "local_position": {"x": 4.366076946258545, "y": 4.423619747161865, "z": 9.229369163513184}, "status": {"flags": 33599, "velocity_variance": 0.153041273355484, "pos_horiz_variance": 0.017775896936655045, "pos_vert_variance": 0.0007573477341793478}}, "errors": ["PreArm: Hardware safety switch"]}
{"timestamp": "2026-01-15T12:29:58.996399Z", "telemetry": {"lat": 28.7531268, "lon": 77.1179393, "satellites": 10, "altitude_gps_m": 203.0800018310547, "groundspeed_mps": 0.0478530190885067}, "flight": {"mode": "STABILIZE", "armed": false}, "ekf": {"attitude": {"roll": 0.055692654103040695, "pitch": -0.0116212647408247, "yaw": -2.0861456394195557}, "local_position": {"x": 4.226788520812988, "y": 4.674754619598389, "z": 9.248152732849121}, "status": {"flags": 33599, "velocity_variance": 0.13047544658184052, "pos_horiz_variance": 0.01981567032635212, "pos_vert_variance": 0.014880554750561714}}, "errors": ["PreArm: Hardware safety switch"]}
{"timestamp": "2026-01-15T12:29:59.998775Z", "telemetry": {"lat": 28.7531263, "lon": 77.117938, "satellites": 10, "altitude_gps_m": 203.01998901367188, "groundspeed_mps": 0.03215504065155983}, "flight": {"mode": "STABILIZE", "armed": false}, "ekf": {"attitude": {"roll": 0.05562902241945267, "pitch": -0.011578880250453949, "yaw": -2.085599899291992}, "local_position": {"x": 4.17299747467041, "y": 4.887876510620117, "z": 9.308965682983398}, "status": {"flags": 33599, "velocity_variance": 0.06394416838884354, "pos_horiz_variance": 0.01026172935962677, "pos_vert_variance": 0.062260545790195465}}, "errors": ["PreArm: Hardware safety switch"]}
{"timestamp": "2026-01-15T12:30:00.998614Z", "telemetry": {"lat": 28.7531243, "lon": 77.1179404, "satellites": 10, "altitude_gps_m": 202.94000244140625, "groundspeed_mps": 0.0627971962094307}, "flight": {"mode": "STABILIZE", "armed": false}, "ekf": {"attitude": {"roll": 0.0551045760512352, "pitch": -0.011792173609137535, "yaw": -2.0848541259765625}, "local_position": {"x": 4.088149070739746, "y": 4.95637321472168, "z": 9.391682624816895}, "status": {"flags": 33599, "velocity_variance": 0.21808598935604095, "pos_horiz_variance": 0.015316837467253208, "pos_vert_variance": 0.020789936184883118}}, "errors": ["PreArm: Hardware safety switch"]}
{"timestamp": "2026-01-15T12:30:01.998716Z", "telemetry": {"lat": 28.7531256, "lon": 77.1179411, "satellites": 10, "altitude_gps_m": 202.8699951171875, "groundspeed_mps": 0.07636921107769012}, "flight": {"mode": "STABILIZE", "armed": false}, "ekf": {"attitude": {"roll": 0.05578553304076195, "pitch": -0.011632539331912994, "yaw": -2.084035873413086}, "local_position": {"x": 4.054972171783447, "y": 5.0278520584106445, "z": 9.450145721435547}, "status": {"flags": 33599, "velocity_variance": 0.014637526124715805, "pos_horiz_variance": 0.01492406614124775, "pos_vert_variance": 0.06683768332004547}}, "errors": ["PreArm: Hardware safety switch"]}
{"timestamp": "2026-01-15T12:30:02.998148Z", "telemetry": {"lat": 28.753125, "lon": 77.117943, "satellites": 10, "altitude_gps_m": 203.02999877929688, "groundspeed_mps": 0.0811988115310669}, "flight": {"mode": "STABILIZE", "armed": false}, "ekf": {"attitude": {"roll": 0.0558134987950325, "pitch": -0.011418649926781654, "yaw": -2.083252429962158}, "local_position": {"x": 4.028846740722656, "y": 5.116593360900879, "z": 9.299825668334961}, "status": {"flags": 33599, "velocity_variance": 0.2476852387189865, "pos_horiz_variance": 0.017955729737877846, "pos_vert_variance": 0.010990051552653313}}, "errors": ["PreArm: Hardware safety switch"]}
{"timestamp": "2026-01-15T12:30:03.998516Z", "telemetry": {"lat": 28.7531228, "lon": 77.117947, "satellites": 10, "altitude_gps_m": 203.0500030517578, "groundspeed_mps": 0.08897431194782257}, "flight": {"mode": "STABILIZE", "armed": false}, "ekf": {"attitude": {"roll": 0.05490146204829216, "pitch": -0.010940482839941978, "yaw": -2.082636833190918}, "local_position": {"x": 3.902956008911133, "y": 5.327571868896484, "z": 9.275381088256836}, "status": {"flags": 33599, "velocity_variance": 0.11236702650785446, "pos_horiz_variance": 0.022868670523166656, "pos_vert_variance": 0.005198177881538868}}, "errors": ["PreArm: Hardware safety switch"]}
{"timestamp": "2026-01-15T12:30:04.975003Z", "telemetry": {"lat": 28.753123, "lon": 77.1179474, "satellites": 10, "altitude_gps_m": 203.0800018310547, "groundspeed_mps": 0.0807574987411499}, "flight": {"mode": "STABILIZE", "armed": false}, "ekf": {"attitude": {"roll": 0.054725371301174164, "pitch": -0.010209459811449051, "yaw": -2.081723213195801}, "local_position": {"x": 3.861482858657837, "y": 5.569704532623291, "z": 9.241107940673828}, "status": {"flags": 33599, "velocity_variance": 0.21918919682502747, "pos_horiz_variance": 0.017962319776415825, "pos_vert_variance": 0.06231231242418289}}, "errors": ["PreArm: Hardware safety switch"]}
{"timestamp": "2026-01-15T12:30:05.979442Z", "telemetry": {"lat": 28.7531219, "lon": 77.117948, "satellites": 10, "altitude_gps_m": 203.08999633789062, "groundspeed_mps": 0.10374095290899277}, "flight": {"mode": "STABILIZE", "armed": false}, "ekf": {"attitude": {"roll": 0.05458876118063927, "pitch": -0.010254157707095146, "yaw": -2.0812153816223145}, "local_position": {"x": 3.7202908992767334, "y": 5.791112422943115, "z": 9.233738899230957}, "status": {"flags": 33599, "velocity_variance": 0.15712693333625793, "pos_horiz_variance": 0.012799696996808052, "pos_vert_variance": 0.05367286875844002}}, "errors": ["PreArm: Hardware safety switch"]}
{"timestamp": "2026-01-15T12:30:06.978547Z", "telemetry": {"lat": 28.7531215, "lon": 77.117948, "satellites": 10, "altitude_gps_m": 203.13999938964844, "groundspeed_mps": 0.0927642285823822}, "flight": {"mode": "STABILIZE", "armed": false}, "ekf": {"attitude": {"roll": 0.054716262966394424, "pitch": -0.009952841326594353, "yaw": -2.0804638862609863}, "local_position": {"x": 3.68084454536438, "y": 5.919445037841797, "z": 9.181297302246094}, "status": {"flags": 33599, "velocity_variance": 0.10014961659908295, "pos_horiz_variance": 0.008274294435977936, "pos_vert_variance": 0.001285356585867703}}, "errors": ["PreArm: Hardware safety switch"]}
{"timestamp": "2026-01-15T12:30:08.002722Z", "telemetry": {"lat": 28.7531204, "lon": 77.1179437, "satellites": 10, "altitude_gps_m": 203.14999389648438, "groundspeed_mps": 0.09099843353033066}, "flight": {"mode": "STABILIZE", "armed": false}, "ekf": {"attitude": {"roll": 0.055242616683244705, "pitch": -0.010838974267244339, "yaw": -2.079864978790283}, "local_position": {"x": 3.609757423400879, "y": 5.862057209014893, "z": 9.171414375305176}, "status": {"flags": 33599, "velocity_variance": 0.0740261822938919, "pos_horiz_variance": 0.0065820240415632725, "pos_vert_variance": 0.032839931547641754}}, "errors": ["PreArm: Hardware safety switch"]}
{"timestamp": "2026-01-15T12:30:09.006472Z", "telemetry": {"lat": 28.7531209, "lon": 77.1179421, "satellites": 10, "altitude_gps_m": 203.08999633789062, "groundspeed_mps": 0.1386033147573471}, "flight": {"mode": "STABILIZE", "armed": false}, "ekf": {"attitude": {"roll": 0.056188248097896576, "pitch": -0.011562541127204895, "yaw": -2.079293727874756}, "local_position": {"x": 3.5969064235687256, "y": 5.602630615234375, "z": 9.231046676635742}, "status": {"flags": 33599, "velocity_variance": 0.04109678044915199, "pos_horiz_variance": 0.0037566418759524822, "pos_vert_variance": 0.010499109514057636}}, "errors": ["PreArm: Hardware safety switch"]}
{"timestamp": "2026-01-15T12:30:10.006623Z", "telemetry": {"lat": 28.7531182, "lon": 77.1179385, "satellites": 10, "altitude_gps_m": 203.01998901367188, "groundspeed_mps": 0.21895284950733185}, "flight": {"mode": "STABILIZE", "armed": false}, "ekf": {"attitude": {"roll": 0.05586431547999382, "pitch": -0.012775968760251999, "yaw": -2.078643560409546}, "local_position": {"x": 3.401125907897949, "y": 5.370791912078857, "z": 9.307903289794922}, "status": {"flags": 33599, "velocity_variance": 0.18176694214344025, "pos_horiz_variance": 0.008130479604005814, "pos_vert_variance": 0.028683070093393326}}, "errors": ["PreArm: Hardware safety switch"]}
{"timestamp": "2026-01-15T12:30:11.006518Z", "telemetry": {"lat": 28.753119, "lon": 77.1179409, "satellites": 10, "altitude_gps_m": 202.989990234375, "groundspeed_mps": 0.2651374638080597}, "flight": {"mode": "STABILIZE", "armed": false}, "ekf": {"attitude": {"roll": 0.05632944405078888, "pitch": -0.012788858264684677, "yaw": -2.077993154525757}, "local_position": {"x": 3.320389747619629, "y": 5.135291576385498, "z": 9.334991455078125}, "status": {"flags": 33599, "velocity_variance": 0.2708538770675659, "pos_horiz_variance": 0.008310179226100445, "pos_vert_variance": 0.03710945323109627}}, "errors": ["PreArm: Hardware safety switch"]}
{"timestamp": "2026-01-15T12:30:11.984138Z", "telemetry": {"lat": 28.7531175, "lon": 77.1179433, "satellites": 10, "altitude_gps_m": 202.97000122070312, "groundspeed_mps": 0.25082704424858093}, "flight": {"mode": "STABILIZE", "armed": false}, "ekf": {"attitude": {"roll": 0.0557992048561573, "pitch": -0.012306930497288704, "yaw": -2.0774779319763184}, "local_position": {"x": 3.227870464324951, "y": 5.133459091186523, "z": 9.356595993041992}, "status": {"flags": 33599, "velocity_variance": 0.31222665309906006, "pos_horiz_variance": 0.010173425078392029, "pos_vert_variance": 0.004390023183077574}}, "errors": ["PreArm: Hardware safety switch"]}
{"timestamp": "2026-01-15T12:30:12.984838Z", "telemetry": {"lat": 28.7531168, "lon": 77.1179467, "satellites": 10, "altitude_gps_m": 202.97000122070312, "groundspeed_mps": 0.2194417268037796}, "flight": {"mode": "STABILIZE", "armed": false}, "ekf": {"attitude": {"roll": 0.05503147840499878, "pitch": -0.01153445802628994, "yaw": -2.0770604610443115}, "local_position": {"x": 3.048151969909668, "y": 5.290945529937744, "z": 9.358166694641113}, "status": {"flags": 33599, "velocity_variance": 0.08257736265659332, "pos_horiz_variance": 0.021634863689541817, "pos_vert_variance": 0.05536721274256706}}, "errors": ["PreArm: Hardware safety switch"]}
