{"timestamp": "2026-01-15T13:43:41.575136Z", "telemetry": {"lat": 28.7530059, "lon": 77.1179622, "satellites": 0, "altitude_gps_m": 0.28999999165534973, "groundspeed_mps": 0.04368514567613602}, "flight": {"mode": "STABILIZE", "armed": false}, "ekf": {"attitude": {"roll": 0.015582237392663956, "pitch": 0.005861729383468628, "yaw": -0.2340097874403}, "local_position": {"x": null, "y": null, "z": null}, "status": {"flags": 135, "velocity_variance": 0.0, "pos_horiz_variance": 0.010424497537314892, "pos_vert_variance": 0.03949379175901413}}, "errors": []}
{"timestamp": "2026-01-15T13:43:42.526706Z", "telemetry": {"lat": 28.7530059, "lon": 77.1179622, "satellites": 0, "altitude_gps_m": 0.28999999165534973, "groundspeed_mps": 0.044934116303920746}, "flight": {"mode": "STABILIZE", "armed": false}, "ekf": {"attitude": {"roll": 0.015553636476397514, "pitch": 0.0058660367503762245, "yaw": -0.2339630275964737}, "local_position": {"x": null, "y": null, "z": null}, "status": {"flags": 135, "velocity_variance": 0.0, "pos_horiz_variance": 0.010424497537314892, "pos_vert_variance": 0.03949379175901413}}, "errors": []}
{"timestamp": "2026-01-15T13:43:43.523702Z", "telemetry": {"lat": 28.7530059, "lon": 77.1179622, "satellites": 0, "altitude_gps_m": 0.28999999165534973, "groundspeed_mps": 0.047117602080106735}, "flight": {"mode": "STABILIZE", "armed": false}, "ekf": {"attitude": {"roll": 0.015457043424248695, "pitch": 0.006016599014401436, "yaw": -0.23392409086227417}, "local_position": {"x": null, "y": null, "z": null}, "status": {"flags": 135, "velocity_variance": 0.0, "pos_horiz_variance": 0.010852202773094177, "pos_vert_variance": 0.07722952961921692}}, "errors": []}
{"timestamp": "2026-01-15T13:43:44.496246Z", "telemetry": {"lat": 28.7530059, "lon": 77.1179622, "satellites": 0, "altitude_gps_m": 0.28999999165534973, "groundspeed_mps": 0.046901945024728775}, "flight": {"mode": "STABILIZE", "armed": false}, "ekf": {"attitude": {"roll": 0.015389621257781982, "pitch": 0.006093056406825781, "yaw": -0.2338886260986328}, "local_position": {"x": null, "y": null, "z": null}, "status": {"flags": 135, "velocity_variance": 0.0, "pos_horiz_variance": 0.01127618458122015, "pos_vert_variance": 0.04539094492793083}}, "errors": []}
{"timestamp": "2026-01-15T13:43:45.498377Z", "telemetry": {"lat": 28.7530059, "lon": 77.1179622, "satellites": 0, "altitude_gps_m": 0.28999999165534973, "groundspeed_mps": 0.04619818180799484}, "flight": {"mode": "STABILIZE", "armed": false}, "ekf": {"attitude": {"roll": 0.015214191749691963, "pitch": 0.006204654462635517, "yaw": -0.2338554859161377}, "local_position": {"x": null, "y": null, "z": null}, "status": {"flags": 135, "velocity_variance": 0.0, "pos_horiz_variance": 0.011319034732878208, "pos_vert_variance": 0.027084484696388245}}, "errors": []}
{"timestamp": "2026-01-15T13:43:46.498537Z", "telemetry": {"lat": 28.7530059, "lon": 77.1179622, "satellites": 0, "altitude_gps_m": 0.28999999165534973, "groundspeed_mps": 0.04555625468492508}, "flight": {"mode": "STABILIZE", "armed": false}, "ekf": {"attitude": {"roll": 0.014750754460692406, "pitch": 0.0063056861981749535, "yaw": -0.23391450941562653}, "local_position": {"x": null, "y": null, "z": null}, "status": {"flags": 135, "velocity_variance": 0.0, "pos_horiz_variance": 0.011140274815261364, "pos_vert_variance": 0.011794216930866241}}, "errors": []}
{"timestamp": "2026-01-15T13:43:47.505657Z", "telemetry": {"lat": 28.7530059, "lon": 77.1179622, "satellites": 0, "altitude_gps_m": 0.28999999165534973, "groundspeed_mps": 0.038779109716415405}, "flight": {"mode": "STABILIZE", "armed": false}, "ekf": {"attitude": {"roll": 0.014496609568595886, "pitch": 0.00636818865314126, "yaw": -0.23380298912525177}, "local_position": {"x": null, "y": null, "z": null}, "status": {"flags": 135, "velocity_variance": 0.0, "pos_horiz_variance": 0.010413647629320621, "pos_vert_variance": 0.04401399940252304}}, "errors": []}
{"timestamp": "2026-01-15T13:43:48.495922Z", "telemetry": {"lat": 28.7530059, "lon": 77.1179622, "satellites": 0, "altitude_gps_m": 0.28999999165534973, "groundspeed_mps": 0.03633328527212143}, "flight": {"mode": "STABILIZE", "armed": false}, "ekf": {"attitude": {"roll": 0.014331065118312836, "pitch": 0.0064888931810855865, "yaw": -0.23374706506729126}, "local_position": {"x": null, "y": null, "z": null}, "status": {"flags": 135, "velocity_variance": 0.0, "pos_horiz_variance": 0.009548177011311054, "pos_vert_variance": 0.041894346475601196}}, "errors": []}
{"timestamp": "2026-01-15T13:43:49.494453Z", "telemetry": {"lat": 28.7530059, "lon": 77.1179622, "satellites": 0, "altitude_gps_m": 0.28999999165534973, "groundspeed_mps": 0.03687278553843498}, "flight": {"mode": "STABILIZE", "armed": false}, "ekf": {"attitude": {"roll": 0.013926191255450249, "pitch": 0.006494828499853611, "yaw": -0.2337847650051117}, "local_position": {"x": null, "y": null, "z": null}, "status": {"flags": 135, "velocity_variance": 0.0, "pos_horiz_variance": 0.00898660160601139, "pos_vert_variance": 0.015019643120467663}}, "errors": []}
{"timestamp": "2026-01-15T13:43:50.495236Z", "telemetry": {"lat": 28.7530059, "lon": 77.1179622, "satellites": 0, "altitude_gps_m": 0.28999999165534973, "groundspeed_mps": 0.03837689012289047}, "flight": {"mode": "STABILIZE", "armed": false}, "ekf": {"attitude": {"roll": 0.013838378712534904, "pitch": 0.006669709924608469, "yaw": -0.23391708731651306}, "local_position": {"x": null, "y": null, "z": null}, "status": {"flags": 135, "velocity_variance": 0.0, "pos_horiz_variance": 0.009078296832740307, "pos_vert_variance": 0.05204511433839798}}, "errors": []}
{"timestamp": "2026-01-15T13:43:51.470496Z", "telemetry": {"lat": 28.7530059, "lon": 77.1179622, "satellites": 0, "altitude_gps_m": 0.28999999165534973, "groundspeed_mps": 0.0396936871111393}, "flight": {"mode": "STABILIZE", "armed": false}, "ekf": {"attitude": {"roll": 0.013756431639194489, "pitch": 0.006710527464747429, "yaw": -0.23403848707675934}, "local_position": {"x": null, "y": null, "z": null}, "status": {"flags": 135, "velocity_variance": 0.0, "pos_horiz_variance": 0.009273585863411427, "pos_vert_variance": 0.024148497730493546}}, "errors": []}
{"timestamp": "2026-01-15T13:43:52.472141Z", "telemetry": {"lat": 28.7530059, "lon": 77.1179622, "satellites": 0, "altitude_gps_m": 0.28999999165534973, "groundspeed_mps": 0.04085399582982063}, "flight": {"mode": "STABILIZE", "armed": false}, "ekf": {"attitude": {"roll": 0.0138448067009449, "pitch": 0.006718393415212631, "yaw": -0.23420937359333038}, "local_position": {"x": null, "y": null, "z": null}, "status": {"flags": 135, "velocity_variance": 0.0, "pos_horiz_variance": 0.009496194310486317, "pos_vert_variance": 0.003778092795982957}}, "errors": []}
{"timestamp": "2026-01-15T13:43:53.499140Z", "telemetry": {"lat": 28.7530059, "lon": 77.1179622, "satellites": 0, "altitude_gps_m": 0.28999999165534973, "groundspeed_mps": 0.04180235415697098}, "flight": {"mode": "STABILIZE", "armed": false}, "ekf": {"attitude": {"roll": 0.013895442709326744, "pitch": 0.006724935956299305, "yaw": -0.23411570489406586}, "local_position": {"x": null, "y": null, "z": null}, "status": {"flags": 135, "velocity_variance": 0.0, "pos_horiz_variance": 0.009496194310486317, "pos_vert_variance": 0.003778092795982957}}, "errors": []}
{"timestamp": "2026-01-15T13:43:54.499022Z", "telemetry": {"lat": 28.7530059, "lon": 77.1179622, "satellites": 0, "altitude_gps_m": 0.28999999165534973, "groundspeed_mps": 0.04180235415697098}, "flight": {"mode": "STABILIZE", "armed": false}, "ekf": {"attitude": {"roll": 0.013895442709326744, "pitch": 0.006724935956299305, "yaw": -0.23411570489406586}, "local_position": {"x": null, "y": null, "z": null}, "status": {"flags": 135, "velocity_variance": 0.0, "pos_horiz_variance": 0.009496194310486317, "pos_vert_variance": 0.003778092795982957}}, "errors": []}
{"timestamp": "2026-01-15T13:43:55.475975Z", "telemetry": {"lat": 28.7530059, "lon": 77.1179622, "satellites": 0, "altitude_gps_m": 0.28999999165534973, "groundspeed_mps": 0.04180235415697098}, "flight": {"mode": "STABILIZE", "armed": false}, "ekf": {"attitude": {"roll": 0.013895442709326744, "pitch": 0.006724935956299305, "yaw": -0.23411570489406586}, "local_position": {"x": null, "y": null, "z": null}, "status": {"flags": 135, "velocity_variance": 0.0, "pos_horiz_variance": 0.009496194310486317, "pos_vert_variance": 0.003778092795982957}}, "errors": []}
{"timestamp": "2026-01-15T13:43:56.481900Z", "telemetry": {"lat": 28.7530059, "lon": 77.1179622, "satellites": 0, "altitude_gps_m": 0.28999999165534973, "groundspeed_mps": 0.04180235415697098}, "flight": {"mode": "STABILIZE", "armed": false}, "ekf": {"attitude": {"roll": 0.013895442709326744, "pitch": 0.006724935956299305, "yaw": -0.23411570489406586}, "local_position": {"x": null, "y": null, "z": null}, "status": {"flags": 135, "velocity_variance": 0.0, "pos_horiz_variance": 0.009496194310486317, "pos_vert_variance": 0.003778092795982957}}, "errors": []}
{"timestamp": "2026-01-15T13:43:57.502829Z", "telemetry": {"lat": 28.7530059, "lon": 77.1179622, "satellites": 0, "altitude_gps_m": 0.28999999165534973, "groundspeed_mps": 0.04180235415697098}, "flight": {"mode": "STABILIZE", "armed": false}, "ekf": {"attitude": {"roll": 0.013895442709326744, "pitch": 0.006724935956299305, "yaw": -0.23411570489406586}, "local_position": {"x": null, "y": null, "z": null}, "status": {"flags": 135, "velocity_variance": 0.0, "pos_horiz_variance": 0.009496194310486317, "pos_vert_variance": 0.003778092795982957}}, "errors": []}
{"timestamp": "2026-01-15T13:43:58.503440Z", "telemetry": {"lat": 28.7530059, "lon": 77.1179622, "satellites": 0, "altitude_gps_m": 0.28999999165534973, "groundspeed_mps": 0.04180235415697098}, "flight": {"mode": "STABILIZE", "armed": false}, "ekf": {"attitude": {"roll": 0.013895442709326744, "pitch": 0.006724935956299305, "yaw": -0.23411570489406586}, "local_position": {"x": null, "y": null, "z": null}, "status": {"flags": 135, "velocity_variance": 0.0, "pos_horiz_variance": 0.009496194310486317, "pos_vert_variance": 0.003778092795982957}}, "errors": []}
{"timestamp": "2026-01-15T13:43:59.507092Z", "telemetry": {"lat": 28.7530059, "lon": 77.1179622, "satellites": 0, "altitude_gps_m": 0.28999999165534973, "groundspeed_mps": 0.04180235415697098}, "flight": {"mode": "STABILIZE", "armed": false}, "ekf": {"attitude": {"roll": 0.013895442709326744, "pitch": 0.006724935956299305, "yaw": -0.23411570489406586}, "local_position": {"x": null, "y": null, "z": null}, "status": {"flags": 135, "velocity_variance": 0.0, "pos_horiz_variance": 0.009496194310486317, "pos_vert_variance": 0.003778092795982957}}, "errors": []}
{"timestamp": "2026-01-15T13:44:00.484976Z", "telemetry": {"lat": 28.7530059, "lon": 77.1179622, "satellites": 0, "altitude_gps_m": 0.28999999165534973, "groundspeed_mps": 0.04119352623820305}, "flight": {"mode": "STABILIZE", "armed": false}, "ekf": {"attitude": {"roll": 0.014415068551898003, "pitch": 0.006259346846491098, "yaw": -0.234031543135643}, "local_position": {"x": null, "y": null, "z": null}, "status": {"flags": 135, "velocity_variance": 0.0, "pos_horiz_variance": 0.010047736577689648, "pos_vert_variance": 0.03382990136742592}}, "errors": []}
{"timestamp": "2026-01-15T13:44:01.482525Z", "telemetry": {"lat": 28.7530059, "lon": 77.1179622, "satellites": 0, "altitude_gps_m": 0.28999999165534973, "groundspeed_mps": 0.0432407446205616}, "flight": {"mode": "STABILIZE", "armed": false}, "ekf": {"attitude": {"roll": 0.01429065503180027, "pitch": 0.006293519865721464, "yaw": -0.23409709334373474}, "local_position": {"x": null, "y": null, "z": null}, "status": {"flags": 135, "velocity_variance": 0.0, "pos_horiz_variance": 0.010172741487622261, "pos_vert_variance": 0.11770468205213547}}, "errors": []}
{"timestamp": "2026-01-15T13:44:02.507297Z", "telemetry": {"lat": 28.7530059, "lon": 77.1179622, "satellites": 0, "altitude_gps_m": 0.28999999165534973, "groundspeed_mps": 0.042364854365587234}, "flight": {"mode": "STABILIZE", "armed": false}, "ekf": {"attitude": {"roll": 0.014266971498727798, "pitch": 0.006155011709779501, "yaw": -0.23410169780254364}, "local_position": {"x": null, "y": null, "z": null}, "status": {"flags": 135, "velocity_variance": 0.0, "pos_horiz_variance": 0.010283419862389565, "pos_vert_variance": 0.045878440141677856}}, "errors": []}
{"timestamp": "2026-01-15T13:44:03.510468Z", "telemetry": {"lat": 28.7530059, "lon": 77.1179622, "satellites": 0, "altitude_gps_m": 0.28999999165534973, "groundspeed_mps": 0.04563399404287338}, "flight": {"mode": "STABILIZE", "armed": false}, "ekf": {"attitude": {"roll": 0.014198806136846542, "pitch": 0.006342299748212099, "yaw": -0.23408202826976776}, "local_position": {"x": null, "y": null, "z": null}, "status": {"flags": 135, "velocity_variance": 0.0, "pos_horiz_variance": 0.010458745062351227, "pos_vert_variance": 0.017541687935590744}}, "errors": []}
{"timestamp": "2026-01-15T13:44:04.510831Z", "telemetry": {"lat": 28.7530059, "lon": 77.1179622, "satellites": 0, "altitude_gps_m": 0.28999999165534973, "groundspeed_mps": 0.04446756839752197}, "flight": {"mode": "STABILIZE", "armed": false}, "ekf": {"attitude": {"roll": 0.014233428984880447, "pitch": 0.006371259689331055, "yaw": -0.2340877503156662}, "local_position": {"x": null, "y": null, "z": null}, "status": {"flags": 135, "velocity_variance": 0.0, "pos_horiz_variance": 0.010813509114086628, "pos_vert_variance": 0.027831025421619415}}, "errors": []}
{"timestamp": "2026-01-15T13:44:05.510775Z", "telemetry": {"lat": 28.7530059, "lon": 77.1179622, "satellites": 0, "altitude_gps_m": 0.28999999165534973, "groundspeed_mps": 0.041713107377290726}, "flight": {"mode": "STABILIZE", "armed": false}, "ekf": {"attitude": {"roll": 0.014413770288228989, "pitch": 0.006432541646063328, "yaw": -0.23402640223503113}, "local_position": {"x": null, "y": null, "z": null}, "status": {"flags": 135, "velocity_variance": 0.0, "pos_horiz_variance": 0.010569270700216293, "pos_vert_variance": 0.0063212038949131966}}, "errors": []}
{"timestamp": "2026-01-15T13:44:06.485201Z", "telemetry": {"lat": 28.7530059, "lon": 77.1179622, "satellites": 0, "altitude_gps_m": 0.28999999165534973, "groundspeed_mps": 0.03832835704088211}, "flight": {"mode": "STABILIZE", "armed": false}, "ekf": {"attitude": {"roll": 0.014523513615131378, "pitch": 0.006566811818629503, "yaw": -0.23393236100673676}, "local_position": {"x": null, "y": null, "z": null}, "status": {"flags": 135, "velocity_variance": 0.0, "pos_horiz_variance": 0.010090760886669159, "pos_vert_variance": 0.009526810608804226}}, "errors": []}
{"timestamp": "2026-01-15T13:44:07.485304Z", "telemetry": {"lat": 28.7530059, "lon": 77.1179622, "satellites": 0, "altitude_gps_m": 0.28999999165534973, "groundspeed_mps": 0.03507056459784508}, "flight": {"mode": "STABILIZE", "armed": false}, "ekf": {"attitude": {"roll": 0.014685351401567459, "pitch": 0.00669151172041893, "yaw": -0.23382660746574402}, "local_position": {"x": null, "y": null, "z": null}, "status": {"flags": 135, "velocity_variance": 0.0, "pos_horiz_variance": 0.009441890753805637, "pos_vert_variance": 0.021012209355831146}}, "errors": []}
{"timestamp": "2026-01-15T13:44:08.490402Z", "telemetry": {"lat": 28.7530059, "lon": 77.1179622, "satellites": 0, "altitude_gps_m": 0.28999999165534973, "groundspeed_mps": 0.03252246975898743}, "flight": {"mode": "STABILIZE", "armed": false}, "ekf": {"attitude": {"roll": 0.014780551195144653, "pitch": 0.006679197773337364, "yaw": -0.2338980734348297}, "local_position": {"x": null, "y": null, "z": null}, "status": {"flags": 135, "velocity_variance": 0.0, "pos_horiz_variance": 0.00880836509168148, "pos_vert_variance": 0.013068252243101597}}, "errors": []}
{"timestamp": "2026-01-15T13:44:09.487309Z", "telemetry": {"lat": 28.7530059, "lon": 77.1179622, "satellites": 0, "altitude_gps_m": 0.28999999165534973, "groundspeed_mps": 0.03233993798494339}, "flight": {"mode": "STABILIZE", "armed": false}, "ekf": {"attitude": {"roll": 0.014846401289105415, "pitch": 0.006693048868328333, "yaw": -0.23390521109104156}, "local_position": {"x": null, "y": null, "z": null}, "status": {"flags": 135, "velocity_variance": 0.0, "pos_horiz_variance": 0.008235317654907703, "pos_vert_variance": 0.02742472104728222}}, "errors": []}
{"timestamp": "2026-01-15T13:44:10.488384Z", "telemetry": {"lat": 28.7530059, "lon": 77.1179622, "satellites": 0, "altitude_gps_m": 0.28999999165534973, "groundspeed_mps": 0.03325338289141655}, "flight": {"mode": "STABILIZE", "armed": false}, "ekf": {"attitude": {"roll": 0.014835910871624947, "pitch": 0.006628897972404957, "yaw": -0.23401762545108795}, "local_position": {"x": null, "y": null, "z": null}, "status": {"flags": 135, "velocity_variance": 0.0, "pos_horiz_variance": 0.008202360942959785, "pos_vert_variance": 0.0007584354025311768}}, "errors": []}
{"timestamp": "2026-01-15T13:44:11.489718Z", "telemetry": {"lat": 28.7530059, "lon": 77.1179622, "satellites": 0, "altitude_gps_m": 0.28999999165534973, "groundspeed_mps": 0.03463888168334961}, "flight": {"mode": "STABILIZE", "armed": false}, "ekf": {"attitude": {"roll": 0.014810120686888695, "pitch": 0.0066363271325826645, "yaw": -0.2341693639755249}, "local_position": {"x": null, "y": null, "z": null}, "status": {"flags": 135, "velocity_variance": 0.0, "pos_horiz_variance": 0.008253279142081738, "pos_vert_variance": 0.02588517591357231}}, "errors": []}
{"timestamp": "2026-01-15T13:44:12.496740Z", "telemetry": {"lat": 28.7530059, "lon": 77.1179622, "satellites": 0, "altitude_gps_m": 0.28999999165534973, "groundspeed_mps": 0.03486619517207146}, "flight": {"mode": "STABILIZE", "armed": false}, "ekf": {"attitude": {"roll": 0.014895729720592499, "pitch": 0.006593232974410057, "yaw": -0.23427432775497437}, "local_position": {"x": null, "y": null, "z": null}, "status": {"flags": 135, "velocity_variance": 0.0, "pos_horiz_variance": 0.008493432775139809, "pos_vert_variance": 0.0037144902162253857}}, "errors": []}
{"timestamp": "2026-01-15T13:44:13.494521Z", "telemetry": {"lat": 28.7530059, "lon": 77.1179622, "satellites": 0, "altitude_gps_m": 0.28999999165534973, "groundspeed_mps": 0.03679471090435982}, "flight": {"mode": "STABILIZE", "armed": false}, "ekf": {"attitude": {"roll": 0.015046129003167152, "pitch": 0.006608655676245689, "yaw": -0.23420080542564392}, "local_position": {"x": null, "y": null, "z": null}, "status": {"flags": 135, "velocity_variance": 0.0, "pos_horiz_variance": 0.008761653676629066, "pos_vert_variance": 0.026997925713658333}}, "errors": []}
{"timestamp": "2026-01-15T13:44:14.494507Z", "telemetry": {"lat": 28.7530059, "lon": 77.1179622, "satellites": 0, "altitude_gps_m": 0.28999999165534973, "groundspeed_mps": 0.037173762917518616}, "flight": {"mode": "STABILIZE", "armed": false}, "ekf": {"attitude": {"roll": 0.015025170519948006, "pitch": 0.006549057550728321, "yaw": -0.23408165574073792}, "local_position": {"x": null, "y": null, "z": null}, "status": {"flags": 135, "velocity_variance": 0.0, "pos_horiz_variance": 0.008847390301525593, "pos_vert_variance": 0.08355666697025299}}, "errors": []}
