{"timestamp": "2025-12-27T08:03:49.875707Z", "telemetry": {"lat": null, "lon": null, "satellites": null, "altitude_gps_m": null, "groundspeed_mps": null}, "flight": {"mode": null, "armed": null}, "ekf": {"attitude": {"roll": 0.09367427974939346, "pitch": -0.5748950839042664, "yaw": 2.6591579914093018}, "local_position": {"x": null, "y": null, "z": null}, "status": {"flags": null, "velocity_variance": null, "pos_horiz_variance": null, "pos_vert_variance": null}}, "errors": []}
{"timestamp": "2025-12-27T08:03:50.825260Z", "telemetry": {"lat": null, "lon": null, "satellites": null, "altitude_gps_m": null, "groundspeed_mps": null}, "flight": {"mode": null, "armed": null}, "ekf": {"attitude": {"roll": 0.09367427974939346, "pitch": -0.5748950839042664, "yaw": 2.6591579914093018}, "local_position": {"x": null, "y": null, "z": null}, "status": {"flags": null, "velocity_variance": null, "pos_horiz_variance": null, "pos_vert_variance": null}}, "errors": []}
{"timestamp": "2025-12-27T08:03:51.812931Z", "telemetry": {"lat": null, "lon": null, "satellites": null, "altitude_gps_m": 191.72999572753906, "groundspeed_mps": 0.5224410891532898}, "flight": {"mode": null, "armed": null}, "ekf": {"attitude": {"roll": 0.14690150320529938, "pitch": -0.5497548580169678, "yaw": 2.678091526031494}, "local_position": {"x": null, "y": null, "z": null}, "status": {"flags": null, "velocity_variance": null, "pos_horiz_variance": null, "pos_vert_variance": null}}, "errors": []}
{"timestamp": "2025-12-27T08:03:52.812743Z", "telemetry": {"lat": 28.7527623, "lon": 77.1180002, "satellites": 4, "altitude_gps_m": 194.89999389648438, "groundspeed_mps": 0.12376508116722107}, "flight": {"mode": null, "armed": null}, "ekf": {"attitude": {"roll": 0.10817158222198486, "pitch": -0.47386252880096436, "yaw": 2.646470785140991}, "local_position": {"x": null, "y": null, "z": null}, "status": {"flags": 135, "velocity_variance": 0.0, "pos_horiz_variance": 0.15916888415813446, "pos_vert_variance": 0.040419843047857285}}, "errors": []}
{"timestamp": "2025-12-27T08:03:53.812791Z", "telemetry": {"lat": 28.7527495, "lon": 77.1179964, "satellites": 4, "altitude_gps_m": 194.92999267578125, "groundspeed_mps": 0.2053307443857193}, "flight": {"mode": null, "armed": null}, "ekf": {"attitude": {"roll": 0.06445201486349106, "pitch": -0.45354849100112915, "yaw": 2.619464635848999}, "local_position": {"x": null, "y": null, "z": null}, "status": {"flags": 135, "velocity_variance": 0.0, "pos_horiz_variance": 0.08997933566570282, "pos_vert_variance": 0.006211729254573584}}, "errors": []}
{"timestamp": "2025-12-27T08:03:54.812633Z", "telemetry": {"lat": 28.7527403, "lon": 77.1179901, "satellites": 4, "altitude_gps_m": 196.97000122070312, "groundspeed_mps": 0.3006853759288788}, "flight": {"mode": null, "armed": null}, "ekf": {"attitude": {"roll": 0.0944775640964508, "pitch": -0.4346863925457001, "yaw": 2.556987762451172}, "local_position": {"x": null, "y": null, "z": null}, "status": {"flags": 135, "velocity_variance": 0.0, "pos_horiz_variance": 0.06309156119823456, "pos_vert_variance": 0.04101438820362091}}, "errors": ["PreArm: Hardware safety switch", "PreArm: Gyros inconsistent"]}
{"timestamp": "2025-12-27T08:03:55.812669Z", "telemetry": {"lat": 28.7527375, "lon": 77.11799, "satellites": 4, "altitude_gps_m": 196.97000122070312, "groundspeed_mps": 0.3006853759288788}, "flight": {"mode": "STABILIZE", "armed": false}, "ekf": {"attitude": {"roll": 0.0944775640964508, "pitch": -0.4346863925457001, "yaw": 2.556987762451172}, "local_position": {"x": null, "y": null, "z": null}, "status": {"flags": 135, "velocity_variance": 0.0, "pos_horiz_variance": 0.063010074198246, "pos_vert_variance": 0.033398162573575974}}, "errors": ["PreArm: Hardware safety switch", "PreArm: Gyros inconsistent"]}
{"timestamp": "2025-12-27T08:03:56.813178Z", "telemetry": {"lat": 28.7527162, "lon": 77.1179772, "satellites": 4, "altitude_gps_m": 201.89999389648438, "groundspeed_mps": 0.3952520191669464}, "flight": {"mode": "STABILIZE", "armed": false}, "ekf": {"attitude": {"roll": 0.09636108577251434, "pitch": -0.4518718421459198, "yaw": 2.544536590576172}, "local_position": {"x": null, "y": null, "z": null}, "status": {"flags": 135, "velocity_variance": 0.0, "pos_horiz_variance": 0.07371361553668976, "pos_vert_variance": 0.07345496118068695}}, "errors": ["PreArm: Hardware safety switch", "PreArm: Gyros inconsistent"]}
{"timestamp": "2025-12-27T08:03:57.813373Z", "telemetry": {"lat": 28.7527143, "lon": 77.1179782, "satellites": 4, "altitude_gps_m": 201.77999877929688, "groundspeed_mps": 0.22826284170150757}, "flight": {"mode": "STABILIZE", "armed": false}, "ekf": {"attitude": {"roll": 0.07493985444307327, "pitch": -0.47118330001831055, "yaw": 2.540665626525879}, "local_position": {"x": null, "y": null, "z": null}, "status": {"flags": 135, "velocity_variance": 0.0, "pos_horiz_variance": 0.07734844088554382, "pos_vert_variance": 0.0961747020483017}}, "errors": ["PreArm: Hardware safety switch", "PreArm: Gyros inconsistent"]}
{"timestamp": "2025-12-27T08:03:58.818174Z", "telemetry": {"lat": 28.7527029, "lon": 77.1179913, "satellites": 4, "altitude_gps_m": 199.5699920654297, "groundspeed_mps": 0.12369398027658463}, "flight": {"mode": "STABILIZE", "armed": false}, "ekf": {"attitude": {"roll": 0.09563256800174713, "pitch": -0.5354430079460144, "yaw": 2.3527350425720215}, "local_position": {"x": null, "y": null, "z": null}, "status": {"flags": 135, "velocity_variance": 0.0, "pos_horiz_variance": 0.04976380243897438, "pos_vert_variance": 0.015228722244501114}}, "errors": ["PreArm: Hardware safety switch", "PreArm: Gyros inconsistent"]}
{"timestamp": "2025-12-27T08:03:59.814576Z", "telemetry": {"lat": 28.7526895, "lon": 77.1179813, "satellites": 4, "altitude_gps_m": 202.30999755859375, "groundspeed_mps": 1.1798648834228516}, "flight": {"mode": "STABILIZE", "armed": false}, "ekf": {"attitude": {"roll": 0.068723164498806, "pitch": -0.5364566445350647, "yaw": 0.8389254808425903}, "local_position": {"x": null, "y": null, "z": null}, "status": {"flags": 135, "velocity_variance": 0.0, "pos_horiz_variance": 0.1737193763256073, "pos_vert_variance": 0.016343683004379272}}, "errors": ["PreArm: Hardware safety switch", "PreArm: Gyros inconsistent"]}
{"timestamp": "2025-12-27T08:04:00.813203Z", "telemetry": {"lat": 28.7526969, "lon": 77.1179885, "satellites": 4, "altitude_gps_m": 199.72999572753906, "groundspeed_mps": 1.6157560348510742}, "flight": {"mode": "STABILIZE", "armed": false}, "ekf": {"attitude": {"roll": 0.16409985721111298, "pitch": -0.49500784277915955, "yaw": -0.09120584279298782}, "local_position": {"x": null, "y": null, "z": null}, "status": {"flags": 1024, "velocity_variance": 0.0, "pos_horiz_variance": 0.2754628360271454, "pos_vert_variance": 0.008599582128226757}}, "errors": ["PreArm: Hardware safety switch", "PreArm: Gyros inconsistent"]}
{"timestamp": "2025-12-27T08:04:01.812664Z", "telemetry": {"lat": 28.7527019, "lon": 77.1179921, "satellites": 4, "altitude_gps_m": 198.37998962402344, "groundspeed_mps": 0.5607494115829468}, "flight": {"mode": "STABILIZE", "armed": false}, "ekf": {"attitude": {"roll": 0.08923136442899704, "pitch": -0.5361135601997375, "yaw": -0.48770394921302795}, "local_position": {"x": null, "y": null, "z": null}, "status": {"flags": 1024, "velocity_variance": 0.0, "pos_horiz_variance": 0.28562548756599426, "pos_vert_variance": 0.030065031722187996}}, "errors": ["PreArm: Hardware safety switch", "PreArm: Gyros inconsistent"]}
{"timestamp": "2025-12-27T08:04:02.813278Z", "telemetry": {"lat": 28.7526972, "lon": 77.1179827, "satellites": 4, "altitude_gps_m": 200.87998962402344, "groundspeed_mps": 0.9512915015220642}, "flight": {"mode": "STABILIZE", "armed": false}, "ekf": {"attitude": {"roll": 0.13792598247528076, "pitch": -0.5811216235160828, "yaw": -0.8857331871986389}, "local_position": {"x": null, "y": null, "z": null}, "status": {"flags": 135, "velocity_variance": 0.0, "pos_horiz_variance": 0.19061964750289917, "pos_vert_variance": 0.017768418416380882}}, "errors": ["PreArm: Hardware safety switch", "PreArm: Gyros inconsistent"]}
{"timestamp": "2025-12-27T08:04:03.813200Z", "telemetry": {"lat": 28.7527063, "lon": 77.1179821, "satellites": 4, "altitude_gps_m": 200.19000244140625, "groundspeed_mps": 0.6397374868392944}, "flight": {"mode": "STABILIZE", "armed": false}, "ekf": {"attitude": {"roll": 0.08516023308038712, "pitch": -0.5366827249526978, "yaw": -0.7611035704612732}, "local_position": {"x": null, "y": null, "z": null}, "status": {"flags": 135, "velocity_variance": 0.0, "pos_horiz_variance": 0.20238752663135529, "pos_vert_variance": 0.029731035232543945}}, "errors": ["PreArm: Hardware safety switch", "PreArm: Gyros inconsistent"]}
{"timestamp": "2025-12-27T08:04:04.813475Z", "telemetry": {"lat": 28.7527114, "lon": 77.1179769, "satellites": 4, "altitude_gps_m": 202.3300018310547, "groundspeed_mps": 0.37792712450027466}, "flight": {"mode": "STABILIZE", "armed": false}, "ekf": {"attitude": {"roll": 0.20797725021839142, "pitch": -0.5858132243156433, "yaw": -0.6820159554481506}, "local_position": {"x": null, "y": null, "z": null}, "status": {"flags": 135, "velocity_variance": 0.0, "pos_horiz_variance": 0.1851886808872223, "pos_vert_variance": 0.01106844563037157}}, "errors": ["PreArm: Hardware safety switch", "PreArm: Gyros inconsistent"]}
{"timestamp": "2025-12-27T08:04:05.812948Z", "telemetry": {"lat": 28.7527201, "lon": 77.1179842, "satellites": 4, "altitude_gps_m": 202.25999450683594, "groundspeed_mps": 0.3066948652267456}, "flight": {"mode": "STABILIZE", "armed": false}, "ekf": {"attitude": {"roll": 0.1728336215019226, "pitch": -0.5063368678092957, "yaw": 0.05335409194231033}, "local_position": {"x": null, "y": null, "z": null}, "status": {"flags": 135, "velocity_variance": 0.0, "pos_horiz_variance": 0.1392263025045395, "pos_vert_variance": 0.026899000629782677}}, "errors": ["PreArm: Hardware safety switch", "PreArm: Gyros inconsistent", "EKF3 IMU1 forced reset", "EKF3 IMU1 initialised"]}
{"timestamp": "2025-12-27T08:04:06.812660Z", "telemetry": {"lat": 28.7527426, "lon": 77.1179908, "satellites": 4, "altitude_gps_m": 194.97999572753906, "groundspeed_mps": 0.293166846036911}, "flight": {"mode": "STABILIZE", "armed": false}, "ekf": {"attitude": {"roll": 0.26220789551734924, "pitch": -0.42264053225517273, "yaw": -0.5582069158554077}, "local_position": {"x": null, "y": null, "z": null}, "status": {"flags": 135, "velocity_variance": 0.0, "pos_horiz_variance": 0.06346452236175537, "pos_vert_variance": 0.00650993175804615}}, "errors": ["PreArm: Hardware safety switch", "PreArm: Gyros inconsistent", "EKF3 IMU1 forced reset", "EKF3 IMU1 initialised"]}
{"timestamp": "2025-12-27T08:04:07.813484Z", "telemetry": {"lat": 28.7527611, "lon": 77.1179912, "satellites": 4, "altitude_gps_m": 192.3199920654297, "groundspeed_mps": 0.15143704414367676}, "flight": {"mode": "STABILIZE", "armed": false}, "ekf": {"attitude": {"roll": 0.08398174494504929, "pitch": -0.48892346024513245, "yaw": -0.3371312618255615}, "local_position": {"x": null, "y": null, "z": null}, "status": {"flags": 135, "velocity_variance": 0.0, "pos_horiz_variance": 0.03796660527586937, "pos_vert_variance": 0.005776221863925457}}, "errors": ["PreArm: Hardware safety switch", "PreArm: Gyros inconsistent", "EKF3 IMU1 forced reset", "EKF3 IMU1 initialised", "EKF3 IMU1 tilt alignment complete"]}
{"timestamp": "2025-12-27T08:04:08.812672Z", "telemetry": {"lat": 28.7527682, "lon": 77.1179789, "satellites": 4, "altitude_gps_m": 195.72999572753906, "groundspeed_mps": 0.24781373143196106}, "flight": {"mode": "STABILIZE", "armed": false}, "ekf": {"attitude": {"roll": -0.19293811917304993, "pitch": -0.5557937622070312, "yaw": -0.041718557476997375}, "local_position": {"x": null, "y": null, "z": null}, "status": {"flags": 135, "velocity_variance": 0.0, "pos_horiz_variance": 0.04678437486290932, "pos_vert_variance": 0.04705541208386421}}, "errors": ["PreArm: Hardware safety switch", "PreArm: Gyros inconsistent", "EKF3 IMU1 forced reset", "EKF3 IMU1 initialised", "EKF3 IMU1 tilt alignment complete"]}
{"timestamp": "2025-12-27T08:04:09.818040Z", "telemetry": {"lat": 28.7527753, "lon": 77.1179773, "satellites": 4, "altitude_gps_m": 196.09999084472656, "groundspeed_mps": 0.3136102557182312}, "flight": {"mode": "STABILIZE", "armed": false}, "ekf": {"attitude": {"roll": -0.11223970353603363, "pitch": -0.4903949201107025, "yaw": -0.00132209830917418}, "local_position": {"x": null, "y": null, "z": null}, "status": {"flags": 135, "velocity_variance": 0.0, "pos_horiz_variance": 0.0642392709851265, "pos_vert_variance": 0.011668197810649872}}, "errors": ["PreArm: Hardware safety switch", "PreArm: Gyros inconsistent", "EKF3 IMU1 forced reset", "EKF3 IMU1 initialised", "EKF3 IMU1 tilt alignment complete"]}
{"timestamp": "2025-12-27T08:04:10.813078Z", "telemetry": {"lat": 28.7527807, "lon": 77.1179682, "satellites": 4, "altitude_gps_m": 198.7899932861328, "groundspeed_mps": 0.19225488603115082}, "flight": {"mode": "STABILIZE", "armed": false}, "ekf": {"attitude": {"roll": -0.08899250626564026, "pitch": -0.518467903137207, "yaw": 0.09285438060760498}, "local_position": {"x": null, "y": null, "z": null}, "status": {"flags": 135, "velocity_variance": 0.0, "pos_horiz_variance": 0.06331329047679901, "pos_vert_variance": 0.03196147456765175}}, "errors": ["PreArm: Hardware safety switch", "PreArm: Gyros inconsistent", "EKF3 IMU1 forced reset", "EKF3 IMU1 initialised", "EKF3 IMU1 tilt alignment complete"]}
{"timestamp": "2025-12-27T08:04:11.815935Z", "telemetry": {"lat": 28.7527887, "lon": 77.1179609, "satellites": 4, "altitude_gps_m": 201.44000244140625, "groundspeed_mps": 0.14241015911102295}, "flight": {"mode": "STABILIZE", "armed": false}, "ekf": {"attitude": {"roll": -0.1350334882736206, "pitch": -0.5442445278167725, "yaw": 0.1885189563035965}, "local_position": {"x": null, "y": null, "z": null}, "status": {"flags": 135, "velocity_variance": 0.0, "pos_horiz_variance": 0.04485606029629707, "pos_vert_variance": 0.07325388491153717}}, "errors": ["PreArm: Hardware safety switch", "PreArm: Gyros inconsistent", "EKF3 IMU1 forced reset", "EKF3 IMU1 initialised", "EKF3 IMU1 tilt alignment complete"]}
{"timestamp": "2025-12-27T08:04:12.813855Z", "telemetry": {"lat": 28.7527962, "lon": 77.1179532, "satellites": 4, "altitude_gps_m": 204.37998962402344, "groundspeed_mps": 0.13905419409275055}, "flight": {"mode": "STABILIZE", "armed": false}, "ekf": {"attitude": {"roll": -0.2673934996128082, "pitch": -0.5274247527122498, "yaw": 0.2674044370651245}, "local_position": {"x": null, "y": null, "z": null}, "status": {"flags": 135, "velocity_variance": 0.0, "pos_horiz_variance": 0.025480352342128754, "pos_vert_variance": 0.002129217842593789}}, "errors": ["PreArm: Hardware safety switch", "PreArm: Gyros inconsistent", "EKF3 IMU1 forced reset", "EKF3 IMU1 initialised", "EKF3 IMU1 tilt alignment complete"]}
{"timestamp": "2025-12-27T08:04:13.813491Z", "telemetry": {"lat": 28.7528057, "lon": 77.1179529, "satellites": 4, "altitude_gps_m": 203.11000061035156, "groundspeed_mps": 0.2051079273223877}, "flight": {"mode": "STABILIZE", "armed": false}, "ekf": {"attitude": {"roll": -0.2124432921409607, "pitch": -0.5332500338554382, "yaw": 0.18824492394924164}, "local_position": {"x": null, "y": null, "z": null}, "status": {"flags": 135, "velocity_variance": 0.0, "pos_horiz_variance": 0.010686705820262432, "pos_vert_variance": 0.011201435700058937}}, "errors": ["PreArm: Hardware safety switch", "PreArm: Gyros inconsistent", "EKF3 IMU1 forced reset", "EKF3 IMU1 initialised", "EKF3 IMU1 tilt alignment complete"]}
{"timestamp": "2025-12-27T08:04:14.813475Z", "telemetry": {"lat": 28.7528246, "lon": 77.1179574, "satellites": 4, "altitude_gps_m": 202.5500030517578, "groundspeed_mps": 0.2587701082229614}, "flight": {"mode": "STABILIZE", "armed": false}, "ekf": {"attitude": {"roll": -0.2051057517528534, "pitch": -0.5834081768989563, "yaw": 0.10646218806505203}, "local_position": {"x": null, "y": null, "z": null}, "status": {"flags": 135, "velocity_variance": 0.0, "pos_horiz_variance": 0.008875589817762375, "pos_vert_variance": 0.028777990490198135}}, "errors": ["PreArm: Hardware safety switch", "PreArm: Gyros inconsistent", "EKF3 IMU1 forced reset", "EKF3 IMU1 initialised", "EKF3 IMU1 tilt alignment complete"]}
{"timestamp": "2025-12-27T08:04:15.813235Z", "telemetry": {"lat": 28.7528384, "lon": 77.1179534, "satellites": 4, "altitude_gps_m": 202.80999755859375, "groundspeed_mps": 0.16409426927566528}, "flight": {"mode": "STABILIZE", "armed": false}, "ekf": {"attitude": {"roll": -0.22080013155937195, "pitch": -0.5615394711494446, "yaw": 0.08077245950698853}, "local_position": {"x": null, "y": null, "z": null}, "status": {"flags": 135, "velocity_variance": 0.0, "pos_horiz_variance": 0.022612880915403366, "pos_vert_variance": 0.03182648867368698}}, "errors": ["PreArm: Hardware safety switch", "PreArm: Gyros inconsistent", "EKF3 IMU1 forced reset", "EKF3 IMU1 initialised", "EKF3 IMU1 tilt alignment complete"]}
{"timestamp": "2025-12-27T08:04:16.813403Z", "telemetry": {"lat": 28.75285, "lon": 77.1179502, "satellites": 4, "altitude_gps_m": 202.69000244140625, "groundspeed_mps": 0.25996553897857666}, "flight": {"mode": "STABILIZE", "armed": false}, "ekf": {"attitude": {"roll": -0.11466872692108154, "pitch": -0.502086341381073, "yaw": -0.3504341244697571}, "local_position": {"x": null, "y": null, "z": null}, "status": {"flags": 135, "velocity_variance": 0.0, "pos_horiz_variance": 0.027247706428170204, "pos_vert_variance": 0.02375238761305809}}, "errors": ["PreArm: Hardware safety switch", "PreArm: Gyros inconsistent", "EKF3 IMU1 forced reset", "EKF3 IMU1 initialised", "EKF3 IMU1 tilt alignment complete"]}
