{"timestamp": "2025-12-28T10:31:59.868391Z", "telemetry": {"lat": 28.753208, "lon": 77.1177189, "satellites": 10, "altitude_gps_m": 212.88999938964844, "groundspeed_mps": 0.17285287380218506}, "flight": {"mode": "STABILIZE", "armed": false}, "ekf": {"attitude": {"roll": -0.029406603425741196, "pitch": -0.006926197092980146, "yaw": 3.0463545322418213}, "local_position": {"x": 14.749327659606934, "y": -15.558208465576172, "z": -3.9834823608398438}, "status": {"flags": 33599, "velocity_variance": 0.0848160907626152, "pos_horiz_variance": 0.007122518494725227, "pos_vert_variance": 0.029365289956331253}}, "errors": []}
{"timestamp": "2025-12-28T10:32:00.868811Z", "telemetry": {"lat": 28.7532066, "lon": 77.1177187, "satellites": 10, "altitude_gps_m": 212.7899932861328, "groundspeed_mps": 0.15754041075706482}, "flight": {"mode": "STABILIZE", "armed": false}, "ekf": {"attitude": {"roll": -0.030287105590105057, "pitch": -0.0066228932701051235, "yaw": 3.0463104248046875}, "local_position": {"x": 14.697380065917969, "y": -15.520705223083496, "z": -3.8823888301849365}, "status": {"flags": 33599, "velocity_variance": 0.10189438611268997, "pos_horiz_variance": 0.007290306501090527, "pos_vert_variance": 0.0686032846570015}}, "errors": []}
{"timestamp": "2025-12-28T10:32:01.867962Z", "telemetry": {"lat": 28.7532052, "lon": 77.1177194, "satellites": 10, "altitude_gps_m": 212.79998779296875, "groundspeed_mps": 0.1530528962612152}, "flight": {"mode": "STABILIZE", "armed": false}, "ekf": {"attitude": {"roll": -0.03059173747897148, "pitch": -0.006431703921407461, "yaw": 3.0463268756866455}, "local_position": {"x": 14.595148086547852, "y": -15.509568214416504, "z": -3.879242420196533}, "status": {"flags": 33599, "velocity_variance": 0.13184550404548645, "pos_horiz_variance": 0.009101935662329197, "pos_vert_variance": 0.024554675444960594}}, "errors": ["PreArm: Hardware safety switch", "PreArm: Internal errors 0x100000 l:66 flow_of_ctrl"]}
{"timestamp": "2025-12-28T10:32:02.868113Z", "telemetry": {"lat": 28.7532035, "lon": 77.11772, "satellites": 10, "altitude_gps_m": 212.8699951171875, "groundspeed_mps": 0.15710382163524628}, "flight": {"mode": "STABILIZE", "armed": false}, "ekf": {"attitude": {"roll": -0.030809100717306137, "pitch": -0.0061172242276370525, "yaw": 3.0462100505828857}, "local_position": {"x": 14.421453475952148, "y": -15.492197036743164, "z": -3.9317779541015625}, "status": {"flags": 33599, "velocity_variance": 0.13466064631938934, "pos_horiz_variance": 0.010464398190379143, "pos_vert_variance": 0.010636544786393642}}, "errors": ["PreArm: Hardware safety switch", "PreArm: Internal errors 0x100000 l:66 flow_of_ctrl"]}
{"timestamp": "2025-12-28T10:32:03.868116Z", "telemetry": {"lat": 28.7532018, "lon": 77.1177219, "satellites": 10, "altitude_gps_m": 212.8199920654297, "groundspeed_mps": 0.18044084310531616}, "flight": {"mode": "STABILIZE", "armed": false}, "ekf": {"attitude": {"roll": -0.03147057071328163, "pitch": -0.0067204865626990795, "yaw": 3.0460472106933594}, "local_position": {"x": 14.255095481872559, "y": -15.420693397521973, "z": -3.9154446125030518}, "status": {"flags": 33599, "velocity_variance": 0.14888934791088104, "pos_horiz_variance": 0.01324787549674511, "pos_vert_variance": 0.017496680840849876}}, "errors": ["PreArm: Hardware safety switch", "PreArm: Internal errors 0x100000 l:66 flow_of_ctrl"]}
{"timestamp": "2025-12-28T10:32:04.867946Z", "telemetry": {"lat": 28.7531993, "lon": 77.1177235, "satellites": 10, "altitude_gps_m": 212.79998779296875, "groundspeed_mps": 0.19650864601135254}, "flight": {"mode": "STABILIZE", "armed": false}, "ekf": {"attitude": {"roll": -0.031774651259183884, "pitch": -0.006771840620785952, "yaw": 3.0460610389709473}, "local_position": {"x": 13.995990753173828, "y": -15.277349472045898, "z": -3.8687644004821777}, "status": {"flags": 33599, "velocity_variance": 0.2413378804922104, "pos_horiz_variance": 0.014345072209835052, "pos_vert_variance": 0.012471306137740612}}, "errors": ["PreArm: Hardware safety switch", "PreArm: Internal errors 0x100000 l:66 flow_of_ctrl"]}
{"timestamp": "2025-12-28T10:32:05.872371Z", "telemetry": {"lat": 28.7531983, "lon": 77.1177239, "satellites": 10, "altitude_gps_m": 212.77999877929688, "groundspeed_mps": 0.1528453677892685}, "flight": {"mode": "STABILIZE", "armed": false}, "ekf": {"attitude": {"roll": -0.03180042281746864, "pitch": -0.005831521470099688, "yaw": 3.0460944175720215}, "local_position": {"x": 13.950672149658203, "y": -15.17381763458252, "z": -3.858064889907837}, "status": {"flags": 33599, "velocity_variance": 0.1149025484919548, "pos_horiz_variance": 0.014255138114094734, "pos_vert_variance": 0.01544035505503416}}, "errors": ["PreArm: Hardware safety switch", "PreArm: Internal errors 0x100000 l:66 flow_of_ctrl"]}
{"timestamp": "2025-12-28T10:32:06.868742Z", "telemetry": {"lat": 28.7531976, "lon": 77.1177267, "satellites": 10, "altitude_gps_m": 212.76998901367188, "groundspeed_mps": 0.15129214525222778}, "flight": {"mode": "STABILIZE", "armed": false}, "ekf": {"attitude": {"roll": -0.03201081231236458, "pitch": -0.005682698916643858, "yaw": 3.046041488647461}, "local_position": {"x": 13.798791885375977, "y": -15.095775604248047, "z": -3.844904899597168}, "status": {"flags": 33599, "velocity_variance": 0.1474427729845047, "pos_horiz_variance": 0.0177150908857584, "pos_vert_variance": 0.04101020470261574}}, "errors": ["PreArm: Hardware safety switch", "PreArm: Internal errors 0x100000 l:66 flow_of_ctrl"]}
{"timestamp": "2025-12-28T10:32:07.868073Z", "telemetry": {"lat": 28.7531977, "lon": 77.1177294, "satellites": 10, "altitude_gps_m": 212.8199920654297, "groundspeed_mps": 0.11300458759069443}, "flight": {"mode": "STABILIZE", "armed": false}, "ekf": {"attitude": {"roll": -0.032758768647909164, "pitch": -0.004446594510227442, "yaw": 3.0459961891174316}, "local_position": {"x": 13.825250625610352, "y": -14.839310646057129, "z": -3.8931591510772705}, "status": {"flags": 33599, "velocity_variance": 0.13885003328323364, "pos_horiz_variance": 0.01840173825621605, "pos_vert_variance": 0.03991205617785454}}, "errors": ["PreArm: Hardware safety switch", "PreArm: Internal errors 0x100000 l:66 flow_of_ctrl"]}
{"timestamp": "2025-12-28T10:32:08.868493Z", "telemetry": {"lat": 28.7531951, "lon": 77.117731, "satellites": 10, "altitude_gps_m": 212.88999938964844, "groundspeed_mps": 0.11786235868930817}, "flight": {"mode": "STABILIZE", "armed": false}, "ekf": {"attitude": {"roll": -0.032729100435972214, "pitch": -0.004409936722368002, "yaw": 3.046194076538086}, "local_position": {"x": 13.699324607849121, "y": -14.673099517822266, "z": -3.9633708000183105}, "status": {"flags": 33599, "velocity_variance": 0.09576790034770966, "pos_horiz_variance": 0.020212572067975998, "pos_vert_variance": 0.029388470575213432}}, "errors": ["PreArm: Hardware safety switch", "PreArm: Internal errors 0x100000 l:66 flow_of_ctrl"]}
{"timestamp": "2025-12-28T10:32:09.867998Z", "telemetry": {"lat": 28.7531925, "lon": 77.1177331, "satellites": 10, "altitude_gps_m": 212.92999267578125, "groundspeed_mps": 0.13919983804225922}, "flight": {"mode": "STABILIZE", "armed": false}, "ekf": {"attitude": {"roll": -0.03255144879221916, "pitch": -0.0045853410847485065, "yaw": 3.0461838245391846}, "local_position": {"x": 13.467912673950195, "y": -14.529739379882812, "z": -4.003040790557861}, "status": {"flags": 33599, "velocity_variance": 0.12321494519710541, "pos_horiz_variance": 0.022532247006893158, "pos_vert_variance": 0.03637300431728363}}, "errors": ["PreArm: Hardware safety switch", "PreArm: Internal errors 0x100000 l:66 flow_of_ctrl"]}
{"timestamp": "2025-12-28T10:32:10.868119Z", "telemetry": {"lat": 28.7531901, "lon": 77.1177356, "satellites": 10, "altitude_gps_m": 212.94000244140625, "groundspeed_mps": 0.1396525353193283}, "flight": {"mode": "STABILIZE", "armed": false}, "ekf": {"attitude": {"roll": -0.03237677738070488, "pitch": -0.004405078012496233, "yaw": 3.0462348461151123}, "local_position": {"x": 13.269522666931152, "y": -14.38929271697998, "z": -4.015935897827148}, "status": {"flags": 33599, "velocity_variance": 0.17407752573490143, "pos_horiz_variance": 0.026054592803120613, "pos_vert_variance": 0.0503569133579731}}, "errors": ["PreArm: Hardware safety switch", "PreArm: Internal errors 0x100000 l:66 flow_of_ctrl"]}
{"timestamp": "2025-12-28T10:32:11.868493Z", "telemetry": {"lat": 28.753188, "lon": 77.1177365, "satellites": 10, "altitude_gps_m": 212.95999145507812, "groundspeed_mps": 0.1538570672273636}, "flight": {"mode": "STABILIZE", "armed": false}, "ekf": {"attitude": {"roll": -0.0322454459965229, "pitch": -0.004369205329567194, "yaw": 3.045985460281372}, "local_position": {"x": 13.026239395141602, "y": -14.216461181640625, "z": -4.036032199859619}, "status": {"flags": 33599, "velocity_variance": 0.10810259729623795, "pos_horiz_variance": 0.024205250665545464, "pos_vert_variance": 0.034732967615127563}}, "errors": ["PreArm: Hardware safety switch", "PreArm: Internal errors 0x100000 l:66 flow_of_ctrl"]}
{"timestamp": "2025-12-28T10:32:12.867946Z", "telemetry": {"lat": 28.7531875, "lon": 77.1177384, "satellites": 10, "altitude_gps_m": 212.989990234375, "groundspeed_mps": 0.13202843070030212}, "flight": {"mode": "STABILIZE", "armed": false}, "ekf": {"attitude": {"roll": -0.03212418034672737, "pitch": -0.004083878826349974, "yaw": 3.0459938049316406}, "local_position": {"x": 12.904560089111328, "y": -14.064582824707031, "z": -4.062584400177002}, "status": {"flags": 33599, "velocity_variance": 0.14512205123901367, "pos_horiz_variance": 0.02344566397368908, "pos_vert_variance": 0.022731322795152664}}, "errors": ["PreArm: Hardware safety switch", "PreArm: Internal errors 0x100000 l:66 flow_of_ctrl"]}
{"timestamp": "2025-12-28T10:32:13.868814Z", "telemetry": {"lat": 28.7531844, "lon": 77.1177385, "satellites": 9, "altitude_gps_m": 213.0, "groundspeed_mps": 0.13130785524845123}, "flight": {"mode": "STABILIZE", "armed": false}, "ekf": {"attitude": {"roll": -0.03150171414017677, "pitch": -0.004230575170367956, "yaw": 3.0459835529327393}, "local_position": {"x": 12.680423736572266, "y": -13.96921157836914, "z": -4.078474521636963}, "status": {"flags": 33599, "velocity_variance": 0.03962748497724533, "pos_horiz_variance": 0.023577606305480003, "pos_vert_variance": 0.007049304898828268}}, "errors": ["PreArm: Hardware safety switch", "PreArm: Internal errors 0x100000 l:66 flow_of_ctrl"]}
{"timestamp": "2025-12-28T10:32:14.868614Z", "telemetry": {"lat": 28.7531808, "lon": 77.117739, "satellites": 10, "altitude_gps_m": 213.05999755859375, "groundspeed_mps": 0.14539696276187897}, "flight": {"mode": "STABILIZE", "armed": false}, "ekf": {"attitude": {"roll": -0.03138531371951103, "pitch": -0.004208289552479982, "yaw": 3.045889377593994}, "local_position": {"x": 12.444271087646484, "y": -13.803616523742676, "z": -4.112612724304199}, "status": {"flags": 33599, "velocity_variance": 0.046903155744075775, "pos_horiz_variance": 0.02550312876701355, "pos_vert_variance": 0.018516968935728073}}, "errors": ["PreArm: Hardware safety switch", "PreArm: Internal errors 0x100000 l:66 flow_of_ctrl"]}
{"timestamp": "2025-12-28T10:32:15.871766Z", "telemetry": {"lat": 28.7531762, "lon": 77.117737, "satellites": 10, "altitude_gps_m": 213.0800018310547, "groundspeed_mps": 0.16183015704154968}, "flight": {"mode": "STABILIZE", "armed": false}, "ekf": {"attitude": {"roll": -0.03108515962958336, "pitch": -0.004391558934003115, "yaw": 3.0459189414978027}, "local_position": {"x": 12.103435516357422, "y": -13.759917259216309, "z": -4.158499717712402}, "status": {"flags": 33599, "velocity_variance": 0.06051017716526985, "pos_horiz_variance": 0.027613826096057892, "pos_vert_variance": 0.03514624387025833}}, "errors": ["PreArm: Hardware safety switch", "PreArm: Internal errors 0x100000 l:66 flow_of_ctrl"]}
{"timestamp": "2025-12-28T10:32:16.868882Z", "telemetry": {"lat": 28.7531698, "lon": 77.1177327, "satellites": 10, "altitude_gps_m": 213.17999267578125, "groundspeed_mps": 0.22653163969516754}, "flight": {"mode": "STABILIZE", "armed": false}, "ekf": {"attitude": {"roll": -0.029666241258382797, "pitch": -0.00515417056158185, "yaw": 3.0459423065185547}, "local_position": {"x": 11.684272766113281, "y": -13.837708473205566, "z": -4.231652736663818}, "status": {"flags": 33599, "velocity_variance": 0.16573630273342133, "pos_horiz_variance": 0.03549974784255028, "pos_vert_variance": 0.060677845031023026}}, "errors": ["PreArm: Hardware safety switch", "PreArm: Internal errors 0x100000 l:66 flow_of_ctrl"]}
{"timestamp": "2025-12-28T10:32:17.868353Z", "telemetry": {"lat": 28.753164, "lon": 77.117729, "satellites": 10, "altitude_gps_m": 213.22999572753906, "groundspeed_mps": 0.29832640290260315}, "flight": {"mode": "STABILIZE", "armed": false}, "ekf": {"attitude": {"roll": -0.028669368475675583, "pitch": -0.005116699729114771, "yaw": 3.0458219051361084}, "local_position": {"x": 11.090038299560547, "y": -14.067719459533691, "z": -4.300875663757324}, "status": {"flags": 33599, "velocity_variance": 0.19233855605125427, "pos_horiz_variance": 0.03860810771584511, "pos_vert_variance": 0.06317954510450363}}, "errors": ["PreArm: Hardware safety switch", "PreArm: Internal errors 0x100000 l:66 flow_of_ctrl"]}
{"timestamp": "2025-12-28T10:32:18.868658Z", "telemetry": {"lat": 28.7531601, "lon": 77.1177243, "satellites": 10, "altitude_gps_m": 213.2899932861328, "groundspeed_mps": 0.3849687874317169}, "flight": {"mode": "STABILIZE", "armed": false}, "ekf": {"attitude": {"roll": -0.02718772366642952, "pitch": -0.00566135672852397, "yaw": 3.0457241535186768}, "local_position": {"x": 10.533293724060059, "y": -14.456877708435059, "z": -4.365032196044922}, "status": {"flags": 33599, "velocity_variance": 0.3914870321750641, "pos_horiz_variance": 0.03493577986955643, "pos_vert_variance": 0.007119353860616684}}, "errors": ["PreArm: Hardware safety switch", "PreArm: Internal errors 0x100000 l:66 flow_of_ctrl"]}
{"timestamp": "2025-12-28T10:32:19.867969Z", "telemetry": {"lat": 28.7531583, "lon": 77.1177234, "satellites": 9, "altitude_gps_m": 213.2899932861328, "groundspeed_mps": 0.4334658682346344}, "flight": {"mode": "STABILIZE", "armed": false}, "ekf": {"attitude": {"roll": -0.02702411636710167, "pitch": -0.005346789490431547, "yaw": 3.0456154346466064}, "local_position": {"x": 10.046517372131348, "y": -14.763460159301758, "z": -4.360339164733887}, "status": {"flags": 33599, "velocity_variance": 0.16108709573745728, "pos_horiz_variance": 0.02672906592488289, "pos_vert_variance": 0.050342194736003876}}, "errors": ["PreArm: Hardware safety switch", "PreArm: Internal errors 0x100000 l:66 flow_of_ctrl"]}
{"timestamp": "2025-12-28T10:32:20.868604Z", "telemetry": {"lat": 28.7531584, "lon": 77.1177259, "satellites": 9, "altitude_gps_m": 213.3300018310547, "groundspeed_mps": 0.4589798152446747}, "flight": {"mode": "STABILIZE", "armed": false}, "ekf": {"attitude": {"roll": -0.027186814695596695, "pitch": -0.005022379104048014, "yaw": 3.0454673767089844}, "local_position": {"x": 9.606034278869629, "y": -14.982789039611816, "z": -4.379708290100098}, "status": {"flags": 33599, "velocity_variance": 0.18874020874500275, "pos_horiz_variance": 0.016296714544296265, "pos_vert_variance": 0.0869736447930336}}, "errors": ["PreArm: Hardware safety switch", "PreArm: Internal errors 0x100000 l:66 flow_of_ctrl"]}
{"timestamp": "2025-12-28T10:32:21.867906Z", "telemetry": {"lat": 28.7531563, "lon": 77.1177258, "satellites": 10, "altitude_gps_m": 213.29998779296875, "groundspeed_mps": 0.45485720038414}, "flight": {"mode": "STABILIZE", "armed": false}, "ekf": {"attitude": {"roll": -0.027368348091840744, "pitch": -0.004414460156112909, "yaw": 3.0453624725341797}, "local_position": {"x": 9.289694786071777, "y": -15.14638614654541, "z": -4.374153137207031}, "status": {"flags": 33599, "velocity_variance": 0.1358950138092041, "pos_horiz_variance": 0.017764633521437645, "pos_vert_variance": 0.12085763365030289}}, "errors": ["PreArm: Hardware safety switch", "PreArm: Internal errors 0x100000 l:66 flow_of_ctrl"]}
{"timestamp": "2025-12-28T10:32:22.868760Z", "telemetry": {"lat": 28.7531559, "lon": 77.1177303, "satellites": 10, "altitude_gps_m": 213.26998901367188, "groundspeed_mps": 0.39913666248321533}, "flight": {"mode": "STABILIZE", "armed": false}, "ekf": {"attitude": {"roll": -0.02864653244614601, "pitch": -0.00395251763984561, "yaw": 3.045400619506836}, "local_position": {"x": 9.067431449890137, "y": -15.145662307739258, "z": -4.339817047119141}, "status": {"flags": 33599, "velocity_variance": 0.0782795324921608, "pos_horiz_variance": 0.02614567056298256, "pos_vert_variance": 0.06349517405033112}}, "errors": ["PreArm: Hardware safety switch", "PreArm: Internal errors 0x100000 l:66 flow_of_ctrl"]}
{"timestamp": "2025-12-28T10:32:23.868856Z", "telemetry": {"lat": 28.7531558, "lon": 77.1177344, "satellites": 10, "altitude_gps_m": 213.17999267578125, "groundspeed_mps": 0.307980477809906}, "flight": {"mode": "STABILIZE", "armed": false}, "ekf": {"attitude": {"roll": -0.02995103970170021, "pitch": -0.003235049080103636, "yaw": 3.0453503131866455}, "local_position": {"x": 8.903618812561035, "y": -14.940910339355469, "z": -4.258488655090332}, "status": {"flags": 33599, "velocity_variance": 0.1295507699251175, "pos_horiz_variance": 0.032798826694488525, "pos_vert_variance": 0.0767788216471672}}, "errors": ["PreArm: Hardware safety switch", "PreArm: Internal errors 0x100000 l:66 flow_of_ctrl"]}
{"timestamp": "2025-12-28T10:32:24.868635Z", "telemetry": {"lat": 28.7531551, "lon": 77.1177366, "satellites": 10, "altitude_gps_m": 213.14999389648438, "groundspeed_mps": 0.2029898315668106}, "flight": {"mode": "STABILIZE", "armed": false}, "ekf": {"attitude": {"roll": -0.031085316091775894, "pitch": -0.0022645252756774426, "yaw": 3.0454020500183105}, "local_position": {"x": 8.864197731018066, "y": -14.704344749450684, "z": -4.2228217124938965}, "status": {"flags": 33599, "velocity_variance": 0.15716539323329926, "pos_horiz_variance": 0.032999780029058456, "pos_vert_variance": 0.02417299710214138}}, "errors": ["PreArm: Hardware safety switch", "PreArm: Internal errors 0x100000 l:66 flow_of_ctrl"]}
{"timestamp": "2025-12-28T10:32:25.868079Z", "telemetry": {"lat": 28.7531569, "lon": 77.1177402, "satellites": 10, "altitude_gps_m": 213.0800018310547, "groundspeed_mps": 0.07708224654197693}, "flight": {"mode": "STABILIZE", "armed": false}, "ekf": {"attitude": {"roll": -0.03259819373488426, "pitch": -0.0011181817390024662, "yaw": 3.045503854751587}, "local_position": {"x": 8.92842960357666, "y": -14.345744132995605, "z": -4.148366451263428}, "status": {"flags": 33599, "velocity_variance": 0.2834027111530304, "pos_horiz_variance": 0.033239368349313736, "pos_vert_variance": 0.01460330467671156}}, "errors": ["PreArm: Hardware safety switch", "PreArm: Internal errors 0x100000 l:66 flow_of_ctrl"]}
{"timestamp": "2025-12-28T10:32:26.871671Z", "telemetry": {"lat": 28.7531596, "lon": 77.1177476, "satellites": 10, "altitude_gps_m": 213.0399932861328, "groundspeed_mps": 0.1320231407880783}, "flight": {"mode": "STABILIZE", "armed": false}, "ekf": {"attitude": {"roll": -0.03467830643057823, "pitch": 0.00029330886900424957, "yaw": 3.0456175804138184}, "local_position": {"x": 9.16090202331543, "y": -13.912617683410645, "z": -4.130988121032715}, "status": {"flags": 33599, "velocity_variance": 0.24439136683940887, "pos_horiz_variance": 0.042239364236593246, "pos_vert_variance": 0.01311543770134449}}, "errors": ["PreArm: Hardware safety switch", "PreArm: Internal errors 0x100000 l:66 flow_of_ctrl"]}
{"timestamp": "2025-12-28T10:32:27.868718Z", "telemetry": {"lat": 28.7531617, "lon": 77.117753, "satellites": 10, "altitude_gps_m": 212.92999267578125, "groundspeed_mps": 0.28397709131240845}, "flight": {"mode": "STABILIZE", "armed": false}, "ekf": {"attitude": {"roll": -0.03614461049437523, "pitch": 0.0009752628393471241, "yaw": 3.045930862426758}, "local_position": {"x": 9.444709777832031, "y": -13.30807876586914, "z": -4.011753559112549}, "status": {"flags": 33599, "velocity_variance": 0.3111197054386139, "pos_horiz_variance": 0.040581114590168, "pos_vert_variance": 0.0005934325745329261}}, "errors": ["PreArm: Hardware safety switch", "PreArm: Internal errors 0x100000 l:66 flow_of_ctrl"]}
{"timestamp": "2025-12-28T10:32:28.869796Z", "telemetry": {"lat": 28.7531605, "lon": 77.1177557, "satellites": 10, "altitude_gps_m": 212.88999938964844, "groundspeed_mps": 0.34547311067581177}, "flight": {"mode": "STABILIZE", "armed": false}, "ekf": {"attitude": {"roll": -0.0364881195127964, "pitch": 0.00093464320525527, "yaw": 3.045919179916382}, "local_position": {"x": 9.527789115905762, "y": -12.778511047363281, "z": -3.966996192932129}, "status": {"flags": 33599, "velocity_variance": 0.15984489023685455, "pos_horiz_variance": 0.033607322722673416, "pos_vert_variance": 0.004945869091898203}}, "errors": ["PreArm: Hardware safety switch", "PreArm: Internal errors 0x100000 l:66 flow_of_ctrl"]}
{"timestamp": "2025-12-28T10:32:29.868414Z", "telemetry": {"lat": 28.7531603, "lon": 77.1177578, "satellites": 10, "altitude_gps_m": 212.989990234375, "groundspeed_mps": 0.4262799620628357}, "flight": {"mode": "STABILIZE", "armed": false}, "ekf": {"attitude": {"roll": -0.036704178899526596, "pitch": 0.000841592438519001, "yaw": 3.0462160110473633}, "local_position": {"x": 9.700201034545898, "y": -12.258164405822754, "z": -4.061545372009277}, "status": {"flags": 33599, "velocity_variance": 0.12568703293800354, "pos_horiz_variance": 0.025645524263381958, "pos_vert_variance": 0.024265501648187637}}, "errors": ["PreArm: Hardware safety switch", "PreArm: Internal errors 0x100000 l:66 flow_of_ctrl"]}
{"timestamp": "2025-12-28T10:32:30.868206Z", "telemetry": {"lat": 28.7531622, "lon": 77.1177643, "satellites": 10, "altitude_gps_m": 212.989990234375, "groundspeed_mps": 0.5275024771690369}, "flight": {"mode": "STABILIZE", "armed": false}, "ekf": {"attitude": {"roll": -0.03738972917199135, "pitch": 0.0007903515361249447, "yaw": 3.0464694499969482}, "local_position": {"x": 9.8448486328125, "y": -11.67829418182373, "z": -4.062560081481934}, "status": {"flags": 33599, "velocity_variance": 0.09345285594463348, "pos_horiz_variance": 0.02672366052865982, "pos_vert_variance": 0.042011406272649765}}, "errors": ["PreArm: Hardware safety switch", "PreArm: Internal errors 0x100000 l:66 flow_of_ctrl"]}
{"timestamp": "2025-12-28T10:32:31.868299Z", "telemetry": {"lat": 28.7531618, "lon": 77.1177654, "satellites": 10, "altitude_gps_m": 212.97000122070312, "groundspeed_mps": 0.5650576949119568}, "flight": {"mode": "STABILIZE", "armed": false}, "ekf": {"attitude": {"roll": -0.03736168518662453, "pitch": 0.0005011227913200855, "yaw": 3.046565294265747}, "local_position": {"x": 10.00418758392334, "y": -11.113259315490723, "z": -4.042224884033203}, "status": {"flags": 33599, "velocity_variance": 0.2168518751859665, "pos_horiz_variance": 0.017114294692873955, "pos_vert_variance": 0.01739492639899254}}, "errors": ["PreArm: Hardware safety switch", "PreArm: Internal errors 0x100000 l:66 flow_of_ctrl", "PreArm: Hardware safety switch", "PreArm: Internal errors 0x100000 l:66 flow_of_ctrl"]}
{"timestamp": "2025-12-28T10:32:32.868042Z", "telemetry": {"lat": 28.7531625, "lon": 77.1177692, "satellites": 10, "altitude_gps_m": 212.9499969482422, "groundspeed_mps": 0.5642032027244568}, "flight": {"mode": "STABILIZE", "armed": false}, "ekf": {"attitude": {"roll": -0.03668271377682686, "pitch": -2.3131724447011948e-05, "yaw": 3.0467617511749268}, "local_position": {"x": 10.100907325744629, "y": -10.724939346313477, "z": -4.029501438140869}, "status": {"flags": 33599, "velocity_variance": 0.13476736843585968, "pos_horiz_variance": 0.016918430104851723, "pos_vert_variance": 0.005391559097915888}}, "errors": ["PreArm: Hardware safety switch", "PreArm: Internal errors 0x100000 l:66 flow_of_ctrl", "PreArm: Hardware safety switch", "PreArm: Internal errors 0x100000 l:66 flow_of_ctrl"]}
{"timestamp": "2025-12-28T10:32:33.868823Z", "telemetry": {"lat": 28.753164, "lon": 77.1177732, "satellites": 10, "altitude_gps_m": 212.94000244140625, "groundspeed_mps": 0.5437979698181152}, "flight": {"mode": "STABILIZE", "armed": false}, "ekf": {"attitude": {"roll": -0.035866279155015945, "pitch": -0.0006729192100465298, "yaw": 3.046922206878662}, "local_position": {"x": 10.146254539489746, "y": -10.37816333770752, "z": -4.017307281494141}, "status": {"flags": 33599, "velocity_variance": 0.10253725945949554, "pos_horiz_variance": 0.01605069637298584, "pos_vert_variance": 0.005142313428223133}}, "errors": ["PreArm: Hardware safety switch", "PreArm: Internal errors 0x100000 l:66 flow_of_ctrl", "PreArm: Hardware safety switch", "PreArm: Internal errors 0x100000 l:66 flow_of_ctrl"]}
{"timestamp": "2025-12-28T10:32:34.868334Z", "telemetry": {"lat": 28.7531644, "lon": 77.1177774, "satellites": 10, "altitude_gps_m": 212.89999389648438, "groundspeed_mps": 0.5437346696853638}, "flight": {"mode": "STABILIZE", "armed": false}, "ekf": {"attitude": {"roll": -0.03549553081393242, "pitch": -0.001397386658936739, "yaw": 3.046992301940918}, "local_position": {"x": 10.241931915283203, "y": -9.926319122314453, "z": -3.976219654083252}, "status": {"flags": 33599, "velocity_variance": 0.11574173718690872, "pos_horiz_variance": 0.014906407333910465, "pos_vert_variance": 0.02353011444211006}}, "errors": ["PreArm: Hardware safety switch", "PreArm: Internal errors 0x100000 l:66 flow_of_ctrl", "PreArm: Hardware safety switch", "PreArm: Internal errors 0x100000 l:66 flow_of_ctrl"]}
{"timestamp": "2025-12-28T10:32:35.873691Z", "telemetry": {"lat": 28.7531638, "lon": 77.1177819, "satellites": 10, "altitude_gps_m": 212.88999938964844, "groundspeed_mps": 0.5225013494491577}, "flight": {"mode": "STABILIZE", "armed": false}, "ekf": {"attitude": {"roll": -0.03491156920790672, "pitch": -0.002383866813033819, "yaw": 3.047203540802002}, "local_position": {"x": 10.206568717956543, "y": -9.485655784606934, "z": -3.966646909713745}, "status": {"flags": 33599, "velocity_variance": 0.4917740821838379, "pos_horiz_variance": 0.01596277765929699, "pos_vert_variance": 0.07078545540571213}}, "errors": ["PreArm: Hardware safety switch", "PreArm: Internal errors 0x100000 l:66 flow_of_ctrl", "PreArm: Hardware safety switch", "PreArm: Internal errors 0x100000 l:66 flow_of_ctrl"]}
{"timestamp": "2025-12-28T10:32:36.871139Z", "telemetry": {"lat": 28.7531629, "lon": 77.117783, "satellites": 10, "altitude_gps_m": 212.84999084472656, "groundspeed_mps": 0.4565449655056}, "flight": {"mode": "STABILIZE", "armed": false}, "ekf": {"attitude": {"roll": -0.03367210552096367, "pitch": -0.003246274311095476, "yaw": 3.0471715927124023}, "local_position": {"x": 10.11791706085205, "y": -9.153651237487793, "z": -3.9322316646575928}, "status": {"flags": 33599, "velocity_variance": 0.17574036121368408, "pos_horiz_variance": 0.012310775928199291, "pos_vert_variance": 0.06135598570108414}}, "errors": ["PreArm: Hardware safety switch", "PreArm: Internal errors 0x100000 l:66 flow_of_ctrl", "PreArm: Hardware safety switch", "PreArm: Internal errors 0x100000 l:66 flow_of_ctrl"]}
{"timestamp": "2025-12-28T10:32:37.871669Z", "telemetry": {"lat": 28.753165, "lon": 77.1177843, "satellites": 9, "altitude_gps_m": 212.87998962402344, "groundspeed_mps": 0.4287983477115631}, "flight": {"mode": "STABILIZE", "armed": false}, "ekf": {"attitude": {"roll": -0.03280038759112358, "pitch": -0.0027416092343628407, "yaw": 3.04706072807312}, "local_position": {"x": 10.27376937866211, "y": -8.90944766998291, "z": -3.952205181121826}, "status": {"flags": 33599, "velocity_variance": 0.3163262903690338, "pos_horiz_variance": 0.009929771535098553, "pos_vert_variance": 0.0347718745470047}}, "errors": ["PreArm: Hardware safety switch", "PreArm: Internal errors 0x100000 l:66 flow_of_ctrl", "PreArm: Hardware safety switch", "PreArm: Internal errors 0x100000 l:66 flow_of_ctrl"]}
{"timestamp": "2025-12-28T10:32:38.867901Z", "telemetry": {"lat": 28.753166, "lon": 77.1177864, "satellites": 9, "altitude_gps_m": 212.94000244140625, "groundspeed_mps": 0.36532482504844666}, "flight": {"mode": "STABILIZE", "armed": false}, "ekf": {"attitude": {"roll": -0.03177301958203316, "pitch": -0.003262861166149378, "yaw": 3.04697585105896}, "local_position": {"x": 10.248759269714355, "y": -8.709551811218262, "z": -4.014629364013672}, "status": {"flags": 33599, "velocity_variance": 0.06351041048765182, "pos_horiz_variance": 0.006161248777061701, "pos_vert_variance": 0.025317614898085594}}, "errors": ["PreArm: Hardware safety switch", "PreArm: Internal errors 0x100000 l:66 flow_of_ctrl", "PreArm: Hardware safety switch", "PreArm: Internal errors 0x100000 l:66 flow_of_ctrl"]}
{"timestamp": "2025-12-28T10:32:39.868343Z", "telemetry": {"lat": 28.7531682, "lon": 77.1177862, "satellites": 9, "altitude_gps_m": 212.92999267578125, "groundspeed_mps": 0.3364744484424591}, "flight": {"mode": "STABILIZE", "armed": false}, "ekf": {"attitude": {"roll": -0.03101808950304985, "pitch": -0.0027546402998268604, "yaw": 3.047043561935425}, "local_position": {"x": 10.46613597869873, "y": -8.533533096313477, "z": -4.008806228637695}, "status": {"flags": 33599, "velocity_variance": 0.18730321526527405, "pos_horiz_variance": 0.006734765134751797, "pos_vert_variance": 0.00276811677031219}}, "errors": ["PreArm: Hardware safety switch", "PreArm: Internal errors 0x100000 l:66 flow_of_ctrl", "PreArm: Hardware safety switch", "PreArm: Internal errors 0x100000 l:66 flow_of_ctrl"]}
{"timestamp": "2025-12-28T10:32:40.868074Z", "telemetry": {"lat": 28.7531701, "lon": 77.1177891, "satellites": 9, "altitude_gps_m": 213.00999450683594, "groundspeed_mps": 0.27904146909713745}, "flight": {"mode": "STABILIZE", "armed": false}, "ekf": {"attitude": {"roll": -0.029957566410303116, "pitch": -0.0028120330534875393, "yaw": 3.046947717666626}, "local_position": {"x": 10.546943664550781, "y": -8.434131622314453, "z": -4.075648784637451}, "status": {"flags": 33599, "velocity_variance": 0.19789297878742218, "pos_horiz_variance": 0.0006167850224301219, "pos_vert_variance": 0.012479811906814575}}, "errors": ["PreArm: Hardware safety switch", "PreArm: Internal errors 0x100000 l:66 flow_of_ctrl", "PreArm: Hardware safety switch", "PreArm: Internal errors 0x100000 l:66 flow_of_ctrl"]}
