{"timestamp": "2025-12-28T08:35:26.399888Z", "telemetry": {"lat": 28.7530402, "lon": 77.1178368, "satellites": 7, "altitude_gps_m": 217.59999084472656, "groundspeed_mps": 0.2512756288051605}, "flight": {"mode": null, "armed": null}, "ekf": {"attitude": {"roll": 0.01876554824411869, "pitch": 0.02849527820944786, "yaw": 0.269464910030365}, "local_position": {"x": -7.160709857940674, "y": -2.8421545028686523, "z": -0.1957695484161377}, "status": {"flags": 33599, "velocity_variance": 0.3820062577724457, "pos_horiz_variance": 0.004726592916995287, "pos_vert_variance": 0.04585767537355423}}, "errors": []}
{"timestamp": "2025-12-28T08:35:27.368359Z", "telemetry": {"lat": 28.753041, "lon": 77.117842, "satellites": 7, "altitude_gps_m": 217.58999633789062, "groundspeed_mps": 0.2809099555015564}, "flight": {"mode": "STABILIZE", "armed": false}, "ekf": {"attitude": {"roll": 0.01964632235467434, "pitch": 0.028407448902726173, "yaw": 0.26936209201812744}, "local_position": {"x": -6.812725067138672, "y": -2.7157015800476074, "z": -0.2035365104675293}, "status": {"flags": 33599, "velocity_variance": 0.17463797330856323, "pos_horiz_variance": 0.01105930283665657, "pos_vert_variance": 0.04282127320766449}}, "errors": []}
{"timestamp": "2025-12-28T08:35:28.373548Z", "telemetry": {"lat": 28.7530368, "lon": 77.1178431, "satellites": 7, "altitude_gps_m": 217.5699920654297, "groundspeed_mps": 0.23509228229522705}, "flight": {"mode": "STABILIZE", "armed": false}, "ekf": {"attitude": {"roll": 0.02072194218635559, "pitch": 0.029232734814286232, "yaw": 0.26933619379997253}, "local_position": {"x": -6.93046236038208, "y": -2.466454267501831, "z": -0.17096352577209473}, "status": {"flags": 33599, "velocity_variance": 0.34657394886016846, "pos_horiz_variance": 0.013614006340503693, "pos_vert_variance": 0.03262459486722946}}, "errors": []}
{"timestamp": "2025-12-28T08:35:29.372809Z", "telemetry": {"lat": 28.7530354, "lon": 77.1178466, "satellites": 7, "altitude_gps_m": 217.5800018310547, "groundspeed_mps": 0.22592279314994812}, "flight": {"mode": "STABILIZE", "armed": false}, "ekf": {"attitude": {"roll": 0.021561231464147568, "pitch": 0.029536321759223938, "yaw": 0.2692875862121582}, "local_position": {"x": -6.965670108795166, "y": -2.211632013320923, "z": -0.20132911205291748}, "status": {"flags": 33599, "velocity_variance": 0.3811618983745575, "pos_horiz_variance": 0.015985820442438126, "pos_vert_variance": 0.04923311620950699}}, "errors": []}
{"timestamp": "2025-12-28T08:35:30.371652Z", "telemetry": {"lat": 28.7530293, "lon": 77.1178531, "satellites": 7, "altitude_gps_m": 217.5699920654297, "groundspeed_mps": 0.1985759735107422}, "flight": {"mode": "STABILIZE", "armed": false}, "ekf": {"attitude": {"roll": 0.022289041429758072, "pitch": 0.03018626943230629, "yaw": 0.26914262771606445}, "local_position": {"x": -7.382064342498779, "y": -1.6614097356796265, "z": -0.18802177906036377}, "status": {"flags": 33599, "velocity_variance": 0.0621047206223011, "pos_horiz_variance": 0.020152747631072998, "pos_vert_variance": 0.01804378628730774}}, "errors": []}
{"timestamp": "2025-12-28T08:35:31.368322Z", "telemetry": {"lat": 28.753023, "lon": 77.1178576, "satellites": 7, "altitude_gps_m": 217.5699920654297, "groundspeed_mps": 0.16981448233127594}, "flight": {"mode": "STABILIZE", "armed": false}, "ekf": {"attitude": {"roll": 0.02290363237261772, "pitch": 0.03125254437327385, "yaw": 0.26922646164894104}, "local_position": {"x": -7.837996482849121, "y": -1.3319597244262695, "z": -0.18170642852783203}, "status": {"flags": 33599, "velocity_variance": 0.12985050678253174, "pos_horiz_variance": 0.024338072165846825, "pos_vert_variance": 0.04599366709589958}}, "errors": []}
{"timestamp": "2025-12-28T08:35:32.368625Z", "telemetry": {"lat": 28.7530177, "lon": 77.1178577, "satellites": 7, "altitude_gps_m": 217.5800018310547, "groundspeed_mps": 0.1942540407180786}, "flight": {"mode": "STABILIZE", "armed": false}, "ekf": {"attitude": {"roll": 0.023460498079657555, "pitch": 0.032600127160549164, "yaw": 0.2691732347011566}, "local_position": {"x": -8.29645824432373, "y": -1.1091954708099365, "z": -0.2158743143081665}, "status": {"flags": 33599, "velocity_variance": 0.16665898263454437, "pos_horiz_variance": 0.02458469197154045, "pos_vert_variance": 0.011134998872876167}}, "errors": []}
{"timestamp": "2025-12-28T08:35:33.368568Z", "telemetry": {"lat": 28.7530058, "lon": 77.1178681, "satellites": 7, "altitude_gps_m": 217.64999389648438, "groundspeed_mps": 0.3638821244239807}, "flight": {"mode": "STABILIZE", "armed": false}, "ekf": {"attitude": {"roll": 0.024962812662124634, "pitch": 0.03378145024180412, "yaw": 0.26949283480644226}, "local_position": {"x": -9.431469917297363, "y": -0.3275120258331299, "z": -0.26617884635925293}, "status": {"flags": 33599, "velocity_variance": 0.1825704127550125, "pos_horiz_variance": 0.02987874113023281, "pos_vert_variance": 0.06242872774600983}}, "errors": []}
{"timestamp": "2025-12-28T08:35:34.368390Z", "telemetry": {"lat": 28.7530011, "lon": 77.1178671, "satellites": 7, "altitude_gps_m": 217.52999877929688, "groundspeed_mps": 0.46056076884269714}, "flight": {"mode": "STABILIZE", "armed": false}, "ekf": {"attitude": {"roll": 0.02503473125398159, "pitch": 0.034827012568712234, "yaw": 0.2698241174221039}, "local_position": {"x": -10.286871910095215, "y": 0.07680396735668182, "z": -0.1403549313545227}, "status": {"flags": 33599, "velocity_variance": 0.27713561058044434, "pos_horiz_variance": 0.022598298266530037, "pos_vert_variance": 0.010900226421654224}}, "errors": []}
{"timestamp": "2025-12-28T08:35:35.368483Z", "telemetry": {"lat": 28.7529952, "lon": 77.1178676, "satellites": 7, "altitude_gps_m": 217.39999389648438, "groundspeed_mps": 0.5237934589385986}, "flight": {"mode": "STABILIZE", "armed": false}, "ekf": {"attitude": {"roll": 0.024817699566483498, "pitch": 0.035306502133607864, "yaw": 0.2699141204357147}, "local_position": {"x": -11.07680606842041, "y": 0.369708389043808, "z": -0.03488415479660034}, "status": {"flags": 33599, "velocity_variance": 0.13417303562164307, "pos_horiz_variance": 0.020255915820598602, "pos_vert_variance": 0.05712544545531273}}, "errors": []}
{"timestamp": "2025-12-28T08:35:36.368770Z", "telemetry": {"lat": 28.7530003, "lon": 77.1178663, "satellites": 7, "altitude_gps_m": 217.45999145507812, "groundspeed_mps": 0.4178099036216736}, "flight": {"mode": "STABILIZE", "armed": false}, "ekf": {"attitude": {"roll": 0.023546569049358368, "pitch": 0.03395897150039673, "yaw": 0.2700006067752838}, "local_position": {"x": -11.228009223937988, "y": 0.37007373571395874, "z": -0.07088780403137207}, "status": {"flags": 33599, "velocity_variance": 0.5692332983016968, "pos_horiz_variance": 0.009355291724205017, "pos_vert_variance": 0.003231288166716695}}, "errors": []}
{"timestamp": "2025-12-28T08:35:37.368184Z", "telemetry": {"lat": 28.7530009, "lon": 77.1178611, "satellites": 7, "altitude_gps_m": 217.55999755859375, "groundspeed_mps": 0.24464009702205658}, "flight": {"mode": "STABILIZE", "armed": false}, "ekf": {"attitude": {"roll": 0.021469753235578537, "pitch": 0.033156175166368484, "yaw": 0.269947350025177}, "local_position": {"x": -11.1397705078125, "y": -0.017033694311976433, "z": -0.17289245128631592}, "status": {"flags": 33599, "velocity_variance": 0.27285557985305786, "pos_horiz_variance": 0.00940132886171341, "pos_vert_variance": 0.019367771223187447}}, "errors": []}
{"timestamp": "2025-12-28T08:35:38.368589Z", "telemetry": {"lat": 28.7529976, "lon": 77.117865, "satellites": 7, "altitude_gps_m": 217.55999755859375, "groundspeed_mps": 0.18163734674453735}, "flight": {"mode": "STABILIZE", "armed": false}, "ekf": {"attitude": {"roll": 0.020857688039541245, "pitch": 0.032292358577251434, "yaw": 0.2697899043560028}, "local_position": {"x": -11.37856388092041, "y": -0.023395661264657974, "z": -0.1750897765159607}, "status": {"flags": 33599, "velocity_variance": 0.30519720911979675, "pos_horiz_variance": 0.010193138383328915, "pos_vert_variance": 0.008745686151087284}}, "errors": []}
{"timestamp": "2025-12-28T08:35:39.368765Z", "telemetry": {"lat": 28.7529929, "lon": 77.1178681, "satellites": 7, "altitude_gps_m": 217.54998779296875, "groundspeed_mps": 0.1740248054265976}, "flight": {"mode": "STABILIZE", "armed": false}, "ekf": {"attitude": {"roll": 0.020383311435580254, "pitch": 0.0325595885515213, "yaw": 0.2698882818222046}, "local_position": {"x": -11.636492729187012, "y": -0.07216203212738037, "z": -0.16172844171524048}, "status": {"flags": 33599, "velocity_variance": 0.05266059562563896, "pos_horiz_variance": 0.015356292948126793, "pos_vert_variance": 0.02603263407945633}}, "errors": []}
{"timestamp": "2025-12-28T08:35:40.373019Z", "telemetry": {"lat": 28.7529877, "lon": 77.1178681, "satellites": 7, "altitude_gps_m": 217.5, "groundspeed_mps": 0.2068144530057907}, "flight": {"mode": "STABILIZE", "armed": false}, "ekf": {"attitude": {"roll": 0.020223869010806084, "pitch": 0.03268996626138687, "yaw": 0.2698391079902649}, "local_position": {"x": -12.125744819641113, "y": -0.07530269026756287, "z": -0.11547911167144775}, "status": {"flags": 33599, "velocity_variance": 0.055395592004060745, "pos_horiz_variance": 0.016800500452518463, "pos_vert_variance": 0.05864129215478897}}, "errors": []}
{"timestamp": "2025-12-28T08:35:41.370148Z", "telemetry": {"lat": 28.7529898, "lon": 77.1178658, "satellites": 7, "altitude_gps_m": 217.45999145507812, "groundspeed_mps": 0.17196421325206757}, "flight": {"mode": "STABILIZE", "armed": false}, "ekf": {"attitude": {"roll": 0.019214095547795296, "pitch": 0.031626272946596146, "yaw": 0.2696038782596588}, "local_position": {"x": -12.236910820007324, "y": -0.16667382419109344, "z": -0.07999229431152344}, "status": {"flags": 33599, "velocity_variance": 0.21259285509586334, "pos_horiz_variance": 0.011278764344751835, "pos_vert_variance": 0.029875727370381355}}, "errors": ["PreArm: Hardware safety switch"]}
{"timestamp": "2025-12-28T08:35:42.370914Z", "telemetry": {"lat": 28.7529817, "lon": 77.1178689, "satellites": 7, "altitude_gps_m": 217.51998901367188, "groundspeed_mps": 0.21035665273666382}, "flight": {"mode": "STABILIZE", "armed": false}, "ekf": {"attitude": {"roll": 0.019405750557780266, "pitch": 0.031958743929862976, "yaw": 0.2693863809108734}, "local_position": {"x": -12.64941120147705, "y": -0.27861839532852173, "z": -0.13436782360076904}, "status": {"flags": 33599, "velocity_variance": 0.27281299233436584, "pos_horiz_variance": 0.0199492946267128, "pos_vert_variance": 0.04676290974020958}}, "errors": ["PreArm: Hardware safety switch"]}
{"timestamp": "2025-12-28T08:35:43.367994Z", "telemetry": {"lat": 28.7529739, "lon": 77.1178707, "satellites": 7, "altitude_gps_m": 217.58999633789062, "groundspeed_mps": 0.2391124665737152}, "flight": {"mode": "STABILIZE", "armed": false}, "ekf": {"attitude": {"roll": 0.020029759034514427, "pitch": 0.03229070454835892, "yaw": 0.2692268192768097}, "local_position": {"x": -13.102450370788574, "y": -0.1062375158071518, "z": -0.1664223074913025}, "status": {"flags": 33599, "velocity_variance": 0.13251231610774994, "pos_horiz_variance": 0.022094115614891052, "pos_vert_variance": 0.004205323755741119}}, "errors": ["PreArm: Hardware safety switch"]}
{"timestamp": "2025-12-28T08:35:44.368735Z", "telemetry": {"lat": 28.75297, "lon": 77.1178742, "satellites": 7, "altitude_gps_m": 217.61000061035156, "groundspeed_mps": 0.2620266377925873}, "flight": {"mode": "STABILIZE", "armed": false}, "ekf": {"attitude": {"roll": 0.020744185894727707, "pitch": 0.0323011539876461, "yaw": 0.2693215310573578}, "local_position": {"x": -13.753947257995605, "y": 0.10467565804719925, "z": -0.19429224729537964}, "status": {"flags": 33599, "velocity_variance": 0.08863142132759094, "pos_horiz_variance": 0.023449478670954704, "pos_vert_variance": 0.05317069590091705}}, "errors": ["PreArm: Hardware safety switch"]}
{"timestamp": "2025-12-28T08:35:45.368690Z", "telemetry": {"lat": 28.7529588, "lon": 77.1178782, "satellites": 7, "altitude_gps_m": 217.61000061035156, "groundspeed_mps": 0.3608425557613373}, "flight": {"mode": "STABILIZE", "armed": false}, "ekf": {"attitude": {"roll": 0.02181224524974823, "pitch": 0.03303748369216919, "yaw": 0.2690974473953247}, "local_position": {"x": -14.875089645385742, "y": 0.5442270040512085, "z": -0.22277379035949707}, "status": {"flags": 33599, "velocity_variance": 0.2213977724313736, "pos_horiz_variance": 0.025278527289628983, "pos_vert_variance": 0.05196378380060196}}, "errors": ["PreArm: Hardware safety switch"]}
{"timestamp": "2025-12-28T08:35:46.368682Z", "telemetry": {"lat": 28.7529618, "lon": 77.1178824, "satellites": 7, "altitude_gps_m": 217.6999969482422, "groundspeed_mps": 0.27886271476745605}, "flight": {"mode": "STABILIZE", "armed": false}, "ekf": {"attitude": {"roll": 0.021630607545375824, "pitch": 0.031636256724596024, "yaw": 0.26920145750045776}, "local_position": {"x": -15.075450897216797, "y": 0.7076293230056763, "z": -0.2807178497314453}, "status": {"flags": 33599, "velocity_variance": 0.24472957849502563, "pos_horiz_variance": 0.021803485229611397, "pos_vert_variance": 0.13386863470077515}}, "errors": ["PreArm: Hardware safety switch"]}
{"timestamp": "2025-12-28T08:35:47.368767Z", "telemetry": {"lat": 28.7529705, "lon": 77.1178803, "satellites": 7, "altitude_gps_m": 217.739990234375, "groundspeed_mps": 0.10391493141651154}, "flight": {"mode": "STABILIZE", "armed": false}, "ekf": {"attitude": {"roll": 0.02064581774175167, "pitch": 0.029637088999152184, "yaw": 0.2692285478115082}, "local_position": {"x": -14.896612167358398, "y": 0.831026017665863, "z": -0.33963125944137573}, "status": {"flags": 33599, "velocity_variance": 0.35218483209609985, "pos_horiz_variance": 0.012246412225067616, "pos_vert_variance": 0.06167018786072731}}, "errors": ["PreArm: Hardware safety switch"]}
{"timestamp": "2025-12-28T08:35:48.368560Z", "telemetry": {"lat": 28.7529688, "lon": 77.1178852, "satellites": 7, "altitude_gps_m": 217.75, "groundspeed_mps": 0.051266178488731384}, "flight": {"mode": "STABILIZE", "armed": false}, "ekf": {"attitude": {"roll": 0.021113432943820953, "pitch": 0.029344864189624786, "yaw": 0.269268661737442}, "local_position": {"x": -14.879499435424805, "y": 1.0394302606582642, "z": -0.36515629291534424}, "status": {"flags": 33599, "velocity_variance": 0.12874367833137512, "pos_horiz_variance": 0.016220808029174805, "pos_vert_variance": 0.0006409610505215824}}, "errors": ["PreArm: Hardware safety switch"]}
{"timestamp": "2025-12-28T08:35:49.368434Z", "telemetry": {"lat": 28.7529709, "lon": 77.117884, "satellites": 7, "altitude_gps_m": 217.72000122070312, "groundspeed_mps": 0.046188175678253174}, "flight": {"mode": "STABILIZE", "armed": false}, "ekf": {"attitude": {"roll": 0.021363146603107452, "pitch": 0.028481069952249527, "yaw": 0.26921185851097107}, "local_position": {"x": -14.86335563659668, "y": 1.258856177330017, "z": -0.3473762273788452}, "status": {"flags": 33599, "velocity_variance": 0.15561357140541077, "pos_horiz_variance": 0.011281712912023067, "pos_vert_variance": 0.010650956071913242}}, "errors": ["PreArm: Hardware safety switch"]}
{"timestamp": "2025-12-28T08:35:50.368967Z", "telemetry": {"lat": 28.7529631, "lon": 77.1178892, "satellites": 7, "altitude_gps_m": 217.63999938964844, "groundspeed_mps": 0.16106553375720978}, "flight": {"mode": "STABILIZE", "armed": false}, "ekf": {"attitude": {"roll": 0.022964462637901306, "pitch": 0.029278691858053207, "yaw": 0.26951032876968384}, "local_position": {"x": -15.180375099182129, "y": 1.784906029701233, "z": -0.28829336166381836}, "status": {"flags": 33599, "velocity_variance": 0.5403878688812256, "pos_horiz_variance": 0.014584988355636597, "pos_vert_variance": 0.03099840134382248}}, "errors": ["PreArm: Hardware safety switch"]}
{"timestamp": "2025-12-28T08:35:51.368576Z", "telemetry": {"lat": 28.7529631, "lon": 77.1178933, "satellites": 7, "altitude_gps_m": 217.63999938964844, "groundspeed_mps": 0.17687594890594482}, "flight": {"mode": "STABILIZE", "armed": false}, "ekf": {"attitude": {"roll": 0.02281198278069496, "pitch": 0.028621481731534004, "yaw": 0.2695360779762268}, "local_position": {"x": -15.604385375976562, "y": 2.2134170532226562, "z": -0.2535818815231323}, "status": {"flags": 33599, "velocity_variance": 0.11309712380170822, "pos_horiz_variance": 0.012180903926491737, "pos_vert_variance": 0.010600491426885128}}, "errors": ["PreArm: Hardware safety switch"]}
{"timestamp": "2025-12-28T08:35:52.373864Z", "telemetry": {"lat": 28.75296, "lon": 77.1178969, "satellites": 7, "altitude_gps_m": 217.58999633789062, "groundspeed_mps": 0.19271771609783173}, "flight": {"mode": "STABILIZE", "armed": false}, "ekf": {"attitude": {"roll": 0.023000789806246758, "pitch": 0.028553996235132217, "yaw": 0.26959943771362305}, "local_position": {"x": -15.707958221435547, "y": 2.4370675086975098, "z": -0.22928458452224731}, "status": {"flags": 33599, "velocity_variance": 0.07248158007860184, "pos_horiz_variance": 0.014421709813177586, "pos_vert_variance": 0.07394783943891525}}, "errors": ["PreArm: Hardware safety switch"]}
{"timestamp": "2025-12-28T08:35:53.369984Z", "telemetry": {"lat": 28.7529575, "lon": 77.1178986, "satellites": 7, "altitude_gps_m": 217.5399932861328, "groundspeed_mps": 0.21917113661766052}, "flight": {"mode": "STABILIZE", "armed": false}, "ekf": {"attitude": {"roll": 0.022984618321061134, "pitch": 0.028213299810886383, "yaw": 0.2696622312068939}, "local_position": {"x": -15.796699523925781, "y": 2.839447021484375, "z": -0.15185391902923584}, "status": {"flags": 33599, "velocity_variance": 0.10898914188146591, "pos_horiz_variance": 0.013572069816291332, "pos_vert_variance": 0.01695908233523369}}, "errors": ["PreArm: Hardware safety switch"]}
{"timestamp": "2025-12-28T08:35:54.368289Z", "telemetry": {"lat": 28.7529519, "lon": 77.1179039, "satellites": 7, "altitude_gps_m": 217.59999084472656, "groundspeed_mps": 0.23596924543380737}, "flight": {"mode": "STABILIZE", "armed": false}, "ekf": {"attitude": {"roll": 0.023290136829018593, "pitch": 0.028869643807411194, "yaw": 0.2699093818664551}, "local_position": {"x": -16.164236068725586, "y": 3.222221851348877, "z": -0.220045268535614}, "status": {"flags": 33599, "velocity_variance": 0.14199119806289673, "pos_horiz_variance": 0.017741605639457703, "pos_vert_variance": 0.0008920449181459844}}, "errors": ["PreArm: Hardware safety switch"]}
{"timestamp": "2025-12-28T08:35:55.368694Z", "telemetry": {"lat": 28.7529633, "lon": 77.1178946, "satellites": 8, "altitude_gps_m": 217.61000061035156, "groundspeed_mps": 0.2230181246995926}, "flight": {"mode": "STABILIZE", "armed": false}, "ekf": {"attitude": {"roll": 0.023084327578544617, "pitch": 0.02910502627491951, "yaw": 0.27000758051872253}, "local_position": {"x": -16.39313316345215, "y": 3.3654134273529053, "z": -0.18823277950286865}, "status": {"flags": 33599, "velocity_variance": 0.10489816218614578, "pos_horiz_variance": 0.0036726370453834534, "pos_vert_variance": 0.021179107949137688}}, "errors": ["PreArm: Hardware safety switch"]}
{"timestamp": "2025-12-28T08:35:56.368056Z", "telemetry": {"lat": 28.7529724, "lon": 77.1178887, "satellites": 8, "altitude_gps_m": 217.64999389648438, "groundspeed_mps": 0.1831057369709015}, "flight": {"mode": "STABILIZE", "armed": false}, "ekf": {"attitude": {"roll": 0.021961038932204247, "pitch": 0.02841825969517231, "yaw": 0.2700386345386505}, "local_position": {"x": -16.22178840637207, "y": 3.301403284072876, "z": -0.2898600101470947}, "status": {"flags": 33599, "velocity_variance": 0.06443045288324356, "pos_horiz_variance": 0.024293534457683563, "pos_vert_variance": 0.025283463299274445}}, "errors": ["PreArm: Hardware safety switch"]}
{"timestamp": "2025-12-28T08:35:57.368098Z", "telemetry": {"lat": 28.7529814, "lon": 77.1178836, "satellites": 8, "altitude_gps_m": 217.70999145507812, "groundspeed_mps": 0.24412408471107483}, "flight": {"mode": "STABILIZE", "armed": false}, "ekf": {"attitude": {"roll": 0.02116955816745758, "pitch": 0.027892647311091423, "yaw": 0.2700972855091095}, "local_position": {"x": -15.46894359588623, "y": 2.8935017585754395, "z": -0.32490062713623047}, "status": {"flags": 33599, "velocity_variance": 0.06701167672872543, "pos_horiz_variance": 0.03250706195831299, "pos_vert_variance": 0.08697774261236191}}, "errors": ["PreArm: Hardware safety switch"]}
{"timestamp": "2025-12-28T08:35:58.368895Z", "telemetry": {"lat": 28.7529851, "lon": 77.1178874, "satellites": 8, "altitude_gps_m": 217.72000122070312, "groundspeed_mps": 0.25181829929351807}, "flight": {"mode": "STABILIZE", "armed": false}, "ekf": {"attitude": {"roll": 0.02180696651339531, "pitch": 0.0283616054803133, "yaw": 0.2702682316303253}, "local_position": {"x": -15.056624412536621, "y": 2.895763397216797, "z": -0.3324771523475647}, "status": {"flags": 33599, "velocity_variance": 0.11482676863670349, "pos_horiz_variance": 0.03221956640481949, "pos_vert_variance": 0.0482291616499424}}, "errors": ["PreArm: Hardware safety switch"]}
{"timestamp": "2025-12-28T08:35:59.368426Z", "telemetry": {"lat": 28.7529909, "lon": 77.1178884, "satellites": 8, "altitude_gps_m": 217.72999572753906, "groundspeed_mps": 0.3477906584739685}, "flight": {"mode": "STABILIZE", "armed": false}, "ekf": {"attitude": {"roll": 0.021649131551384926, "pitch": 0.02765422873198986, "yaw": 0.27030885219573975}, "local_position": {"x": -14.362564086914062, "y": 2.870140552520752, "z": -0.34510910511016846}, "status": {"flags": 33599, "velocity_variance": 0.21166566014289856, "pos_horiz_variance": 0.03207014128565788, "pos_vert_variance": 0.028913473710417747}}, "errors": ["PreArm: Hardware safety switch"]}
{"timestamp": "2025-12-28T08:36:00.368853Z", "telemetry": {"lat": 28.7529961, "lon": 77.1178883, "satellites": 8, "altitude_gps_m": 217.75999450683594, "groundspeed_mps": 0.4256057143211365}, "flight": {"mode": "STABILIZE", "armed": false}, "ekf": {"attitude": {"roll": 0.021830003708600998, "pitch": 0.027586115524172783, "yaw": 0.2705230116844177}, "local_position": {"x": -13.683356285095215, "y": 2.888502836227417, "z": -0.3661656975746155}, "status": {"flags": 33599, "velocity_variance": 0.08313333243131638, "pos_horiz_variance": 0.03228339925408363, "pos_vert_variance": 0.010300982743501663}}, "errors": ["PreArm: Hardware safety switch"]}
{"timestamp": "2025-12-28T08:36:01.368360Z", "telemetry": {"lat": 28.7529982, "lon": 77.1178873, "satellites": 8, "altitude_gps_m": 217.76998901367188, "groundspeed_mps": 0.37646597623825073}, "flight": {"mode": "STABILIZE", "armed": false}, "ekf": {"attitude": {"roll": 0.02209310792386532, "pitch": 0.028988482430577278, "yaw": 0.27057522535324097}, "local_position": {"x": -13.327815055847168, "y": 2.8821916580200195, "z": -0.38182348012924194}, "status": {"flags": 33599, "velocity_variance": 0.14754930138587952, "pos_horiz_variance": 0.03080262988805771, "pos_vert_variance": 0.05054668337106705}}, "errors": ["PreArm: Hardware safety switch"]}
{"timestamp": "2025-12-28T08:36:02.368140Z", "telemetry": {"lat": 28.7530024, "lon": 77.1178875, "satellites": 8, "altitude_gps_m": 217.79998779296875, "groundspeed_mps": 0.34857261180877686}, "flight": {"mode": "STABILIZE", "armed": false}, "ekf": {"attitude": {"roll": 0.022253170609474182, "pitch": 0.029768265783786774, "yaw": 0.2706349790096283}, "local_position": {"x": -12.953285217285156, "y": 2.8129920959472656, "z": -0.41742438077926636}, "status": {"flags": 33599, "velocity_variance": 0.19810129702091217, "pos_horiz_variance": 0.0315379835665226, "pos_vert_variance": 0.009058807045221329}}, "errors": ["PreArm: Hardware safety switch"]}
{"timestamp": "2025-12-28T08:36:03.368124Z", "telemetry": {"lat": 28.7530044, "lon": 77.1178864, "satellites": 8, "altitude_gps_m": 217.61000061035156, "groundspeed_mps": 0.3093879520893097}, "flight": {"mode": "STABILIZE", "armed": false}, "ekf": {"attitude": {"roll": 0.02262280322611332, "pitch": 0.03103070892393589, "yaw": 0.2705456614494324}, "local_position": {"x": -12.576001167297363, "y": 2.7889437675476074, "z": -0.2505198121070862}, "status": {"flags": 33599, "velocity_variance": 0.19731014966964722, "pos_horiz_variance": 0.02957030199468136, "pos_vert_variance": 0.0013193665072321892}}, "errors": ["PreArm: Hardware safety switch"]}
{"timestamp": "2025-12-28T08:36:04.372798Z", "telemetry": {"lat": 28.7530037, "lon": 77.1178843, "satellites": 8, "altitude_gps_m": 217.58999633789062, "groundspeed_mps": 0.24624139070510864}, "flight": {"mode": "STABILIZE", "armed": false}, "ekf": {"attitude": {"roll": 0.02284218557178974, "pitch": 0.032227516174316406, "yaw": 0.2706196904182434}, "local_position": {"x": -12.391343116760254, "y": 2.670290946960449, "z": -0.2078344225883484}, "status": {"flags": 33599, "velocity_variance": 0.11056134104728699, "pos_horiz_variance": 0.02569512464106083, "pos_vert_variance": 0.027768701314926147}}, "errors": ["PreArm: Hardware safety switch"]}
{"timestamp": "2025-12-28T08:36:05.369440Z", "telemetry": {"lat": 28.7530072, "lon": 77.117883, "satellites": 7, "altitude_gps_m": 217.55999755859375, "groundspeed_mps": 0.2574859857559204}, "flight": {"mode": "STABILIZE", "armed": false}, "ekf": {"attitude": {"roll": 0.022774547338485718, "pitch": 0.03208470344543457, "yaw": 0.27069807052612305}, "local_position": {"x": -12.02104663848877, "y": 2.5487091541290283, "z": -0.1764550805091858}, "status": {"flags": 33599, "velocity_variance": 0.036828864365816116, "pos_horiz_variance": 0.026082342490553856, "pos_vert_variance": 0.038328103721141815}}, "errors": ["PreArm: Hardware safety switch"]}
{"timestamp": "2025-12-28T08:36:06.368658Z", "telemetry": {"lat": 28.7530115, "lon": 77.1178815, "satellites": 8, "altitude_gps_m": 217.489990234375, "groundspeed_mps": 0.30465462803840637}, "flight": {"mode": "STABILIZE", "armed": false}, "ekf": {"attitude": {"roll": 0.022416025400161743, "pitch": 0.031782522797584534, "yaw": 0.27074334025382996}, "local_position": {"x": -11.506847381591797, "y": 2.412580966949463, "z": -0.10173183679580688}, "status": {"flags": 33599, "velocity_variance": 0.10312364995479584, "pos_horiz_variance": 0.026374366134405136, "pos_vert_variance": 0.05384698137640953}}, "errors": ["PreArm: Hardware safety switch"]}
{"timestamp": "2025-12-28T08:36:07.368535Z", "telemetry": {"lat": 28.7530153, "lon": 77.1178808, "satellites": 8, "altitude_gps_m": 217.38999938964844, "groundspeed_mps": 0.30974477529525757}, "flight": {"mode": "STABILIZE", "armed": false}, "ekf": {"attitude": {"roll": 0.02234443463385105, "pitch": 0.03222166374325752, "yaw": 0.2705862522125244}, "local_position": {"x": -11.242965698242188, "y": 2.210132122039795, "z": -0.008473636582493782}, "status": {"flags": 33599, "velocity_variance": 0.13980427384376526, "pos_horiz_variance": 0.02545331045985222, "pos_vert_variance": 0.07035645097494125}}, "errors": ["PreArm: Hardware safety switch"]}
{"timestamp": "2025-12-28T08:36:08.368531Z", "telemetry": {"lat": 28.7530229, "lon": 77.1178866, "satellites": 8, "altitude_gps_m": 217.45999145507812, "groundspeed_mps": 0.3196888566017151}, "flight": {"mode": "STABILIZE", "armed": false}, "ekf": {"attitude": {"roll": 0.023131050169467926, "pitch": 0.03233702480792999, "yaw": 0.27081936597824097}, "local_position": {"x": -10.656968116760254, "y": 2.1970932483673096, "z": -0.07051205635070801}, "status": {"flags": 33599, "velocity_variance": 0.18553495407104492, "pos_horiz_variance": 0.03196214884519577, "pos_vert_variance": 0.032750241458415985}}, "errors": ["PreArm: Hardware safety switch"]}
{"timestamp": "2025-12-28T08:36:09.368671Z", "telemetry": {"lat": 28.7530245, "lon": 77.1178885, "satellites": 8, "altitude_gps_m": 217.6199951171875, "groundspeed_mps": 0.25065281987190247}, "flight": {"mode": "STABILIZE", "armed": false}, "ekf": {"attitude": {"roll": 0.02434775047004223, "pitch": 0.033542003482580185, "yaw": 0.27096670866012573}, "local_position": {"x": -10.356917381286621, "y": 2.35538911819458, "z": -0.20871037244796753}, "status": {"flags": 33599, "velocity_variance": 0.15543381869792938, "pos_horiz_variance": 0.029234206303954124, "pos_vert_variance": 0.06584879755973816}}, "errors": ["PreArm: Hardware safety switch"]}
{"timestamp": "2025-12-28T08:36:10.368608Z", "telemetry": {"lat": 28.7530272, "lon": 77.1178885, "satellites": 8, "altitude_gps_m": 217.58999633789062, "groundspeed_mps": 0.25534558296203613}, "flight": {"mode": "STABILIZE", "armed": false}, "ekf": {"attitude": {"roll": 0.024603797122836113, "pitch": 0.03341325372457504, "yaw": 0.2711135745048523}, "local_position": {"x": -10.006537437438965, "y": 2.4880685806274414, "z": -0.20841383934020996}, "status": {"flags": 33599, "velocity_variance": 0.14366190135478973, "pos_horiz_variance": 0.027821222320199013, "pos_vert_variance": 0.004848032724112272}}, "errors": ["PreArm: Hardware safety switch"]}
{"timestamp": "2025-12-28T08:36:11.368815Z", "telemetry": {"lat": 28.7530314, "lon": 77.1178889, "satellites": 8, "altitude_gps_m": 217.59999084472656, "groundspeed_mps": 0.2916422188282013}, "flight": {"mode": "STABILIZE", "armed": false}, "ekf": {"attitude": {"roll": 0.024494625627994537, "pitch": 0.033163659274578094, "yaw": 0.271242618560791}, "local_position": {"x": -9.468033790588379, "y": 2.5054666996002197, "z": -0.2110806107521057}, "status": {"flags": 33599, "velocity_variance": 0.009125416167080402, "pos_horiz_variance": 0.027335599064826965, "pos_vert_variance": 0.010250828228890896}}, "errors": ["PreArm: Hardware safety switch"]}
{"timestamp": "2025-12-28T08:36:12.367995Z", "telemetry": {"lat": 28.753035, "lon": 77.1178911, "satellites": 8, "altitude_gps_m": 217.55999755859375, "groundspeed_mps": 0.2727085053920746}, "flight": {"mode": "STABILIZE", "armed": false}, "ekf": {"attitude": {"roll": 0.02487976662814617, "pitch": 0.034026894718408585, "yaw": 0.2715088129043579}, "local_position": {"x": -9.002071380615234, "y": 2.5743443965911865, "z": -0.19326382875442505}, "status": {"flags": 33599, "velocity_variance": 0.15496216714382172, "pos_horiz_variance": 0.02602710947394371, "pos_vert_variance": 0.026207733899354935}}, "errors": ["PreArm: Hardware safety switch", "PreArm: Hardware safety switch"]}
{"timestamp": "2025-12-28T08:36:13.368367Z", "telemetry": {"lat": 28.7530374, "lon": 77.1178911, "satellites": 8, "altitude_gps_m": 217.58999633789062, "groundspeed_mps": 0.2656020522117615}, "flight": {"mode": "STABILIZE", "armed": false}, "ekf": {"attitude": {"roll": 0.024823889136314392, "pitch": 0.0341048501431942, "yaw": 0.271638423204422}, "local_position": {"x": -8.791984558105469, "y": 2.5819053649902344, "z": -0.18066620826721191}, "status": {"flags": 33599, "velocity_variance": 0.08060625940561295, "pos_horiz_variance": 0.026291295886039734, "pos_vert_variance": 0.04040900617837906}}, "errors": ["PreArm: Hardware safety switch", "PreArm: Hardware safety switch"]}
{"timestamp": "2025-12-28T08:36:14.368342Z", "telemetry": {"lat": 28.7530421, "lon": 77.117895, "satellites": 8, "altitude_gps_m": 217.61000061035156, "groundspeed_mps": 0.2502290606498718}, "flight": {"mode": "STABILIZE", "armed": false}, "ekf": {"attitude": {"roll": 0.025300025939941406, "pitch": 0.034377213567495346, "yaw": 0.2716512978076935}, "local_position": {"x": -8.347391128540039, "y": 2.769768714904785, "z": -0.2273271083831787}, "status": {"flags": 33599, "velocity_variance": 0.10674601048231125, "pos_horiz_variance": 0.02908538281917572, "pos_vert_variance": 0.10692454874515533}}, "errors": ["PreArm: Hardware safety switch", "PreArm: Hardware safety switch"]}
{"timestamp": "2025-12-28T08:36:15.367978Z", "telemetry": {"lat": 28.7530532, "lon": 77.1178973, "satellites": 8, "altitude_gps_m": 217.59999084472656, "groundspeed_mps": 0.3357474207878113}, "flight": {"mode": "STABILIZE", "armed": false}, "ekf": {"attitude": {"roll": 0.024874109774827957, "pitch": 0.033090103417634964, "yaw": 0.27178192138671875}, "local_position": {"x": -7.620993137359619, "y": 2.8863513469696045, "z": -0.2203967571258545}, "status": {"flags": 33599, "velocity_variance": 0.39125606417655945, "pos_horiz_variance": 0.04062897339463234, "pos_vert_variance": 0.001676233601756394}}, "errors": ["PreArm: Hardware safety switch", "PreArm: Hardware safety switch"]}
{"timestamp": "2025-12-28T08:36:16.372615Z", "telemetry": {"lat": 28.7530641, "lon": 77.1179, "satellites": 8, "altitude_gps_m": 217.62998962402344, "groundspeed_mps": 0.46824759244918823}, "flight": {"mode": "STABILIZE", "armed": false}, "ekf": {"attitude": {"roll": 0.024433109909296036, "pitch": 0.03181416541337967, "yaw": 0.271765798330307}, "local_position": {"x": -6.603937149047852, "y": 2.992229461669922, "z": -0.24463039636611938}, "status": {"flags": 33599, "velocity_variance": 0.2836208641529083, "pos_horiz_variance": 0.04567264765501022, "pos_vert_variance": 0.011124159209430218}}, "errors": ["PreArm: Hardware safety switch", "PreArm: Hardware safety switch"]}
{"timestamp": "2025-12-28T08:36:17.368088Z", "telemetry": {"lat": 28.7530725, "lon": 77.1179009, "satellites": 8, "altitude_gps_m": 217.70999145507812, "groundspeed_mps": 0.5622139573097229}, "flight": {"mode": "STABILIZE", "armed": false}, "ekf": {"attitude": {"roll": 0.02400365099310875, "pitch": 0.031387124210596085, "yaw": 0.2719518840312958}, "local_position": {"x": -5.609307765960693, "y": 3.1064045429229736, "z": -0.324870765209198}, "status": {"flags": 33599, "velocity_variance": 0.35846981406211853, "pos_horiz_variance": 0.044706448912620544, "pos_vert_variance": 0.07382180541753769}}, "errors": ["PreArm: Hardware safety switch", "PreArm: Hardware safety switch"]}
{"timestamp": "2025-12-28T08:36:18.368868Z", "telemetry": {"lat": 28.7530764, "lon": 77.117908, "satellites": 8, "altitude_gps_m": 217.75999450683594, "groundspeed_mps": 0.530542254447937}, "flight": {"mode": "STABILIZE", "armed": false}, "ekf": {"attitude": {"roll": 0.025467852130532265, "pitch": 0.032185401767492294, "yaw": 0.27199888229370117}, "local_position": {"x": -5.089578628540039, "y": 3.5581841468811035, "z": -0.3753513693809509}, "status": {"flags": 33599, "velocity_variance": 0.504287838935852, "pos_horiz_variance": 0.04431698098778725, "pos_vert_variance": 0.021804578602313995}}, "errors": ["PreArm: Hardware safety switch", "PreArm: Hardware safety switch"]}
{"timestamp": "2025-12-28T08:36:19.368054Z", "telemetry": {"lat": 28.7530803, "lon": 77.1179079, "satellites": 8, "altitude_gps_m": 217.79998779296875, "groundspeed_mps": 0.5427994132041931}, "flight": {"mode": "STABILIZE", "armed": false}, "ekf": {"attitude": {"roll": 0.02575717866420746, "pitch": 0.03240997716784477, "yaw": 0.2723149359226227}, "local_position": {"x": -4.432039737701416, "y": 3.9355924129486084, "z": -0.4158400893211365}, "status": {"flags": 33599, "velocity_variance": 0.3700154721736908, "pos_horiz_variance": 0.037275031208992004, "pos_vert_variance": 0.02977728098630905}}, "errors": ["PreArm: Hardware safety switch", "PreArm: Hardware safety switch"]}
{"timestamp": "2025-12-28T08:36:20.368231Z", "telemetry": {"lat": 28.7530802, "lon": 77.1179116, "satellites": 8, "altitude_gps_m": 217.84999084472656, "groundspeed_mps": 0.5053353309631348}, "flight": {"mode": "STABILIZE", "armed": false}, "ekf": {"attitude": {"roll": 0.026338612660765648, "pitch": 0.033668309450149536, "yaw": 0.2725958228111267}, "local_position": {"x": -3.951741933822632, "y": 4.224103927612305, "z": -0.46447908878326416}, "status": {"flags": 33599, "velocity_variance": 0.4741535782814026, "pos_horiz_variance": 0.027654707431793213, "pos_vert_variance": 0.06432385742664337}}, "errors": ["PreArm: Hardware safety switch", "PreArm: Hardware safety switch"]}
{"timestamp": "2025-12-28T08:36:21.368167Z", "telemetry": {"lat": 28.7530829, "lon": 77.1179068, "satellites": 8, "altitude_gps_m": 217.86000061035156, "groundspeed_mps": 0.49428415298461914}, "flight": {"mode": "STABILIZE", "armed": false}, "ekf": {"attitude": {"roll": 0.025865912437438965, "pitch": 0.03376311808824539, "yaw": 0.2729157507419586}, "local_position": {"x": -3.408071994781494, "y": 4.399600982666016, "z": -0.4755350351333618}, "status": {"flags": 33599, "velocity_variance": 0.21776191890239716, "pos_horiz_variance": 0.019737793132662773, "pos_vert_variance": 0.049870286136865616}}, "errors": ["PreArm: Hardware safety switch", "PreArm: Hardware safety switch"]}
{"timestamp": "2025-12-28T08:36:22.368879Z", "telemetry": {"lat": 28.7530895, "lon": 77.1179037, "satellites": 8, "altitude_gps_m": 217.8699951171875, "groundspeed_mps": 0.5246747732162476}, "flight": {"mode": "STABILIZE", "armed": false}, "ekf": {"attitude": {"roll": 0.024863850325345993, "pitch": 0.03346618637442589, "yaw": 0.2730490565299988}, "local_position": {"x": -2.6765716075897217, "y": 4.354879379272461, "z": -0.49484145641326904}, "status": {"flags": 33599, "velocity_variance": 0.134261816740036, "pos_horiz_variance": 0.02073078602552414, "pos_vert_variance": 0.031184732913970947}}, "errors": ["PreArm: Hardware safety switch", "PreArm: Hardware safety switch"]}
{"timestamp": "2025-12-28T08:36:23.368855Z", "telemetry": {"lat": 28.7530954, "lon": 77.1179056, "satellites": 8, "altitude_gps_m": 217.79998779296875, "groundspeed_mps": 0.5603269338607788}, "flight": {"mode": "STABILIZE", "armed": false}, "ekf": {"attitude": {"roll": 0.02479654736816883, "pitch": 0.03320755809545517, "yaw": 0.2730674147605896}, "local_position": {"x": -1.8894469738006592, "y": 4.373452186584473, "z": -0.41671788692474365}, "status": {"flags": 33599, "velocity_variance": 0.2915806770324707, "pos_horiz_variance": 0.017509136348962784, "pos_vert_variance": 0.09271737188100815}}, "errors": ["PreArm: Hardware safety switch", "PreArm: Hardware safety switch"]}
{"timestamp": "2025-12-28T08:36:24.367921Z", "telemetry": {"lat": 28.7530979, "lon": 77.1179057, "satellites": 8, "altitude_gps_m": 217.77999877929688, "groundspeed_mps": 0.5348716974258423}, "flight": {"mode": "STABILIZE", "armed": false}, "ekf": {"attitude": {"roll": 0.02484380453824997, "pitch": 0.033715177327394485, "yaw": 0.27328813076019287}, "local_position": {"x": -1.3713605403900146, "y": 4.469978332519531, "z": -0.38799089193344116}, "status": {"flags": 33599, "velocity_variance": 0.2708882987499237, "pos_horiz_variance": 0.01388474740087986, "pos_vert_variance": 0.04361835867166519}}, "errors": ["PreArm: Hardware safety switch", "PreArm: Hardware safety switch"]}
{"timestamp": "2025-12-28T08:36:25.368447Z", "telemetry": {"lat": 28.7531015, "lon": 77.1178999, "satellites": 8, "altitude_gps_m": 217.67999267578125, "groundspeed_mps": 0.501774251461029}, "flight": {"mode": "STABILIZE", "armed": false}, "ekf": {"attitude": {"roll": 0.02392326109111309, "pitch": 0.03393172845244408, "yaw": 0.2730250358581543}, "local_position": {"x": -0.8729057908058167, "y": 4.302646636962891, "z": -0.31842929124832153}, "status": {"flags": 33599, "velocity_variance": 0.19866666197776794, "pos_horiz_variance": 0.017611097544431686, "pos_vert_variance": 0.04190884158015251}}, "errors": ["PreArm: Hardware safety switch", "PreArm: Hardware safety switch"]}
{"timestamp": "2025-12-28T08:36:26.374588Z", "telemetry": {"lat": 28.7531043, "lon": 77.1178984, "satellites": 8, "altitude_gps_m": 217.62998962402344, "groundspeed_mps": 0.46886011958122253}, "flight": {"mode": "STABILIZE", "armed": false}, "ekf": {"attitude": {"roll": 0.02380271814763546, "pitch": 0.03441322222352028, "yaw": 0.27309468388557434}, "local_position": {"x": -0.41912180185317993, "y": 4.189235210418701, "z": -0.2379608154296875}, "status": {"flags": 33599, "velocity_variance": 0.13045938313007355, "pos_horiz_variance": 0.016477111726999283, "pos_vert_variance": 0.03637205436825752}}, "errors": ["PreArm: Hardware safety switch", "PreArm: Hardware safety switch"]}
{"timestamp": "2025-12-28T08:36:27.370459Z", "telemetry": {"lat": 28.7531048, "lon": 77.1178994, "satellites": 8, "altitude_gps_m": 217.489990234375, "groundspeed_mps": 0.3782486021518707}, "flight": {"mode": "STABILIZE", "armed": false}, "ekf": {"attitude": {"roll": 0.024525374174118042, "pitch": 0.035504311323165894, "yaw": 0.27297767996788025}, "local_position": {"x": -0.2509869933128357, "y": 4.185171604156494, "z": -0.1029251217842102}, "status": {"flags": 33599, "velocity_variance": 0.10077149420976639, "pos_horiz_variance": 0.013738270848989487, "pos_vert_variance": 0.024443238973617554}}, "errors": ["PreArm: Hardware safety switch", "PreArm: Hardware safety switch"]}
{"timestamp": "2025-12-28T08:36:28.371341Z", "telemetry": {"lat": 28.7531072, "lon": 77.1178956, "satellites": 8, "altitude_gps_m": 217.47999572753906, "groundspeed_mps": 0.3104727864265442}, "flight": {"mode": "STABILIZE", "armed": false}, "ekf": {"attitude": {"roll": 0.023935968056321144, "pitch": 0.03611743077635765, "yaw": 0.27304911613464355}, "local_position": {"x": -0.04175907373428345, "y": 4.006445407867432, "z": -0.0932614803314209}, "status": {"flags": 33599, "velocity_variance": 0.3325221538543701, "pos_horiz_variance": 0.017429597675800323, "pos_vert_variance": 0.017869027331471443}}, "errors": ["PreArm: Hardware safety switch", "PreArm: Hardware safety switch"]}
{"timestamp": "2025-12-28T08:36:29.368964Z", "telemetry": {"lat": 28.7531133, "lon": 77.1178921, "satellites": 8, "altitude_gps_m": 217.5399932861328, "groundspeed_mps": 0.34351733326911926}, "flight": {"mode": "STABILIZE", "armed": false}, "ekf": {"attitude": {"roll": 0.022761790081858635, "pitch": 0.03591284155845642, "yaw": 0.2730005085468292}, "local_position": {"x": 0.47802793979644775, "y": 3.584092855453491, "z": -0.1521427035331726}, "status": {"flags": 33599, "velocity_variance": 0.3008647859096527, "pos_horiz_variance": 0.015816492959856987, "pos_vert_variance": 0.030162161216139793}}, "errors": ["PreArm: Hardware safety switch", "PreArm: Hardware safety switch"]}
{"timestamp": "2025-12-28T08:36:30.368649Z", "telemetry": {"lat": 28.7531142, "lon": 77.117894, "satellites": 8, "altitude_gps_m": 217.58999633789062, "groundspeed_mps": 0.26160144805908203}, "flight": {"mode": "STABILIZE", "armed": false}, "ekf": {"attitude": {"roll": 0.02350711263716221, "pitch": 0.03673206642270088, "yaw": 0.2729576826095581}, "local_position": {"x": 0.5949034690856934, "y": 3.5000038146972656, "z": -0.1756194829940796}, "status": {"flags": 33599, "velocity_variance": 0.13918264210224152, "pos_horiz_variance": 0.012044535018503666, "pos_vert_variance": 0.009084976278245449}}, "errors": ["PreArm: Hardware safety switch", "PreArm: Hardware safety switch"]}
{"timestamp": "2025-12-28T08:36:31.368787Z", "telemetry": {"lat": 28.7531171, "lon": 77.1178893, "satellites": 7, "altitude_gps_m": 217.63999938964844, "groundspeed_mps": 0.22715437412261963}, "flight": {"mode": "STABILIZE", "armed": false}, "ekf": {"attitude": {"roll": 0.022729363292455673, "pitch": 0.0369279570877552, "yaw": 0.27290040254592896}, "local_position": {"x": 0.7477604150772095, "y": 3.259370803833008, "z": -0.24952924251556396}, "status": {"flags": 33599, "velocity_variance": 0.20246315002441406, "pos_horiz_variance": 0.01711261458694935, "pos_vert_variance": 0.05611012130975723}}, "errors": ["PreArm: Hardware safety switch", "PreArm: Hardware safety switch"]}
{"timestamp": "2025-12-28T08:36:32.368596Z", "telemetry": {"lat": 28.7531182, "lon": 77.117888, "satellites": 7, "altitude_gps_m": 217.64999389648438, "groundspeed_mps": 0.28333231806755066}, "flight": {"mode": "STABILIZE", "armed": false}, "ekf": {"attitude": {"roll": 0.02256016619503498, "pitch": 0.037312790751457214, "yaw": 0.27279576659202576}, "local_position": {"x": 1.1261937618255615, "y": 2.7635700702667236, "z": -0.2625656723976135}, "status": {"flags": 33599, "velocity_variance": 0.6088939905166626, "pos_horiz_variance": 0.008468352258205414, "pos_vert_variance": 0.03310272470116615}}, "errors": ["PreArm: Hardware safety switch", "PreArm: Hardware safety switch"]}
{"timestamp": "2025-12-28T08:36:33.368677Z", "telemetry": {"lat": 28.7531238, "lon": 77.1178834, "satellites": 7, "altitude_gps_m": 217.67999267578125, "groundspeed_mps": 0.3225941061973572}, "flight": {"mode": "STABILIZE", "armed": false}, "ekf": {"attitude": {"roll": 0.0219102893024683, "pitch": 0.037033602595329285, "yaw": 0.2725294530391693}, "local_position": {"x": 1.3315324783325195, "y": 2.4334702491760254, "z": -0.2875015139579773}, "status": {"flags": 33599, "velocity_variance": 0.1245230957865715, "pos_horiz_variance": 0.013902578502893448, "pos_vert_variance": 0.03993893042206764}}, "errors": ["PreArm: Hardware safety switch", "PreArm: Hardware safety switch"]}
{"timestamp": "2025-12-28T08:36:34.368901Z", "telemetry": {"lat": 28.7531249, "lon": 77.1178847, "satellites": 7, "altitude_gps_m": 217.67999267578125, "groundspeed_mps": 0.2836160361766815}, "flight": {"mode": "STABILIZE", "armed": false}, "ekf": {"attitude": {"roll": 0.022455459460616112, "pitch": 0.03694698587059975, "yaw": 0.2724645733833313}, "local_position": {"x": 1.629347801208496, "y": 2.210620641708374, "z": -0.29572635889053345}, "status": {"flags": 33599, "velocity_variance": 0.09697335958480835, "pos_horiz_variance": 0.01059603039175272, "pos_vert_variance": 0.131108820438385}}, "errors": ["PreArm: Hardware safety switch", "PreArm: Hardware safety switch"]}
{"timestamp": "2025-12-28T08:36:35.368808Z", "telemetry": {"lat": 28.7531287, "lon": 77.1178834, "satellites": 7, "altitude_gps_m": 217.67999267578125, "groundspeed_mps": 0.30593961477279663}, "flight": {"mode": "STABILIZE", "armed": false}, "ekf": {"attitude": {"roll": 0.022341765463352203, "pitch": 0.03672565519809723, "yaw": 0.27236485481262207}, "local_position": {"x": 1.9609465599060059, "y": 1.9373219013214111, "z": -0.2921788692474365}, "status": {"flags": 33599, "velocity_variance": 0.08790191262960434, "pos_horiz_variance": 0.011175909079611301, "pos_vert_variance": 0.08464525640010834}}, "errors": ["PreArm: Hardware safety switch", "PreArm: Hardware safety switch"]}
{"timestamp": "2025-12-28T08:36:36.368029Z", "telemetry": {"lat": 28.7531286, "lon": 77.1178889, "satellites": 7, "altitude_gps_m": 217.6999969482422, "groundspeed_mps": 0.26811787486076355}, "flight": {"mode": "STABILIZE", "armed": false}, "ekf": {"attitude": {"roll": 0.02308354713022709, "pitch": 0.036638326942920685, "yaw": 0.2723188102245331}, "local_position": {"x": 2.202254295349121, "y": 1.8551095724105835, "z": -0.32940661907196045}, "status": {"flags": 33599, "velocity_variance": 0.22209474444389343, "pos_horiz_variance": 0.011661909520626068, "pos_vert_variance": 0.027473250404000282}}, "errors": ["PreArm: Hardware safety switch", "PreArm: Hardware safety switch"]}
{"timestamp": "2025-12-28T08:36:37.368223Z", "telemetry": {"lat": 28.7531247, "lon": 77.1178973, "satellites": 7, "altitude_gps_m": 217.64999389648438, "groundspeed_mps": 0.07065487653017044}, "flight": {"mode": "STABILIZE", "armed": false}, "ekf": {"attitude": {"roll": 0.025581704452633858, "pitch": 0.03758496791124344, "yaw": 0.27236199378967285}, "local_position": {"x": 1.830776572227478, "y": 2.3443729877471924, "z": -0.23444753885269165}, "status": {"flags": 33599, "velocity_variance": 0.2841334939002991, "pos_horiz_variance": 0.01665743812918663, "pos_vert_variance": 0.0032487530261278152}}, "errors": ["PreArm: Hardware safety switch", "PreArm: Hardware safety switch"]}
{"timestamp": "2025-12-28T08:36:38.372336Z", "telemetry": {"lat": 28.7531348, "lon": 77.1178871, "satellites": 8, "altitude_gps_m": 217.72999572753906, "groundspeed_mps": 0.1359366476535797}, "flight": {"mode": "STABILIZE", "armed": false}, "ekf": {"attitude": {"roll": 0.023952070623636246, "pitch": 0.03574969619512558, "yaw": 0.27229100465774536}, "local_position": {"x": 2.363048553466797, "y": 2.2189791202545166, "z": -0.349304735660553}, "status": {"flags": 33599, "velocity_variance": 0.11051386594772339, "pos_horiz_variance": 0.014032171107828617, "pos_vert_variance": 0.023822588846087456}}, "errors": ["PreArm: Hardware safety switch", "PreArm: Hardware safety switch"]}
{"timestamp": "2025-12-28T08:36:39.368424Z", "telemetry": {"lat": 28.7531215, "lon": 77.1178912, "satellites": 8, "altitude_gps_m": 217.6699981689453, "groundspeed_mps": 0.04826226830482483}, "flight": {"mode": "STABILIZE", "armed": false}, "ekf": {"attitude": {"roll": 0.026246802881360054, "pitch": 0.037380799651145935, "yaw": 0.27234968543052673}, "local_position": {"x": 2.076601028442383, "y": 2.525784969329834, "z": -0.28714650869369507}, "status": {"flags": 33599, "velocity_variance": 0.37364327907562256, "pos_horiz_variance": 0.006522609386593103, "pos_vert_variance": 0.038232605904340744}}, "errors": ["PreArm: Hardware safety switch", "PreArm: Hardware safety switch"]}
{"timestamp": "2025-12-28T08:36:40.369292Z", "telemetry": {"lat": 28.7531316, "lon": 77.1178835, "satellites": 8, "altitude_gps_m": 217.54998779296875, "groundspeed_mps": 0.11126960813999176}, "flight": {"mode": "STABILIZE", "armed": false}, "ekf": {"attitude": {"roll": 0.0245174802839756, "pitch": 0.033972106873989105, "yaw": 0.27239280939102173}, "local_position": {"x": 2.3317227363586426, "y": 2.5007948875427246, "z": -0.18611258268356323}, "status": {"flags": 33599, "velocity_variance": 0.8279679417610168, "pos_horiz_variance": 0.012951388955116272, "pos_vert_variance": 0.000504861178342253}}, "errors": ["PreArm: Hardware safety switch", "PreArm: Hardware safety switch"]}
{"timestamp": "2025-12-28T08:36:41.368348Z", "telemetry": {"lat": 28.7531404, "lon": 77.1178736, "satellites": 8, "altitude_gps_m": 217.50999450683594, "groundspeed_mps": 0.3078301250934601}, "flight": {"mode": "STABILIZE", "armed": false}, "ekf": {"attitude": {"roll": 0.023290377110242844, "pitch": 0.032517340034246445, "yaw": 0.2723408043384552}, "local_position": {"x": 3.5491831302642822, "y": 1.9260188341140747, "z": -0.12359124422073364}, "status": {"flags": 33599, "velocity_variance": 0.3172976076602936, "pos_horiz_variance": 0.015606798231601715, "pos_vert_variance": 0.005081909243017435}}, "errors": ["PreArm: Hardware safety switch", "PreArm: Hardware safety switch"]}
{"timestamp": "2025-12-28T08:36:42.368266Z", "telemetry": {"lat": 28.7531241, "lon": 77.1178775, "satellites": 8, "altitude_gps_m": 217.38999938964844, "groundspeed_mps": 0.19651280343532562}, "flight": {"mode": "STABILIZE", "armed": false}, "ekf": {"attitude": {"roll": 0.024411434307694435, "pitch": 0.03388356417417526, "yaw": 0.27241334319114685}, "local_position": {"x": 3.295095443725586, "y": 1.7996495962142944, "z": -0.0019683856517076492}, "status": {"flags": 33599, "velocity_variance": 0.5196007490158081, "pos_horiz_variance": 0.019169526174664497, "pos_vert_variance": 0.01748351752758026}}, "errors": ["PreArm: Hardware safety switch", "PreArm: Hardware safety switch"]}
{"timestamp": "2025-12-28T08:36:43.368623Z", "telemetry": {"lat": 28.7531169, "lon": 77.1178698, "satellites": 8, "altitude_gps_m": 217.42999267578125, "groundspeed_mps": 0.11480167508125305}, "flight": {"mode": "STABILIZE", "armed": false}, "ekf": {"attitude": {"roll": 0.024142000824213028, "pitch": 0.03454772010445595, "yaw": 0.27241575717926025}, "local_position": {"x": 2.602370023727417, "y": 1.6890759468078613, "z": -0.04268229007720947}, "status": {"flags": 33599, "velocity_variance": 0.5280795693397522, "pos_horiz_variance": 0.026510940864682198, "pos_vert_variance": 0.01775350794196129}}, "errors": ["PreArm: Hardware safety switch", "PreArm: Hardware safety switch", "PreArm: Hardware safety switch"]}
{"timestamp": "2025-12-28T08:36:44.367964Z", "telemetry": {"lat": 28.7531191, "lon": 77.117861, "satellites": 8, "altitude_gps_m": 217.42999267578125, "groundspeed_mps": 0.20456649363040924}, "flight": {"mode": "STABILIZE", "armed": false}, "ekf": {"attitude": {"roll": 0.023448042571544647, "pitch": 0.034413695335388184, "yaw": 0.2724941074848175}, "local_position": {"x": 2.6661298274993896, "y": 0.9774854779243469, "z": -0.04990994930267334}, "status": {"flags": 33599, "velocity_variance": 0.31288379430770874, "pos_horiz_variance": 0.026708174496889114, "pos_vert_variance": 0.04363534599542618}}, "errors": ["PreArm: Hardware safety switch", "PreArm: Hardware safety switch", "PreArm: Hardware safety switch"]}
{"timestamp": "2025-12-28T08:36:45.368418Z", "telemetry": {"lat": 28.7531156, "lon": 77.1178612, "satellites": 7, "altitude_gps_m": 217.4499969482422, "groundspeed_mps": 0.2491564303636551}, "flight": {"mode": "STABILIZE", "armed": false}, "ekf": {"attitude": {"roll": 0.023402629420161247, "pitch": 0.03493043780326843, "yaw": 0.2724568843841553}, "local_position": {"x": 2.3616058826446533, "y": 0.4642100930213928, "z": -0.07055765390396118}, "status": {"flags": 33599, "velocity_variance": 0.34538939595222473, "pos_horiz_variance": 0.023151680827140808, "pos_vert_variance": 0.05403484031558037}}, "errors": ["PreArm: Hardware safety switch", "PreArm: Hardware safety switch", "PreArm: Hardware safety switch"]}
{"timestamp": "2025-12-28T08:36:46.368779Z", "telemetry": {"lat": 28.7531061, "lon": 77.1178663, "satellites": 7, "altitude_gps_m": 217.44000244140625, "groundspeed_mps": 0.28781402111053467}, "flight": {"mode": "STABILIZE", "armed": false}, "ekf": {"attitude": {"roll": 0.024913866072893143, "pitch": 0.03692469373345375, "yaw": 0.2723993957042694}, "local_position": {"x": 1.5054129362106323, "y": 0.3473649024963379, "z": -0.0538288950920105}, "status": {"flags": 33599, "velocity_variance": 0.27458587288856506, "pos_horiz_variance": 0.023639459162950516, "pos_vert_variance": 0.009104328230023384}}, "errors": ["PreArm: Hardware safety switch", "PreArm: Hardware safety switch", "PreArm: Hardware safety switch"]}
{"timestamp": "2025-12-28T08:36:47.368851Z", "telemetry": {"lat": 28.753093, "lon": 77.1178777, "satellites": 7, "altitude_gps_m": 217.44000244140625, "groundspeed_mps": 0.44179922342300415}, "flight": {"mode": "STABILIZE", "armed": false}, "ekf": {"attitude": {"roll": 0.026584144681692123, "pitch": 0.038284096866846085, "yaw": 0.27254894375801086}, "local_position": {"x": 0.30643409490585327, "y": 0.5837452411651611, "z": -0.05430048704147339}, "status": {"flags": 33599, "velocity_variance": 0.694037675857544, "pos_horiz_variance": 0.031522948294878006, "pos_vert_variance": 0.05555517598986626}}, "errors": ["PreArm: Hardware safety switch", "PreArm: Hardware safety switch", "PreArm: Hardware safety switch"]}
{"timestamp": "2025-12-28T08:36:48.368869Z", "telemetry": {"lat": 28.7530848, "lon": 77.1178849, "satellites": 7, "altitude_gps_m": 217.5, "groundspeed_mps": 0.6694084405899048}, "flight": {"mode": "STABILIZE", "armed": false}, "ekf": {"attitude": {"roll": 0.02912377566099167, "pitch": 0.04010092094540596, "yaw": 0.27281296253204346}, "local_position": {"x": -1.0826079845428467, "y": 1.0856424570083618, "z": -0.11616569757461548}, "status": {"flags": 33599, "velocity_variance": 0.30669525265693665, "pos_horiz_variance": 0.027546357363462448, "pos_vert_variance": 0.047568485140800476}}, "errors": ["PreArm: Hardware safety switch", "PreArm: Hardware safety switch", "PreArm: Hardware safety switch"]}
{"timestamp": "2025-12-28T08:36:49.373619Z", "telemetry": {"lat": 28.7530857, "lon": 77.1178898, "satellites": 7, "altitude_gps_m": 217.5, "groundspeed_mps": 0.8404033780097961}, "flight": {"mode": "STABILIZE", "armed": false}, "ekf": {"attitude": {"roll": 0.029980693012475967, "pitch": 0.03949500992894173, "yaw": 0.27294012904167175}, "local_position": {"x": -2.2431437969207764, "y": 1.7721542119979858, "z": -0.11170172691345215}, "status": {"flags": 33599, "velocity_variance": 0.5588446259498596, "pos_horiz_variance": 0.013760087080299854, "pos_vert_variance": 0.042688921093940735}}, "errors": ["PreArm: Hardware safety switch", "PreArm: Hardware safety switch", "PreArm: Hardware safety switch"]}
{"timestamp": "2025-12-28T08:36:50.370697Z", "telemetry": {"lat": 28.7530871, "lon": 77.1178893, "satellites": 7, "altitude_gps_m": 217.47000122070312, "groundspeed_mps": 0.8038402199745178}, "flight": {"mode": "STABILIZE", "armed": false}, "ekf": {"attitude": {"roll": 0.03003605455160141, "pitch": 0.038418348878622055, "yaw": 0.2730068266391754}, "local_position": {"x": -2.5651493072509766, "y": 2.046781301498413, "z": -0.08659076690673828}, "status": {"flags": 33599, "velocity_variance": 0.19611014425754547, "pos_horiz_variance": 0.009439806453883648, "pos_vert_variance": 0.022544894367456436}}, "errors": ["PreArm: Hardware safety switch", "PreArm: Hardware safety switch", "PreArm: Hardware safety switch"]}
{"timestamp": "2025-12-28T08:36:51.368193Z", "telemetry": {"lat": 28.7530863, "lon": 77.1178909, "satellites": 7, "altitude_gps_m": 217.4199981689453, "groundspeed_mps": 0.8773197531700134}, "flight": {"mode": "STABILIZE", "armed": false}, "ekf": {"attitude": {"roll": 0.03051571175456047, "pitch": 0.03806677460670471, "yaw": 0.2732768952846527}, "local_position": {"x": -3.1226749420166016, "y": 2.349717855453491, "z": -0.030540289357304573}, "status": {"flags": 33599, "velocity_variance": 0.16933321952819824, "pos_horiz_variance": 0.010339295491576195, "pos_vert_variance": 0.046811237931251526}}, "errors": ["PreArm: Hardware safety switch", "PreArm: Hardware safety switch", "PreArm: Hardware safety switch"]}
{"timestamp": "2025-12-28T08:36:52.367999Z", "telemetry": {"lat": 28.75309, "lon": 77.1178864, "satellites": 8, "altitude_gps_m": 217.45999145507812, "groundspeed_mps": 0.7363555431365967}, "flight": {"mode": "STABILIZE", "armed": false}, "ekf": {"attitude": {"roll": 0.029273848980665207, "pitch": 0.03566884621977806, "yaw": 0.2733103334903717}, "local_position": {"x": -3.1643905639648438, "y": 2.5648233890533447, "z": -0.07608658075332642}, "status": {"flags": 33599, "velocity_variance": 0.308904767036438, "pos_horiz_variance": 0.01763039641082287, "pos_vert_variance": 0.038508906960487366}}, "errors": ["PreArm: Hardware safety switch", "PreArm: Hardware safety switch", "PreArm: Hardware safety switch"]}
{"timestamp": "2025-12-28T08:36:53.368887Z", "telemetry": {"lat": 28.7530935, "lon": 77.1178865, "satellites": 8, "altitude_gps_m": 217.59999084472656, "groundspeed_mps": 0.5199015736579895}, "flight": {"mode": "STABILIZE", "armed": false}, "ekf": {"attitude": {"roll": 0.028009945526719093, "pitch": 0.03271321579813957, "yaw": 0.2735322117805481}, "local_position": {"x": -2.6774168014526367, "y": 2.6754050254821777, "z": -0.2063385248184204}, "status": {"flags": 33599, "velocity_variance": 0.35091719031333923, "pos_horiz_variance": 0.01807871274650097, "pos_vert_variance": 0.004682727158069611}}, "errors": ["PreArm: Hardware safety switch", "PreArm: Hardware safety switch", "PreArm: Hardware safety switch"]}
{"timestamp": "2025-12-28T08:36:54.368542Z", "telemetry": {"lat": 28.7530924, "lon": 77.1178829, "satellites": 8, "altitude_gps_m": 217.58999633789062, "groundspeed_mps": 0.41221103072166443}, "flight": {"mode": "STABILIZE", "armed": false}, "ekf": {"attitude": {"roll": 0.026818333193659782, "pitch": 0.03143034875392914, "yaw": 0.27342891693115234}, "local_position": {"x": -2.6193931102752686, "y": 2.5951056480407715, "z": -0.221929669380188}, "status": {"flags": 33599, "velocity_variance": 0.423519104719162, "pos_horiz_variance": 0.016561351716518402, "pos_vert_variance": 0.04551469534635544}}, "errors": ["PreArm: Hardware safety switch", "PreArm: Hardware safety switch", "PreArm: Hardware safety switch"]}
{"timestamp": "2025-12-28T08:36:55.367937Z", "telemetry": {"lat": 28.753096, "lon": 77.1178789, "satellites": 8, "altitude_gps_m": 217.6599884033203, "groundspeed_mps": 0.23419228196144104}, "flight": {"mode": "STABILIZE", "armed": false}, "ekf": {"attitude": {"roll": 0.025485076010227203, "pitch": 0.02924214117228985, "yaw": 0.2734379172325134}, "local_position": {"x": -1.9681013822555542, "y": 2.3765246868133545, "z": -0.2740917205810547}, "status": {"flags": 33599, "velocity_variance": 0.23464883863925934, "pos_horiz_variance": 0.017714690417051315, "pos_vert_variance": 0.014986793510615826}}, "errors": ["PreArm: Hardware safety switch", "PreArm: Hardware safety switch", "PreArm: Hardware safety switch"]}
