{"timestamp": "2025-12-17T08:20:22.277886Z", "telemetry": {"lat": null, "lon": null, "satellites": null, "altitude_gps_m": null, "groundspeed_mps": null}, "flight": {"mode": "STABILIZE", "armed": false}, "ekf": {"attitude": {"roll": null, "pitch": null, "yaw": null}, "local_position": {"x": null, "y": null, "z": null}, "status": {"flags": null, "velocity_variance": null, "pos_horiz_variance": null, "pos_vert_variance": null}}, "errors": []}
{"timestamp": "2025-12-17T08:20:23.274767Z", "telemetry": {"lat": 0.0, "lon": 0.0, "satellites": 0, "altitude_gps_m": -0.07999999821186066, "groundspeed_mps": 0.03188754990696907}, "flight": {"mode": "STABILIZE", "armed": false}, "ekf": {"attitude": {"roll": -0.03501372039318085, "pitch": -0.017922185361385345, "yaw": -2.3548178672790527}, "local_position": {"x": null, "y": null, "z": null}, "status": {"flags": 135, "velocity_variance": 0.0, "pos_horiz_variance": 0.00492243142798543, "pos_vert_variance": 0.03523803502321243}}, "errors": []}
{"timestamp": "2025-12-17T08:20:24.272588Z", "telemetry": {"lat": 0.0, "lon": 0.0, "satellites": 0, "altitude_gps_m": -0.07999999821186066, "groundspeed_mps": 0.03508482500910759}, "flight": {"mode": "STABILIZE", "armed": false}, "ekf": {"attitude": {"roll": -0.034993402659893036, "pitch": -0.017965679988265038, "yaw": -2.354806900024414}, "local_position": {"x": null, "y": null, "z": null}, "status": {"flags": 135, "velocity_variance": 0.0, "pos_horiz_variance": 0.005858939606696367, "pos_vert_variance": 0.054708994925022125}}, "errors": ["GPS 1: probing for u-blox at 230400 baud"]}
{"timestamp": "2025-12-17T08:20:25.272463Z", "telemetry": {"lat": 0.0, "lon": 0.0, "satellites": 0, "altitude_gps_m": -0.07999999821186066, "groundspeed_mps": 0.03935687988996506}, "flight": {"mode": "STABILIZE", "armed": false}, "ekf": {"attitude": {"roll": -0.03482688590884209, "pitch": -0.018053555861115456, "yaw": -2.3545937538146973}, "local_position": {"x": null, "y": null, "z": null}, "status": {"flags": 135, "velocity_variance": 0.0, "pos_horiz_variance": 0.006892011966556311, "pos_vert_variance": 0.009606628678739071}}, "errors": ["GPS 1: probing for u-blox at 230400 baud", "GPS 1: detected u-blox"]}
{"timestamp": "2025-12-17T08:20:26.272919Z", "telemetry": {"lat": 0.0, "lon": 0.0, "satellites": 0, "altitude_gps_m": -0.07999999821186066, "groundspeed_mps": 0.047691382467746735}, "flight": {"mode": "STABILIZE", "armed": false}, "ekf": {"attitude": {"roll": -0.03470306843519211, "pitch": -0.01826315186917782, "yaw": -2.3560280799865723}, "local_position": {"x": null, "y": null, "z": null}, "status": {"flags": 135, "velocity_variance": 0.0, "pos_horiz_variance": 0.008708255365490913, "pos_vert_variance": 0.0419016070663929}}, "errors": ["GPS 1: probing for u-blox at 230400 baud", "GPS 1: detected u-blox"]}
{"timestamp": "2025-12-17T08:20:27.272345Z", "telemetry": {"lat": 0.0, "lon": 0.0, "satellites": 0, "altitude_gps_m": -0.07999999821186066, "groundspeed_mps": 0.05026978626847267}, "flight": {"mode": "STABILIZE", "armed": false}, "ekf": {"attitude": {"roll": -0.03465026989579201, "pitch": -0.018483417108654976, "yaw": -2.3541829586029053}, "local_position": {"x": null, "y": null, "z": null}, "status": {"flags": 135, "velocity_variance": 0.0, "pos_horiz_variance": 0.010130578652024269, "pos_vert_variance": 0.0463116355240345}}, "errors": ["GPS 1: probing for u-blox at 230400 baud", "GPS 1: detected u-blox"]}
{"timestamp": "2025-12-17T08:20:28.272602Z", "telemetry": {"lat": 0.0, "lon": 0.0, "satellites": 0, "altitude_gps_m": -0.07999999821186066, "groundspeed_mps": 0.5164541006088257}, "flight": {"mode": "STABILIZE", "armed": false}, "ekf": {"attitude": {"roll": -0.025079570710659027, "pitch": -0.10885316133499146, "yaw": -2.409583568572998}, "local_position": {"x": null, "y": null, "z": null}, "status": {"flags": 135, "velocity_variance": 0.0, "pos_horiz_variance": 0.024457436054944992, "pos_vert_variance": 0.06273356825113297}}, "errors": ["GPS 1: probing for u-blox at 230400 baud", "GPS 1: detected u-blox", "u-blox 1 HW: 00070000 SW: 1.00 (59842)"]}
{"timestamp": "2025-12-17T08:20:29.272817Z", "telemetry": {"lat": 0.0, "lon": 0.0, "satellites": 0, "altitude_gps_m": -0.07999999821186066, "groundspeed_mps": 1.2502919435501099}, "flight": {"mode": "STABILIZE", "armed": false}, "ekf": {"attitude": {"roll": -0.05239154025912285, "pitch": 0.009625447914004326, "yaw": 2.315431594848633}, "local_position": {"x": null, "y": null, "z": null}, "status": {"flags": 135, "velocity_variance": 0.0, "pos_horiz_variance": 0.1757221668958664, "pos_vert_variance": 0.11459105461835861}}, "errors": ["GPS 1: probing for u-blox at 230400 baud", "GPS 1: detected u-blox", "u-blox 1 HW: 00070000 SW: 1.00 (59842)"]}
{"timestamp": "2025-12-17T08:20:30.272242Z", "telemetry": {"lat": 0.0, "lon": 0.0, "satellites": 0, "altitude_gps_m": -0.07999999821186066, "groundspeed_mps": 0.9934774041175842}, "flight": {"mode": "STABILIZE", "armed": false}, "ekf": {"attitude": {"roll": -0.11310748010873795, "pitch": 0.02273634262382984, "yaw": 0.7571412920951843}, "local_position": {"x": null, "y": null, "z": null}, "status": {"flags": 135, "velocity_variance": 0.0, "pos_horiz_variance": 0.1774829924106598, "pos_vert_variance": 0.0031706837471574545}}, "errors": ["GPS 1: probing for u-blox at 230400 baud", "GPS 1: detected u-blox", "u-blox 1 HW: 00070000 SW: 1.00 (59842)", "PreArm: RC not found", "PreArm: Hardware safety switch"]}
{"timestamp": "2025-12-17T08:20:31.272538Z", "telemetry": {"lat": 0.0, "lon": 0.0, "satellites": 0, "altitude_gps_m": -0.07999999821186066, "groundspeed_mps": 1.5343903303146362}, "flight": {"mode": "STABILIZE", "armed": false}, "ekf": {"attitude": {"roll": -0.037588976323604584, "pitch": 0.021762533113360405, "yaw": -0.10729905962944031}, "local_position": {"x": null, "y": null, "z": null}, "status": {"flags": 135, "velocity_variance": 0.0, "pos_horiz_variance": 0.19018150866031647, "pos_vert_variance": 0.08453332632780075}}, "errors": ["GPS 1: probing for u-blox at 230400 baud", "GPS 1: detected u-blox", "u-blox 1 HW: 00070000 SW: 1.00 (59842)", "PreArm: RC not found", "PreArm: Hardware safety switch"]}
{"timestamp": "2025-12-17T08:20:32.272339Z", "telemetry": {"lat": 0.0, "lon": 0.0, "satellites": 0, "altitude_gps_m": -0.07999999821186066, "groundspeed_mps": 1.4307907819747925}, "flight": {"mode": "STABILIZE", "armed": false}, "ekf": {"attitude": {"roll": -0.16898128390312195, "pitch": -0.08007915318012238, "yaw": 0.0074171279557049274}, "local_position": {"x": null, "y": null, "z": null}, "status": {"flags": 135, "velocity_variance": 0.0, "pos_horiz_variance": 0.217315673828125, "pos_vert_variance": 0.028964100405573845}}, "errors": ["GPS 1: probing for u-blox at 230400 baud", "GPS 1: detected u-blox", "u-blox 1 HW: 00070000 SW: 1.00 (59842)", "PreArm: RC not found", "PreArm: Hardware safety switch"]}
{"timestamp": "2025-12-17T08:20:33.281605Z", "telemetry": {"lat": 0.0, "lon": 0.0, "satellites": 0, "altitude_gps_m": -0.07999999821186066, "groundspeed_mps": 1.257706880569458}, "flight": {"mode": "STABILIZE", "armed": false}, "ekf": {"attitude": {"roll": -0.11331608146429062, "pitch": 0.007369518280029297, "yaw": -0.7280441522598267}, "local_position": {"x": null, "y": null, "z": null}, "status": {"flags": 1024, "velocity_variance": 0.0, "pos_horiz_variance": 0.27869850397109985, "pos_vert_variance": 0.0572027713060379}}, "errors": ["GPS 1: probing for u-blox at 230400 baud", "GPS 1: detected u-blox", "u-blox 1 HW: 00070000 SW: 1.00 (59842)", "PreArm: RC not found", "PreArm: Hardware safety switch"]}
{"timestamp": "2025-12-17T08:20:34.278821Z", "telemetry": {"lat": 0.0, "lon": 0.0, "satellites": 0, "altitude_gps_m": -0.07999999821186066, "groundspeed_mps": 0.48495909571647644}, "flight": {"mode": "STABILIZE", "armed": false}, "ekf": {"attitude": {"roll": -0.17358233034610748, "pitch": 0.09574835002422333, "yaw": -1.135554313659668}, "local_position": {"x": null, "y": null, "z": null}, "status": {"flags": 1024, "velocity_variance": 0.0, "pos_horiz_variance": 0.28353995084762573, "pos_vert_variance": 0.1264689564704895}}, "errors": ["GPS 1: probing for u-blox at 230400 baud", "GPS 1: detected u-blox", "u-blox 1 HW: 00070000 SW: 1.00 (59842)", "PreArm: RC not found", "PreArm: Hardware safety switch", "GPS 1: u-blox saving config"]}
{"timestamp": "2025-12-17T08:20:35.274438Z", "telemetry": {"lat": 0.0, "lon": 0.0, "satellites": 0, "altitude_gps_m": -0.07999999821186066, "groundspeed_mps": 0.8298177123069763}, "flight": {"mode": "STABILIZE", "armed": false}, "ekf": {"attitude": {"roll": -0.10132916271686554, "pitch": 0.045133233070373535, "yaw": 0.060733649879693985}, "local_position": {"x": null, "y": null, "z": null}, "status": {"flags": 135, "velocity_variance": 0.0, "pos_horiz_variance": 0.09674380719661713, "pos_vert_variance": 0.06618032604455948}}, "errors": ["GPS 1: probing for u-blox at 230400 baud", "GPS 1: detected u-blox", "u-blox 1 HW: 00070000 SW: 1.00 (59842)", "PreArm: RC not found", "PreArm: Hardware safety switch", "GPS 1: u-blox saving config"]}
{"timestamp": "2025-12-17T08:20:36.274756Z", "telemetry": {"lat": 0.0, "lon": 0.0, "satellites": 0, "altitude_gps_m": -0.07999999821186066, "groundspeed_mps": 0.9066526293754578}, "flight": {"mode": "STABILIZE", "armed": false}, "ekf": {"attitude": {"roll": -0.11808992177248001, "pitch": 0.09417460858821869, "yaw": 1.2776252031326294}, "local_position": {"x": null, "y": null, "z": null}, "status": {"flags": 135, "velocity_variance": 0.0, "pos_horiz_variance": 0.13720814883708954, "pos_vert_variance": 0.0006459763972088695}}, "errors": ["GPS 1: probing for u-blox at 230400 baud", "GPS 1: detected u-blox", "u-blox 1 HW: 00070000 SW: 1.00 (59842)", "PreArm: RC not found", "PreArm: Hardware safety switch", "GPS 1: u-blox saving config"]}
{"timestamp": "2025-12-17T08:20:37.272526Z", "telemetry": {"lat": 0.0, "lon": 0.0, "satellites": 0, "altitude_gps_m": -0.07999999821186066, "groundspeed_mps": 0.6927928924560547}, "flight": {"mode": "STABILIZE", "armed": false}, "ekf": {"attitude": {"roll": -0.34161707758903503, "pitch": -0.01548231765627861, "yaw": 1.9880101680755615}, "local_position": {"x": null, "y": null, "z": null}, "status": {"flags": 135, "velocity_variance": 0.0, "pos_horiz_variance": 0.12459883838891983, "pos_vert_variance": 0.18339356780052185}}, "errors": ["GPS 1: probing for u-blox at 230400 baud", "GPS 1: detected u-blox", "u-blox 1 HW: 00070000 SW: 1.00 (59842)", "PreArm: RC not found", "PreArm: Hardware safety switch", "GPS 1: u-blox saving config"]}
{"timestamp": "2025-12-17T08:20:38.272706Z", "telemetry": {"lat": 0.0, "lon": 0.0, "satellites": 0, "altitude_gps_m": -0.07999999821186066, "groundspeed_mps": 0.4433233439922333}, "flight": {"mode": "STABILIZE", "armed": false}, "ekf": {"attitude": {"roll": -0.12099113315343857, "pitch": 0.09048444032669067, "yaw": 1.0741814374923706}, "local_position": {"x": null, "y": null, "z": null}, "status": {"flags": 135, "velocity_variance": 0.0, "pos_horiz_variance": 0.10570693761110306, "pos_vert_variance": 0.12693414092063904}}, "errors": ["GPS 1: probing for u-blox at 230400 baud", "GPS 1: detected u-blox", "u-blox 1 HW: 00070000 SW: 1.00 (59842)", "PreArm: RC not found", "PreArm: Hardware safety switch", "GPS 1: u-blox saving config"]}
{"timestamp": "2025-12-17T08:20:39.272820Z", "telemetry": {"lat": 0.0, "lon": 0.0, "satellites": 0, "altitude_gps_m": -0.07999999821186066, "groundspeed_mps": 0.7721595764160156}, "flight": {"mode": "STABILIZE", "armed": false}, "ekf": {"attitude": {"roll": -0.02806907892227173, "pitch": -0.04227083921432495, "yaw": 1.0081779956817627}, "local_position": {"x": null, "y": null, "z": null}, "status": {"flags": 135, "velocity_variance": 0.0, "pos_horiz_variance": 0.0940280631184578, "pos_vert_variance": 0.08382932841777802}}, "errors": ["GPS 1: probing for u-blox at 230400 baud", "GPS 1: detected u-blox", "u-blox 1 HW: 00070000 SW: 1.00 (59842)", "PreArm: RC not found", "PreArm: Hardware safety switch", "GPS 1: u-blox saving config"]}
{"timestamp": "2025-12-17T08:20:40.272620Z", "telemetry": {"lat": 0.0, "lon": 0.0, "satellites": 0, "altitude_gps_m": -0.07999999821186066, "groundspeed_mps": 0.5882147550582886}, "flight": {"mode": "STABILIZE", "armed": false}, "ekf": {"attitude": {"roll": -0.01650996133685112, "pitch": -0.02737961709499359, "yaw": 1.0089677572250366}, "local_position": {"x": null, "y": null, "z": null}, "status": {"flags": 135, "velocity_variance": 0.0, "pos_horiz_variance": 0.13809925317764282, "pos_vert_variance": 0.06170078366994858}}, "errors": ["GPS 1: probing for u-blox at 230400 baud", "GPS 1: detected u-blox", "u-blox 1 HW: 00070000 SW: 1.00 (59842)", "PreArm: RC not found", "PreArm: Hardware safety switch", "GPS 1: u-blox saving config"]}
{"timestamp": "2025-12-17T08:20:41.273316Z", "telemetry": {"lat": 0.0, "lon": 0.0, "satellites": 0, "altitude_gps_m": -0.07999999821186066, "groundspeed_mps": 0.27032825350761414}, "flight": {"mode": "STABILIZE", "armed": false}, "ekf": {"attitude": {"roll": -0.010982406325638294, "pitch": -0.02401123195886612, "yaw": 1.0126047134399414}, "local_position": {"x": null, "y": null, "z": null}, "status": {"flags": 135, "velocity_variance": 0.0, "pos_horiz_variance": 0.10604946315288544, "pos_vert_variance": 0.07134144753217697}}, "errors": ["GPS 1: probing for u-blox at 230400 baud", "GPS 1: detected u-blox", "u-blox 1 HW: 00070000 SW: 1.00 (59842)", "PreArm: RC not found", "PreArm: Hardware safety switch", "GPS 1: u-blox saving config"]}
{"timestamp": "2025-12-17T08:20:42.272993Z", "telemetry": {"lat": 0.0, "lon": 0.0, "satellites": 0, "altitude_gps_m": -0.07999999821186066, "groundspeed_mps": 0.2925681471824646}, "flight": {"mode": "STABILIZE", "armed": false}, "ekf": {"attitude": {"roll": -0.007201402448117733, "pitch": -0.021121665835380554, "yaw": 1.012939214706421}, "local_position": {"x": null, "y": null, "z": null}, "status": {"flags": 135, "velocity_variance": 0.0, "pos_horiz_variance": 0.06765304505825043, "pos_vert_variance": 0.0007421884802170098}}, "errors": ["GPS 1: probing for u-blox at 230400 baud", "GPS 1: detected u-blox", "u-blox 1 HW: 00070000 SW: 1.00 (59842)", "PreArm: RC not found", "PreArm: Hardware safety switch", "GPS 1: u-blox saving config"]}
{"timestamp": "2025-12-17T08:20:43.272637Z", "telemetry": {"lat": 0.0, "lon": 0.0, "satellites": 0, "altitude_gps_m": -0.07999999821186066, "groundspeed_mps": 0.4436630606651306}, "flight": {"mode": "STABILIZE", "armed": false}, "ekf": {"attitude": {"roll": -0.006483535282313824, "pitch": -0.01954822614789009, "yaw": 1.0090693235397339}, "local_position": {"x": null, "y": null, "z": null}, "status": {"flags": 135, "velocity_variance": 0.0, "pos_horiz_variance": 0.05574619397521019, "pos_vert_variance": 0.09626463055610657}}, "errors": ["GPS 1: probing for u-blox at 230400 baud", "GPS 1: detected u-blox", "u-blox 1 HW: 00070000 SW: 1.00 (59842)", "PreArm: RC not found", "PreArm: Hardware safety switch", "GPS 1: u-blox saving config"]}
{"timestamp": "2025-12-17T08:20:44.273067Z", "telemetry": {"lat": 0.0, "lon": 0.0, "satellites": 0, "altitude_gps_m": -0.07999999821186066, "groundspeed_mps": 0.4872112274169922}, "flight": {"mode": "STABILIZE", "armed": false}, "ekf": {"attitude": {"roll": -0.008468776009976864, "pitch": -0.019101204350590706, "yaw": 1.0038957595825195}, "local_position": {"x": null, "y": null, "z": null}, "status": {"flags": 135, "velocity_variance": 0.0, "pos_horiz_variance": 0.08246108144521713, "pos_vert_variance": 0.07228149473667145}}, "errors": ["GPS 1: probing for u-blox at 230400 baud", "GPS 1: detected u-blox", "u-blox 1 HW: 00070000 SW: 1.00 (59842)", "PreArm: RC not found", "PreArm: Hardware safety switch", "GPS 1: u-blox saving config"]}
{"timestamp": "2025-12-17T08:20:45.280408Z", "telemetry": {"lat": 0.0, "lon": 0.0, "satellites": 0, "altitude_gps_m": -0.07999999821186066, "groundspeed_mps": 0.44128066301345825}, "flight": {"mode": "STABILIZE", "armed": false}, "ekf": {"attitude": {"roll": -0.012044101022183895, "pitch": -0.019465511664748192, "yaw": 0.9970194697380066}, "local_position": {"x": null, "y": null, "z": null}, "status": {"flags": 135, "velocity_variance": 0.0, "pos_horiz_variance": 0.09856853634119034, "pos_vert_variance": 0.023465972393751144}}, "errors": ["GPS 1: probing for u-blox at 230400 baud", "GPS 1: detected u-blox", "u-blox 1 HW: 00070000 SW: 1.00 (59842)", "PreArm: RC not found", "PreArm: Hardware safety switch", "GPS 1: u-blox saving config"]}
{"timestamp": "2025-12-17T08:20:46.277438Z", "telemetry": {"lat": 0.0, "lon": 0.0, "satellites": 0, "altitude_gps_m": -0.07999999821186066, "groundspeed_mps": 0.34758222103118896}, "flight": {"mode": "STABILIZE", "armed": false}, "ekf": {"attitude": {"roll": -0.016339275985956192, "pitch": -0.020235421136021614, "yaw": 0.9905736446380615}, "local_position": {"x": null, "y": null, "z": null}, "status": {"flags": 135, "velocity_variance": 0.0, "pos_horiz_variance": 0.09368624538183212, "pos_vert_variance": 0.13637520372867584}}, "errors": ["GPS 1: probing for u-blox at 230400 baud", "GPS 1: detected u-blox", "u-blox 1 HW: 00070000 SW: 1.00 (59842)", "PreArm: RC not found", "PreArm: Hardware safety switch", "GPS 1: u-blox saving config"]}
{"timestamp": "2025-12-17T08:20:47.275391Z", "telemetry": {"lat": 0.0, "lon": 0.0, "satellites": 0, "altitude_gps_m": -0.07999999821186066, "groundspeed_mps": 0.24511224031448364}, "flight": {"mode": "STABILIZE", "armed": false}, "ekf": {"attitude": {"roll": -0.020234592258930206, "pitch": -0.02099505625665188, "yaw": 0.9838327169418335}, "local_position": {"x": null, "y": null, "z": null}, "status": {"flags": 135, "velocity_variance": 0.0, "pos_horiz_variance": 0.07417977601289749, "pos_vert_variance": 0.0951378345489502}}, "errors": ["GPS 1: probing for u-blox at 230400 baud", "GPS 1: detected u-blox", "u-blox 1 HW: 00070000 SW: 1.00 (59842)", "PreArm: RC not found", "PreArm: Hardware safety switch", "GPS 1: u-blox saving config"]}
{"timestamp": "2025-12-17T08:20:48.272287Z", "telemetry": {"lat": 0.0, "lon": 0.0, "satellites": 0, "altitude_gps_m": -0.07999999821186066, "groundspeed_mps": 0.15891538560390472}, "flight": {"mode": "STABILIZE", "armed": false}, "ekf": {"attitude": {"roll": -0.023651596158742905, "pitch": -0.02159922383725643, "yaw": 0.976436197757721}, "local_position": {"x": null, "y": null, "z": null}, "status": {"flags": 135, "velocity_variance": 0.0, "pos_horiz_variance": 0.06092052534222603, "pos_vert_variance": 0.175637349486351}}, "errors": ["GPS 1: probing for u-blox at 230400 baud", "GPS 1: detected u-blox", "u-blox 1 HW: 00070000 SW: 1.00 (59842)", "PreArm: RC not found", "PreArm: Hardware safety switch", "GPS 1: u-blox saving config"]}
{"timestamp": "2025-12-17T08:20:49.273203Z", "telemetry": {"lat": 0.0, "lon": 0.0, "satellites": 0, "altitude_gps_m": -0.07999999821186066, "groundspeed_mps": 0.10940433293581009}, "flight": {"mode": "STABILIZE", "armed": false}, "ekf": {"attitude": {"roll": -0.025946669280529022, "pitch": -0.02206043154001236, "yaw": 0.9684638977050781}, "local_position": {"x": null, "y": null, "z": null}, "status": {"flags": 135, "velocity_variance": 0.0, "pos_horiz_variance": 0.04400571435689926, "pos_vert_variance": 0.12297278642654419}}, "errors": ["GPS 1: probing for u-blox at 230400 baud", "GPS 1: detected u-blox", "u-blox 1 HW: 00070000 SW: 1.00 (59842)", "PreArm: RC not found", "PreArm: Hardware safety switch", "GPS 1: u-blox saving config"]}
{"timestamp": "2025-12-17T08:20:50.272386Z", "telemetry": {"lat": 0.0, "lon": 0.0, "satellites": 0, "altitude_gps_m": -0.07999999821186066, "groundspeed_mps": 0.09115035831928253}, "flight": {"mode": "STABILIZE", "armed": false}, "ekf": {"attitude": {"roll": -0.027465108782052994, "pitch": -0.02234671823680401, "yaw": 0.9597610235214233}, "local_position": {"x": null, "y": null, "z": null}, "status": {"flags": 135, "velocity_variance": 0.0, "pos_horiz_variance": 0.028223654255270958, "pos_vert_variance": 0.15063528716564178}}, "errors": ["GPS 1: probing for u-blox at 230400 baud", "GPS 1: detected u-blox", "u-blox 1 HW: 00070000 SW: 1.00 (59842)", "PreArm: RC not found", "PreArm: Hardware safety switch", "GPS 1: u-blox saving config"]}
{"timestamp": "2025-12-17T08:20:51.272226Z", "telemetry": {"lat": 0.0, "lon": 0.0, "satellites": 0, "altitude_gps_m": -0.07999999821186066, "groundspeed_mps": 0.09276333451271057}, "flight": {"mode": "STABILIZE", "armed": false}, "ekf": {"attitude": {"roll": -0.02817218005657196, "pitch": -0.02252049744129181, "yaw": 0.9522795677185059}, "local_position": {"x": null, "y": null, "z": null}, "status": {"flags": 135, "velocity_variance": 0.0, "pos_horiz_variance": 0.022861547768115997, "pos_vert_variance": 0.013059111312031746}}, "errors": ["GPS 1: probing for u-blox at 230400 baud", "GPS 1: detected u-blox", "u-blox 1 HW: 00070000 SW: 1.00 (59842)", "PreArm: RC not found", "PreArm: Hardware safety switch", "GPS 1: u-blox saving config"]}
{"timestamp": "2025-12-17T08:20:52.272482Z", "telemetry": {"lat": 0.0, "lon": 0.0, "satellites": 0, "altitude_gps_m": -0.07999999821186066, "groundspeed_mps": 0.09824925661087036}, "flight": {"mode": "STABILIZE", "armed": false}, "ekf": {"attitude": {"roll": -0.03000713139772415, "pitch": -0.025654282420873642, "yaw": 0.9436626434326172}, "local_position": {"x": null, "y": null, "z": null}, "status": {"flags": 135, "velocity_variance": 0.0, "pos_horiz_variance": 0.02187822200357914, "pos_vert_variance": 0.025080842897295952}}, "errors": ["GPS 1: probing for u-blox at 230400 baud", "GPS 1: detected u-blox", "u-blox 1 HW: 00070000 SW: 1.00 (59842)", "PreArm: RC not found", "PreArm: Hardware safety switch", "GPS 1: u-blox saving config"]}
{"timestamp": "2025-12-17T08:20:53.273180Z", "telemetry": {"lat": 0.0, "lon": 0.0, "satellites": 0, "altitude_gps_m": -0.07999999821186066, "groundspeed_mps": 0.09707969427108765}, "flight": {"mode": "STABILIZE", "armed": false}, "ekf": {"attitude": {"roll": -0.03168958052992821, "pitch": -0.02926911599934101, "yaw": 0.9357209205627441}, "local_position": {"x": null, "y": null, "z": null}, "status": {"flags": 135, "velocity_variance": 0.0, "pos_horiz_variance": 0.02239387482404709, "pos_vert_variance": 0.05538879707455635}}, "errors": ["GPS 1: probing for u-blox at 230400 baud", "GPS 1: detected u-blox", "u-blox 1 HW: 00070000 SW: 1.00 (59842)", "PreArm: RC not found", "PreArm: Hardware safety switch", "GPS 1: u-blox saving config"]}
{"timestamp": "2025-12-17T08:20:54.273112Z", "telemetry": {"lat": 0.0, "lon": 0.0, "satellites": 0, "altitude_gps_m": -0.07999999821186066, "groundspeed_mps": 0.09827034175395966}, "flight": {"mode": "STABILIZE", "armed": false}, "ekf": {"attitude": {"roll": -0.03027232736349106, "pitch": -0.028369003906846046, "yaw": 0.9314103126525879}, "local_position": {"x": null, "y": null, "z": null}, "status": {"flags": 135, "velocity_variance": 0.0, "pos_horiz_variance": 0.022933436557650566, "pos_vert_variance": 0.03334331884980202}}, "errors": ["GPS 1: probing for u-blox at 230400 baud", "GPS 1: detected u-blox", "u-blox 1 HW: 00070000 SW: 1.00 (59842)", "PreArm: RC not found", "PreArm: Hardware safety switch", "GPS 1: u-blox saving config"]}
{"timestamp": "2025-12-17T08:20:55.272872Z", "telemetry": {"lat": 0.0, "lon": 0.0, "satellites": 0, "altitude_gps_m": -0.07999999821186066, "groundspeed_mps": 0.09706452488899231}, "flight": {"mode": "STABILIZE", "armed": false}, "ekf": {"attitude": {"roll": -0.029356002807617188, "pitch": -0.024632271379232407, "yaw": 0.9279502630233765}, "local_position": {"x": null, "y": null, "z": null}, "status": {"flags": 135, "velocity_variance": 0.0, "pos_horiz_variance": 0.023180078715085983, "pos_vert_variance": 0.02721388079226017}}, "errors": ["GPS 1: probing for u-blox at 230400 baud", "GPS 1: detected u-blox", "u-blox 1 HW: 00070000 SW: 1.00 (59842)", "PreArm: RC not found", "PreArm: Hardware safety switch", "GPS 1: u-blox saving config"]}
{"timestamp": "2025-12-17T08:20:56.272370Z", "telemetry": {"lat": 0.0, "lon": 0.0, "satellites": 0, "altitude_gps_m": -0.07999999821186066, "groundspeed_mps": 0.09911657124757767}, "flight": {"mode": "STABILIZE", "armed": false}, "ekf": {"attitude": {"roll": -0.02912168577313423, "pitch": -0.023948678746819496, "yaw": 0.9251343011856079}, "local_position": {"x": null, "y": null, "z": null}, "status": {"flags": 135, "velocity_variance": 0.0, "pos_horiz_variance": 0.02332560531795025, "pos_vert_variance": 0.02917664498090744}}, "errors": ["GPS 1: probing for u-blox at 230400 baud", "GPS 1: detected u-blox", "u-blox 1 HW: 00070000 SW: 1.00 (59842)", "PreArm: RC not found", "PreArm: Hardware safety switch", "GPS 1: u-blox saving config"]}
{"timestamp": "2025-12-17T08:20:57.277402Z", "telemetry": {"lat": 0.0, "lon": 0.0, "satellites": 0, "altitude_gps_m": -0.07999999821186066, "groundspeed_mps": 0.09781687706708908}, "flight": {"mode": "STABILIZE", "armed": false}, "ekf": {"attitude": {"roll": -0.02927236631512642, "pitch": -0.02403443306684494, "yaw": 0.9219070672988892}, "local_position": {"x": null, "y": null, "z": null}, "status": {"flags": 135, "velocity_variance": 0.0, "pos_horiz_variance": 0.023270154371857643, "pos_vert_variance": 0.06666402518749237}}, "errors": ["GPS 1: probing for u-blox at 230400 baud", "GPS 1: detected u-blox", "u-blox 1 HW: 00070000 SW: 1.00 (59842)", "PreArm: RC not found", "PreArm: Hardware safety switch", "GPS 1: u-blox saving config"]}
{"timestamp": "2025-12-17T08:20:58.275825Z", "telemetry": {"lat": 0.0, "lon": 0.0, "satellites": 0, "altitude_gps_m": -0.07999999821186066, "groundspeed_mps": 0.09791497141122818}, "flight": {"mode": "STABILIZE", "armed": false}, "ekf": {"attitude": {"roll": -0.029344283044338226, "pitch": -0.02407270111143589, "yaw": 0.9190647602081299}, "local_position": {"x": null, "y": null, "z": null}, "status": {"flags": 135, "velocity_variance": 0.0, "pos_horiz_variance": 0.02329038642346859, "pos_vert_variance": 0.05987151712179184}}, "errors": ["GPS 1: probing for u-blox at 230400 baud", "GPS 1: detected u-blox", "u-blox 1 HW: 00070000 SW: 1.00 (59842)", "PreArm: RC not found", "PreArm: Hardware safety switch", "GPS 1: u-blox saving config"]}
{"timestamp": "2025-12-17T08:20:59.276684Z", "telemetry": {"lat": 0.0, "lon": 0.0, "satellites": 0, "altitude_gps_m": -0.07999999821186066, "groundspeed_mps": 0.10066287219524384}, "flight": {"mode": "STABILIZE", "armed": false}, "ekf": {"attitude": {"roll": -0.02951972559094429, "pitch": -0.024007659405469894, "yaw": 0.9170509576797485}, "local_position": {"x": null, "y": null, "z": null}, "status": {"flags": 135, "velocity_variance": 0.0, "pos_horiz_variance": 0.023721016943454742, "pos_vert_variance": 0.018579743802547455}}, "errors": ["GPS 1: probing for u-blox at 230400 baud", "GPS 1: detected u-blox", "u-blox 1 HW: 00070000 SW: 1.00 (59842)", "PreArm: RC not found", "PreArm: Hardware safety switch", "GPS 1: u-blox saving config"]}
{"timestamp": "2025-12-17T08:21:00.273028Z", "telemetry": {"lat": 0.0, "lon": 0.0, "satellites": 0, "altitude_gps_m": -0.07999999821186066, "groundspeed_mps": 0.09794431179761887}, "flight": {"mode": "STABILIZE", "armed": false}, "ekf": {"attitude": {"roll": -0.029437366873025894, "pitch": -0.02413093112409115, "yaw": 0.9147716164588928}, "local_position": {"x": null, "y": null, "z": null}, "status": {"flags": 135, "velocity_variance": 0.0, "pos_horiz_variance": 0.02396826446056366, "pos_vert_variance": 0.03500181809067726}}, "errors": ["GPS 1: probing for u-blox at 230400 baud", "GPS 1: detected u-blox", "u-blox 1 HW: 00070000 SW: 1.00 (59842)", "PreArm: RC not found", "PreArm: Hardware safety switch", "GPS 1: u-blox saving config"]}
{"timestamp": "2025-12-17T08:21:01.272929Z", "telemetry": {"lat": 28.7531004, "lon": 77.117829, "satellites": 5, "altitude_gps_m": 221.76998901367188, "groundspeed_mps": 0.11610959470272064}, "flight": {"mode": "STABILIZE", "armed": false}, "ekf": {"attitude": {"roll": -0.029315348714590073, "pitch": -0.024740222841501236, "yaw": 0.9139013886451721}, "local_position": {"x": null, "y": null, "z": null}, "status": {"flags": 135, "velocity_variance": 0.0, "pos_horiz_variance": 0.03373777121305466, "pos_vert_variance": 0.019003601744771004}}, "errors": ["GPS 1: probing for u-blox at 230400 baud", "GPS 1: detected u-blox", "u-blox 1 HW: 00070000 SW: 1.00 (59842)", "PreArm: RC not found", "PreArm: Hardware safety switch", "GPS 1: u-blox saving config", "PreArm: RC not found", "PreArm: Hardware safety switch"]}
{"timestamp": "2025-12-17T08:21:02.272903Z", "telemetry": {"lat": 28.7530908, "lon": 77.1178286, "satellites": 5, "altitude_gps_m": 221.86000061035156, "groundspeed_mps": 0.1409439593553543}, "flight": {"mode": "STABILIZE", "armed": false}, "ekf": {"attitude": {"roll": -0.029300857335329056, "pitch": -0.025255665183067322, "yaw": 0.9143781661987305}, "local_position": {"x": null, "y": null, "z": null}, "status": {"flags": 135, "velocity_variance": 0.0, "pos_horiz_variance": 0.043033137917518616, "pos_vert_variance": 0.01248643547296524}}, "errors": ["GPS 1: probing for u-blox at 230400 baud", "GPS 1: detected u-blox", "u-blox 1 HW: 00070000 SW: 1.00 (59842)", "PreArm: RC not found", "PreArm: Hardware safety switch", "GPS 1: u-blox saving config", "PreArm: RC not found", "PreArm: Hardware safety switch"]}
{"timestamp": "2025-12-17T08:21:03.273005Z", "telemetry": {"lat": 28.7530942, "lon": 77.1178321, "satellites": 5, "altitude_gps_m": 221.70999145507812, "groundspeed_mps": 0.14808157086372375}, "flight": {"mode": "STABILIZE", "armed": false}, "ekf": {"attitude": {"roll": -0.02938619628548622, "pitch": -0.025327827781438828, "yaw": 0.9144222140312195}, "local_position": {"x": null, "y": null, "z": null}, "status": {"flags": 135, "velocity_variance": 0.0, "pos_horiz_variance": 0.04424068331718445, "pos_vert_variance": 0.012269273400306702}}, "errors": ["GPS 1: probing for u-blox at 230400 baud", "GPS 1: detected u-blox", "u-blox 1 HW: 00070000 SW: 1.00 (59842)", "PreArm: RC not found", "PreArm: Hardware safety switch", "GPS 1: u-blox saving config", "PreArm: RC not found", "PreArm: Hardware safety switch"]}
{"timestamp": "2025-12-17T08:21:04.272863Z", "telemetry": {"lat": 28.7530867, "lon": 77.1178336, "satellites": 5, "altitude_gps_m": 222.1999969482422, "groundspeed_mps": 0.1497047394514084}, "flight": {"mode": "STABILIZE", "armed": false}, "ekf": {"attitude": {"roll": -0.02939038723707199, "pitch": -0.02547481097280979, "yaw": 0.9146418571472168}, "local_position": {"x": null, "y": null, "z": null}, "status": {"flags": 135, "velocity_variance": 0.0, "pos_horiz_variance": 0.04357253387570381, "pos_vert_variance": 0.012561284005641937}}, "errors": ["GPS 1: probing for u-blox at 230400 baud", "GPS 1: detected u-blox", "u-blox 1 HW: 00070000 SW: 1.00 (59842)", "PreArm: RC not found", "PreArm: Hardware safety switch", "GPS 1: u-blox saving config", "PreArm: RC not found", "PreArm: Hardware safety switch"]}
{"timestamp": "2025-12-17T08:21:05.272928Z", "telemetry": {"lat": 28.753079, "lon": 77.1178348, "satellites": 5, "altitude_gps_m": 222.54998779296875, "groundspeed_mps": 0.15520653128623962}, "flight": {"mode": "STABILIZE", "armed": false}, "ekf": {"attitude": {"roll": -0.02946346625685692, "pitch": -0.025794178247451782, "yaw": 0.9152583479881287}, "local_position": {"x": null, "y": null, "z": null}, "status": {"flags": 135, "velocity_variance": 0.0, "pos_horiz_variance": 0.04367249459028244, "pos_vert_variance": 0.1236046701669693}}, "errors": ["GPS 1: probing for u-blox at 230400 baud", "GPS 1: detected u-blox", "u-blox 1 HW: 00070000 SW: 1.00 (59842)", "PreArm: RC not found", "PreArm: Hardware safety switch", "GPS 1: u-blox saving config", "PreArm: RC not found", "PreArm: Hardware safety switch"]}
{"timestamp": "2025-12-17T08:21:06.272078Z", "telemetry": {"lat": 28.753076, "lon": 77.1178356, "satellites": 5, "altitude_gps_m": 222.47999572753906, "groundspeed_mps": 0.16582657396793365}, "flight": {"mode": "STABILIZE", "armed": false}, "ekf": {"attitude": {"roll": -0.029462985694408417, "pitch": -0.0261161457747221, "yaw": 0.9160199761390686}, "local_position": {"x": null, "y": null, "z": null}, "status": {"flags": 135, "velocity_variance": 0.0, "pos_horiz_variance": 0.04491550847887993, "pos_vert_variance": 0.02445312589406967}}, "errors": ["GPS 1: probing for u-blox at 230400 baud", "GPS 1: detected u-blox", "u-blox 1 HW: 00070000 SW: 1.00 (59842)", "PreArm: RC not found", "PreArm: Hardware safety switch", "GPS 1: u-blox saving config", "PreArm: RC not found", "PreArm: Hardware safety switch"]}
{"timestamp": "2025-12-17T08:21:07.273047Z", "telemetry": {"lat": 28.7530669, "lon": 77.1178365, "satellites": 5, "altitude_gps_m": 222.6699981689453, "groundspeed_mps": 0.17699556052684784}, "flight": {"mode": "STABILIZE", "armed": false}, "ekf": {"attitude": {"roll": -0.029402751475572586, "pitch": -0.026252735406160355, "yaw": 0.9166185259819031}, "local_position": {"x": null, "y": null, "z": null}, "status": {"flags": 135, "velocity_variance": 0.0, "pos_horiz_variance": 0.04794560745358467, "pos_vert_variance": 0.0701303482055664}}, "errors": ["GPS 1: probing for u-blox at 230400 baud", "GPS 1: detected u-blox", "u-blox 1 HW: 00070000 SW: 1.00 (59842)", "PreArm: RC not found", "PreArm: Hardware safety switch", "GPS 1: u-blox saving config", "PreArm: RC not found", "PreArm: Hardware safety switch"]}
{"timestamp": "2025-12-17T08:21:08.281095Z", "telemetry": {"lat": 28.7530591, "lon": 77.1178364, "satellites": 5, "altitude_gps_m": 222.72999572753906, "groundspeed_mps": 0.18191690742969513}, "flight": {"mode": "STABILIZE", "armed": false}, "ekf": {"attitude": {"roll": -0.02930387854576111, "pitch": -0.02630535513162613, "yaw": 0.9173474311828613}, "local_position": {"x": null, "y": null, "z": null}, "status": {"flags": 135, "velocity_variance": 0.0, "pos_horiz_variance": 0.04992591217160225, "pos_vert_variance": 0.027380889281630516}}, "errors": ["GPS 1: probing for u-blox at 230400 baud", "GPS 1: detected u-blox", "u-blox 1 HW: 00070000 SW: 1.00 (59842)", "PreArm: RC not found", "PreArm: Hardware safety switch", "GPS 1: u-blox saving config", "PreArm: RC not found", "PreArm: Hardware safety switch"]}
{"timestamp": "2025-12-17T08:21:09.277030Z", "telemetry": {"lat": 28.7530544, "lon": 77.1178363, "satellites": 5, "altitude_gps_m": 222.6999969482422, "groundspeed_mps": 0.18174384534358978}, "flight": {"mode": "STABILIZE", "armed": false}, "ekf": {"attitude": {"roll": -0.02919274941086769, "pitch": -0.026422539725899696, "yaw": 0.9180524349212646}, "local_position": {"x": null, "y": null, "z": null}, "status": {"flags": 135, "velocity_variance": 0.0, "pos_horiz_variance": 0.05056750029325485, "pos_vert_variance": 0.050245027989149094}}, "errors": ["GPS 1: probing for u-blox at 230400 baud", "GPS 1: detected u-blox", "u-blox 1 HW: 00070000 SW: 1.00 (59842)", "PreArm: RC not found", "PreArm: Hardware safety switch", "GPS 1: u-blox saving config", "PreArm: RC not found", "PreArm: Hardware safety switch"]}
{"timestamp": "2025-12-17T08:21:10.272906Z", "telemetry": {"lat": 28.7530483, "lon": 77.1178354, "satellites": 5, "altitude_gps_m": 222.75, "groundspeed_mps": 0.18470709025859833}, "flight": {"mode": "STABILIZE", "armed": false}, "ekf": {"attitude": {"roll": -0.029137909412384033, "pitch": -0.02642829716205597, "yaw": 0.9188587069511414}, "local_position": {"x": null, "y": null, "z": null}, "status": {"flags": 135, "velocity_variance": 0.0, "pos_horiz_variance": 0.05114659294486046, "pos_vert_variance": 0.05092734098434448}}, "errors": ["GPS 1: probing for u-blox at 230400 baud", "GPS 1: detected u-blox", "u-blox 1 HW: 00070000 SW: 1.00 (59842)", "PreArm: RC not found", "PreArm: Hardware safety switch", "GPS 1: u-blox saving config", "PreArm: RC not found", "PreArm: Hardware safety switch"]}
{"timestamp": "2025-12-17T08:21:11.273119Z", "telemetry": {"lat": 28.7530451, "lon": 77.1178343, "satellites": 5, "altitude_gps_m": 222.67999267578125, "groundspeed_mps": 0.18519887328147888}, "flight": {"mode": "STABILIZE", "armed": false}, "ekf": {"attitude": {"roll": -0.029010068625211716, "pitch": -0.026495590806007385, "yaw": 0.919340193271637}, "local_position": {"x": null, "y": null, "z": null}, "status": {"flags": 135, "velocity_variance": 0.0, "pos_horiz_variance": 0.0515306256711483, "pos_vert_variance": 0.023739982396364212}}, "errors": ["GPS 1: probing for u-blox at 230400 baud", "GPS 1: detected u-blox", "u-blox 1 HW: 00070000 SW: 1.00 (59842)", "PreArm: RC not found", "PreArm: Hardware safety switch", "GPS 1: u-blox saving config", "PreArm: RC not found", "PreArm: Hardware safety switch"]}
{"timestamp": "2025-12-17T08:21:12.272273Z", "telemetry": {"lat": 28.7530436, "lon": 77.1178337, "satellites": 5, "altitude_gps_m": 222.52999877929688, "groundspeed_mps": 0.18516743183135986}, "flight": {"mode": "STABILIZE", "armed": false}, "ekf": {"attitude": {"roll": -0.029023822396993637, "pitch": -0.026484277099370956, "yaw": 0.9207034111022949}, "local_position": {"x": null, "y": null, "z": null}, "status": {"flags": 135, "velocity_variance": 0.0, "pos_horiz_variance": 0.05162828043103218, "pos_vert_variance": 0.06446937471628189}}, "errors": ["GPS 1: probing for u-blox at 230400 baud", "GPS 1: detected u-blox", "u-blox 1 HW: 00070000 SW: 1.00 (59842)", "PreArm: RC not found", "PreArm: Hardware safety switch", "GPS 1: u-blox saving config", "PreArm: RC not found", "PreArm: Hardware safety switch"]}
{"timestamp": "2025-12-17T08:21:13.273306Z", "telemetry": {"lat": 28.753042, "lon": 77.1178329, "satellites": 5, "altitude_gps_m": 222.3199920654297, "groundspeed_mps": 0.18701189756393433}, "flight": {"mode": "STABILIZE", "armed": false}, "ekf": {"attitude": {"roll": -0.029105879366397858, "pitch": -0.026482820510864258, "yaw": 0.9213817119598389}, "local_position": {"x": null, "y": null, "z": null}, "status": {"flags": 135, "velocity_variance": 0.0, "pos_horiz_variance": 0.05236416682600975, "pos_vert_variance": 0.030556295067071915}}, "errors": ["GPS 1: probing for u-blox at 230400 baud", "GPS 1: detected u-blox", "u-blox 1 HW: 00070000 SW: 1.00 (59842)", "PreArm: RC not found", "PreArm: Hardware safety switch", "GPS 1: u-blox saving config", "PreArm: RC not found", "PreArm: Hardware safety switch"]}
{"timestamp": "2025-12-17T08:21:14.272775Z", "telemetry": {"lat": 28.75304, "lon": 77.117832, "satellites": 5, "altitude_gps_m": 222.25999450683594, "groundspeed_mps": 0.1852957010269165}, "flight": {"mode": "STABILIZE", "armed": false}, "ekf": {"attitude": {"roll": -0.029313769191503525, "pitch": -0.026501448825001717, "yaw": 0.9222227334976196}, "local_position": {"x": null, "y": null, "z": null}, "status": {"flags": 135, "velocity_variance": 0.0, "pos_horiz_variance": 0.05243224650621414, "pos_vert_variance": 0.03683799132704735}}, "errors": ["GPS 1: probing for u-blox at 230400 baud", "GPS 1: detected u-blox", "u-blox 1 HW: 00070000 SW: 1.00 (59842)", "PreArm: RC not found", "PreArm: Hardware safety switch", "GPS 1: u-blox saving config", "PreArm: RC not found", "PreArm: Hardware safety switch"]}
{"timestamp": "2025-12-17T08:21:15.272798Z", "telemetry": {"lat": 28.7530404, "lon": 77.1178318, "satellites": 5, "altitude_gps_m": 221.97000122070312, "groundspeed_mps": 0.18364915251731873}, "flight": {"mode": "STABILIZE", "armed": false}, "ekf": {"attitude": {"roll": -0.029435690492391586, "pitch": -0.026533976197242737, "yaw": 0.9232685565948486}, "local_position": {"x": null, "y": null, "z": null}, "status": {"flags": 135, "velocity_variance": 0.0, "pos_horiz_variance": 0.052367255091667175, "pos_vert_variance": 0.012678155675530434}}, "errors": ["GPS 1: probing for u-blox at 230400 baud", "GPS 1: detected u-blox", "u-blox 1 HW: 00070000 SW: 1.00 (59842)", "PreArm: RC not found", "PreArm: Hardware safety switch", "GPS 1: u-blox saving config", "PreArm: RC not found", "PreArm: Hardware safety switch"]}
{"timestamp": "2025-12-17T08:21:16.273027Z", "telemetry": {"lat": 28.7530428, "lon": 77.1178317, "satellites": 5, "altitude_gps_m": 221.51998901367188, "groundspeed_mps": 0.1844617873430252}, "flight": {"mode": "STABILIZE", "armed": false}, "ekf": {"attitude": {"roll": -0.029347289353609085, "pitch": -0.026661023497581482, "yaw": 0.9240062236785889}, "local_position": {"x": null, "y": null, "z": null}, "status": {"flags": 135, "velocity_variance": 0.0, "pos_horiz_variance": 0.05192887783050537, "pos_vert_variance": 0.016164354979991913}}, "errors": ["GPS 1: probing for u-blox at 230400 baud", "GPS 1: detected u-blox", "u-blox 1 HW: 00070000 SW: 1.00 (59842)", "PreArm: RC not found", "PreArm: Hardware safety switch", "GPS 1: u-blox saving config", "PreArm: RC not found", "PreArm: Hardware safety switch"]}
{"timestamp": "2025-12-17T08:21:17.273301Z", "telemetry": {"lat": 28.7530436, "lon": 77.1178314, "satellites": 5, "altitude_gps_m": 221.27999877929688, "groundspeed_mps": 0.18668581545352936}, "flight": {"mode": "STABILIZE", "armed": false}, "ekf": {"attitude": {"roll": -0.02936743199825287, "pitch": -0.026683690026402473, "yaw": 0.9247041940689087}, "local_position": {"x": null, "y": null, "z": null}, "status": {"flags": 135, "velocity_variance": 0.0, "pos_horiz_variance": 0.052328191697597504, "pos_vert_variance": 0.05647799372673035}}, "errors": ["GPS 1: probing for u-blox at 230400 baud", "GPS 1: detected u-blox", "u-blox 1 HW: 00070000 SW: 1.00 (59842)", "PreArm: RC not found", "PreArm: Hardware safety switch", "GPS 1: u-blox saving config", "PreArm: RC not found", "PreArm: Hardware safety switch"]}
{"timestamp": "2025-12-17T08:21:18.272196Z", "telemetry": {"lat": 28.7530452, "lon": 77.1178311, "satellites": 5, "altitude_gps_m": 220.87998962402344, "groundspeed_mps": 0.19082042574882507}, "flight": {"mode": "STABILIZE", "armed": false}, "ekf": {"attitude": {"roll": -0.029171541333198547, "pitch": -0.026782596483826637, "yaw": 0.925662100315094}, "local_position": {"x": null, "y": null, "z": null}, "status": {"flags": 135, "velocity_variance": 0.0, "pos_horiz_variance": 0.05254213139414787, "pos_vert_variance": 0.01639590412378311}}, "errors": ["GPS 1: probing for u-blox at 230400 baud", "GPS 1: detected u-blox", "u-blox 1 HW: 00070000 SW: 1.00 (59842)", "PreArm: RC not found", "PreArm: Hardware safety switch", "GPS 1: u-blox saving config", "PreArm: RC not found", "PreArm: Hardware safety switch"]}
{"timestamp": "2025-12-17T08:21:19.272788Z", "telemetry": {"lat": 28.7530452, "lon": 77.1178305, "satellites": 5, "altitude_gps_m": 220.5699920654297, "groundspeed_mps": 0.19489051401615143}, "flight": {"mode": "STABILIZE", "armed": false}, "ekf": {"attitude": {"roll": -0.02911309152841568, "pitch": -0.02685001865029335, "yaw": 0.9264613389968872}, "local_position": {"x": null, "y": null, "z": null}, "status": {"flags": 135, "velocity_variance": 0.0, "pos_horiz_variance": 0.05381189286708832, "pos_vert_variance": 0.07816454768180847}}, "errors": ["GPS 1: probing for u-blox at 230400 baud", "GPS 1: detected u-blox", "u-blox 1 HW: 00070000 SW: 1.00 (59842)", "PreArm: RC not found", "PreArm: Hardware safety switch", "GPS 1: u-blox saving config", "PreArm: RC not found", "PreArm: Hardware safety switch"]}
{"timestamp": "2025-12-17T08:21:20.282086Z", "telemetry": {"lat": 28.7530465, "lon": 77.11783, "satellites": 5, "altitude_gps_m": 220.0800018310547, "groundspeed_mps": 0.1979294866323471}, "flight": {"mode": "STABILIZE", "armed": false}, "ekf": {"attitude": {"roll": -0.029048439115285873, "pitch": -0.026986535638570786, "yaw": 0.9277545809745789}, "local_position": {"x": null, "y": null, "z": null}, "status": {"flags": 135, "velocity_variance": 0.0, "pos_horiz_variance": 0.05444006249308586, "pos_vert_variance": 0.025834647938609123}}, "errors": ["GPS 1: probing for u-blox at 230400 baud", "GPS 1: detected u-blox", "u-blox 1 HW: 00070000 SW: 1.00 (59842)", "PreArm: RC not found", "PreArm: Hardware safety switch", "GPS 1: u-blox saving config", "PreArm: RC not found", "PreArm: Hardware safety switch"]}
{"timestamp": "2025-12-17T08:21:21.276015Z", "telemetry": {"lat": 28.7530474, "lon": 77.1178294, "satellites": 5, "altitude_gps_m": 219.5699920654297, "groundspeed_mps": 0.20056229829788208}, "flight": {"mode": "STABILIZE", "armed": false}, "ekf": {"attitude": {"roll": -0.029195066541433334, "pitch": -0.027083206921815872, "yaw": 0.9287107586860657}, "local_position": {"x": null, "y": null, "z": null}, "status": {"flags": 135, "velocity_variance": 0.0, "pos_horiz_variance": 0.05553478002548218, "pos_vert_variance": 0.04534095525741577}}, "errors": ["GPS 1: probing for u-blox at 230400 baud", "GPS 1: detected u-blox", "u-blox 1 HW: 00070000 SW: 1.00 (59842)", "PreArm: RC not found", "PreArm: Hardware safety switch", "GPS 1: u-blox saving config", "PreArm: RC not found", "PreArm: Hardware safety switch"]}
{"timestamp": "2025-12-17T08:21:22.272278Z", "telemetry": {"lat": 28.753049, "lon": 77.1178289, "satellites": 5, "altitude_gps_m": 219.0699920654297, "groundspeed_mps": 0.2022055834531784}, "flight": {"mode": "STABILIZE", "armed": false}, "ekf": {"attitude": {"roll": -0.02929685264825821, "pitch": -0.027059022337198257, "yaw": 0.9294655919075012}, "local_position": {"x": null, "y": null, "z": null}, "status": {"flags": 135, "velocity_variance": 0.0, "pos_horiz_variance": 0.056349895894527435, "pos_vert_variance": 0.03943747282028198}}, "errors": ["GPS 1: probing for u-blox at 230400 baud", "GPS 1: detected u-blox", "u-blox 1 HW: 00070000 SW: 1.00 (59842)", "PreArm: RC not found", "PreArm: Hardware safety switch", "GPS 1: u-blox saving config", "PreArm: RC not found", "PreArm: Hardware safety switch"]}
{"timestamp": "2025-12-17T08:21:23.272756Z", "telemetry": {"lat": 28.7530502, "lon": 77.1178283, "satellites": 5, "altitude_gps_m": 218.47000122070312, "groundspeed_mps": 0.20096363127231598}, "flight": {"mode": "STABILIZE", "armed": false}, "ekf": {"attitude": {"roll": -0.029572390019893646, "pitch": -0.027229947969317436, "yaw": 0.9305025935173035}, "local_position": {"x": null, "y": null, "z": null}, "status": {"flags": 135, "velocity_variance": 0.0, "pos_horiz_variance": 0.056632235646247864, "pos_vert_variance": 0.0496189258992672}}, "errors": ["GPS 1: probing for u-blox at 230400 baud", "GPS 1: detected u-blox", "u-blox 1 HW: 00070000 SW: 1.00 (59842)", "PreArm: RC not found", "PreArm: Hardware safety switch", "GPS 1: u-blox saving config", "PreArm: RC not found", "PreArm: Hardware safety switch"]}
{"timestamp": "2025-12-17T08:21:24.273107Z", "telemetry": {"lat": 28.75305, "lon": 77.1178276, "satellites": 5, "altitude_gps_m": 218.0399932861328, "groundspeed_mps": 0.20344765484333038}, "flight": {"mode": "STABILIZE", "armed": false}, "ekf": {"attitude": {"roll": -0.02957618236541748, "pitch": -0.027361813932657242, "yaw": 0.9313098192214966}, "local_position": {"x": null, "y": null, "z": null}, "status": {"flags": 135, "velocity_variance": 0.0, "pos_horiz_variance": 0.05710836872458458, "pos_vert_variance": 0.07335397601127625}}, "errors": ["GPS 1: probing for u-blox at 230400 baud", "GPS 1: detected u-blox", "u-blox 1 HW: 00070000 SW: 1.00 (59842)", "PreArm: RC not found", "PreArm: Hardware safety switch", "GPS 1: u-blox saving config", "PreArm: RC not found", "PreArm: Hardware safety switch"]}
{"timestamp": "2025-12-17T08:21:25.272186Z", "telemetry": {"lat": 28.7530646, "lon": 77.1178268, "satellites": 7, "altitude_gps_m": 216.62998962402344, "groundspeed_mps": 0.20410524308681488}, "flight": {"mode": "STABILIZE", "armed": false}, "ekf": {"attitude": {"roll": -0.029565241187810898, "pitch": -0.02742963284254074, "yaw": 0.9322288036346436}, "local_position": {"x": null, "y": null, "z": null}, "status": {"flags": 135, "velocity_variance": 0.0, "pos_horiz_variance": 0.05714444816112518, "pos_vert_variance": 0.05655171722173691}}, "errors": ["GPS 1: probing for u-blox at 230400 baud", "GPS 1: detected u-blox", "u-blox 1 HW: 00070000 SW: 1.00 (59842)", "PreArm: RC not found", "PreArm: Hardware safety switch", "GPS 1: u-blox saving config", "PreArm: RC not found", "PreArm: Hardware safety switch"]}
{"timestamp": "2025-12-17T08:21:26.272767Z", "telemetry": {"lat": 28.7530737, "lon": 77.1178256, "satellites": 7, "altitude_gps_m": 215.63999938964844, "groundspeed_mps": 0.20805341005325317}, "flight": {"mode": "STABILIZE", "armed": false}, "ekf": {"attitude": {"roll": -0.029526736587285995, "pitch": -0.027598846703767776, "yaw": 0.933188259601593}, "local_position": {"x": null, "y": null, "z": null}, "status": {"flags": 135, "velocity_variance": 0.0, "pos_horiz_variance": 0.0575774721801281, "pos_vert_variance": 0.0038230495993047953}}, "errors": ["GPS 1: probing for u-blox at 230400 baud", "GPS 1: detected u-blox", "u-blox 1 HW: 00070000 SW: 1.00 (59842)", "PreArm: RC not found", "PreArm: Hardware safety switch", "GPS 1: u-blox saving config", "PreArm: RC not found", "PreArm: Hardware safety switch"]}
{"timestamp": "2025-12-17T08:21:27.272628Z", "telemetry": {"lat": 28.7530783, "lon": 77.117824, "satellites": 7, "altitude_gps_m": 215.01998901367188, "groundspeed_mps": 0.21241424977779388}, "flight": {"mode": "STABILIZE", "armed": false}, "ekf": {"attitude": {"roll": -0.029399625957012177, "pitch": -0.02775624394416809, "yaw": 0.9341099262237549}, "local_position": {"x": null, "y": null, "z": null}, "status": {"flags": 135, "velocity_variance": 0.0, "pos_horiz_variance": 0.058480698615312576, "pos_vert_variance": 0.0880609005689621}}, "errors": ["GPS 1: probing for u-blox at 230400 baud", "GPS 1: detected u-blox", "u-blox 1 HW: 00070000 SW: 1.00 (59842)", "PreArm: RC not found", "PreArm: Hardware safety switch", "GPS 1: u-blox saving config", "PreArm: RC not found", "PreArm: Hardware safety switch"]}
{"timestamp": "2025-12-17T08:21:28.272224Z", "telemetry": {"lat": 28.7530822, "lon": 77.1178232, "satellites": 7, "altitude_gps_m": 214.50999450683594, "groundspeed_mps": 0.21500757336616516}, "flight": {"mode": "STABILIZE", "armed": false}, "ekf": {"attitude": {"roll": -0.029144417494535446, "pitch": -0.027900196611881256, "yaw": 0.935010552406311}, "local_position": {"x": null, "y": null, "z": null}, "status": {"flags": 135, "velocity_variance": 0.0, "pos_horiz_variance": 0.05938000977039337, "pos_vert_variance": 0.016965141519904137}}, "errors": ["GPS 1: probing for u-blox at 230400 baud", "GPS 1: detected u-blox", "u-blox 1 HW: 00070000 SW: 1.00 (59842)", "PreArm: RC not found", "PreArm: Hardware safety switch", "GPS 1: u-blox saving config", "PreArm: RC not found", "PreArm: Hardware safety switch"]}
{"timestamp": "2025-12-17T08:21:29.272638Z", "telemetry": {"lat": 28.7530862, "lon": 77.1178221, "satellites": 7, "altitude_gps_m": 214.11000061035156, "groundspeed_mps": 0.2201421856880188}, "flight": {"mode": "STABILIZE", "armed": false}, "ekf": {"attitude": {"roll": -0.028941959142684937, "pitch": -0.027957212179899216, "yaw": 0.9359366297721863}, "local_position": {"x": null, "y": null, "z": null}, "status": {"flags": 135, "velocity_variance": 0.0, "pos_horiz_variance": 0.06086520105600357, "pos_vert_variance": 0.026596983894705772}}, "errors": ["GPS 1: probing for u-blox at 230400 baud", "GPS 1: detected u-blox", "u-blox 1 HW: 00070000 SW: 1.00 (59842)", "PreArm: RC not found", "PreArm: Hardware safety switch", "GPS 1: u-blox saving config", "PreArm: RC not found", "PreArm: Hardware safety switch"]}
{"timestamp": "2025-12-17T08:21:30.279858Z", "telemetry": {"lat": 28.7530888, "lon": 77.1178208, "satellites": 7, "altitude_gps_m": 213.70999145507812, "groundspeed_mps": 0.21970483660697937}, "flight": {"mode": "STABILIZE", "armed": false}, "ekf": {"attitude": {"roll": -0.028911087661981583, "pitch": -0.02798243798315525, "yaw": 0.9364732503890991}, "local_position": {"x": null, "y": null, "z": null}, "status": {"flags": 135, "velocity_variance": 0.0, "pos_horiz_variance": 0.06170101463794708, "pos_vert_variance": 0.07280493527650833}}, "errors": ["GPS 1: probing for u-blox at 230400 baud", "GPS 1: detected u-blox", "u-blox 1 HW: 00070000 SW: 1.00 (59842)", "PreArm: RC not found", "PreArm: Hardware safety switch", "GPS 1: u-blox saving config", "PreArm: RC not found", "PreArm: Hardware safety switch"]}
{"timestamp": "2025-12-17T08:21:31.275597Z", "telemetry": {"lat": 28.753092, "lon": 77.11782, "satellites": 8, "altitude_gps_m": 213.29998779296875, "groundspeed_mps": 0.22000539302825928}, "flight": {"mode": "STABILIZE", "armed": false}, "ekf": {"attitude": {"roll": -0.02892664074897766, "pitch": -0.027959417551755905, "yaw": 0.9373680949211121}, "local_position": {"x": null, "y": null, "z": null}, "status": {"flags": 135, "velocity_variance": 0.0, "pos_horiz_variance": 0.061502307653427124, "pos_vert_variance": 0.0956941545009613}}, "errors": ["GPS 1: probing for u-blox at 230400 baud", "GPS 1: detected u-blox", "u-blox 1 HW: 00070000 SW: 1.00 (59842)", "PreArm: RC not found", "PreArm: Hardware safety switch", "GPS 1: u-blox saving config", "PreArm: RC not found", "PreArm: Hardware safety switch"]}
{"timestamp": "2025-12-17T08:21:32.275874Z", "telemetry": {"lat": 28.7530947, "lon": 77.1178194, "satellites": 8, "altitude_gps_m": 212.97000122070312, "groundspeed_mps": 0.22080273926258087}, "flight": {"mode": "STABILIZE", "armed": false}, "ekf": {"attitude": {"roll": -0.029088448733091354, "pitch": -0.027958784252405167, "yaw": 0.938137948513031}, "local_position": {"x": null, "y": null, "z": null}, "status": {"flags": 135, "velocity_variance": 0.0, "pos_horiz_variance": 0.06180708482861519, "pos_vert_variance": 0.016285870224237442}}, "errors": ["GPS 1: probing for u-blox at 230400 baud", "GPS 1: detected u-blox", "u-blox 1 HW: 00070000 SW: 1.00 (59842)", "PreArm: RC not found", "PreArm: Hardware safety switch", "GPS 1: u-blox saving config", "PreArm: RC not found", "PreArm: Hardware safety switch", "PreArm: RC not found", "PreArm: Hardware safety switch"]}
{"timestamp": "2025-12-17T08:21:33.272537Z", "telemetry": {"lat": 28.7530963, "lon": 77.1178186, "satellites": 8, "altitude_gps_m": 212.7899932861328, "groundspeed_mps": 0.22197195887565613}, "flight": {"mode": "STABILIZE", "armed": false}, "ekf": {"attitude": {"roll": -0.029261384159326553, "pitch": -0.028062734752893448, "yaw": 0.9389833807945251}, "local_position": {"x": null, "y": null, "z": null}, "status": {"flags": 135, "velocity_variance": 0.0, "pos_horiz_variance": 0.06217724084854126, "pos_vert_variance": 0.015183350071310997}}, "errors": ["GPS 1: probing for u-blox at 230400 baud", "GPS 1: detected u-blox", "u-blox 1 HW: 00070000 SW: 1.00 (59842)", "PreArm: RC not found", "PreArm: Hardware safety switch", "GPS 1: u-blox saving config", "PreArm: RC not found", "PreArm: Hardware safety switch", "PreArm: RC not found", "PreArm: Hardware safety switch"]}
{"timestamp": "2025-12-17T08:21:34.273511Z", "telemetry": {"lat": 28.7530972, "lon": 77.117818, "satellites": 8, "altitude_gps_m": 212.70999145507812, "groundspeed_mps": 0.2239365428686142}, "flight": {"mode": "STABILIZE", "armed": false}, "ekf": {"attitude": {"roll": -0.029331624507904053, "pitch": -0.028090285137295723, "yaw": 0.9399571418762207}, "local_position": {"x": null, "y": null, "z": null}, "status": {"flags": 135, "velocity_variance": 0.0, "pos_horiz_variance": 0.06226982921361923, "pos_vert_variance": 0.05792102590203285}}, "errors": ["GPS 1: probing for u-blox at 230400 baud", "GPS 1: detected u-blox", "u-blox 1 HW: 00070000 SW: 1.00 (59842)", "PreArm: RC not found", "PreArm: Hardware safety switch", "GPS 1: u-blox saving config", "PreArm: RC not found", "PreArm: Hardware safety switch", "PreArm: RC not found", "PreArm: Hardware safety switch"]}
{"timestamp": "2025-12-17T08:21:35.272119Z", "telemetry": {"lat": 28.7530988, "lon": 77.1178175, "satellites": 8, "altitude_gps_m": 212.5, "groundspeed_mps": 0.22407573461532593}, "flight": {"mode": "STABILIZE", "armed": false}, "ekf": {"attitude": {"roll": -0.029395852237939835, "pitch": -0.027961410582065582, "yaw": 0.9410081505775452}, "local_position": {"x": null, "y": null, "z": null}, "status": {"flags": 135, "velocity_variance": 0.0, "pos_horiz_variance": 0.06289403885602951, "pos_vert_variance": 0.0251998919993639}}, "errors": ["GPS 1: probing for u-blox at 230400 baud", "GPS 1: detected u-blox", "u-blox 1 HW: 00070000 SW: 1.00 (59842)", "PreArm: RC not found", "PreArm: Hardware safety switch", "GPS 1: u-blox saving config", "PreArm: RC not found", "PreArm: Hardware safety switch", "PreArm: RC not found", "PreArm: Hardware safety switch"]}
{"timestamp": "2025-12-17T08:21:36.272206Z", "telemetry": {"lat": 28.7531003, "lon": 77.1178168, "satellites": 8, "altitude_gps_m": 212.20999145507812, "groundspeed_mps": 0.07409460842609406}, "flight": {"mode": "STABILIZE", "armed": false}, "ekf": {"attitude": {"roll": -0.029228322207927704, "pitch": -0.02802785485982895, "yaw": 0.9417161345481873}, "local_position": {"x": -0.052471425384283066, "y": -0.04065370187163353, "z": 0.1612606942653656}, "status": {"flags": 831, "velocity_variance": 0.0245091263204813, "pos_horiz_variance": 0.0017198037821799517, "pos_vert_variance": 0.0006466798949986696}}, "errors": ["GPS 1: probing for u-blox at 230400 baud", "GPS 1: detected u-blox", "u-blox 1 HW: 00070000 SW: 1.00 (59842)", "PreArm: RC not found", "PreArm: Hardware safety switch", "GPS 1: u-blox saving config", "PreArm: RC not found", "PreArm: Hardware safety switch", "PreArm: RC not found", "PreArm: Hardware safety switch", "EKF3 IMU0 origin set", "Field Elevation Set: 212m", "EKF3 IMU0 is using GPS", "EKF3 IMU1 origin set", "EKF3 IMU1 is using GPS"]}
{"timestamp": "2025-12-17T08:21:37.272919Z", "telemetry": {"lat": 28.7531015, "lon": 77.1178165, "satellites": 8, "altitude_gps_m": 212.62998962402344, "groundspeed_mps": 0.08624913543462753}, "flight": {"mode": "STABILIZE", "armed": false}, "ekf": {"attitude": {"roll": -0.029142864048480988, "pitch": -0.029731404036283493, "yaw": 0.9425771236419678}, "local_position": {"x": -0.00836719200015068, "y": -0.020511126145720482, "z": -0.20531710982322693}, "status": {"flags": 831, "velocity_variance": 0.013261780142784119, "pos_horiz_variance": 0.007440804969519377, "pos_vert_variance": 0.014472673647105694}}, "errors": ["GPS 1: probing for u-blox at 230400 baud", "GPS 1: detected u-blox", "u-blox 1 HW: 00070000 SW: 1.00 (59842)", "PreArm: RC not found", "PreArm: Hardware safety switch", "GPS 1: u-blox saving config", "PreArm: RC not found", "PreArm: Hardware safety switch", "PreArm: RC not found", "PreArm: Hardware safety switch", "EKF3 IMU0 origin set", "Field Elevation Set: 212m", "EKF3 IMU0 is using GPS", "EKF3 IMU1 origin set", "EKF3 IMU1 is using GPS"]}
{"timestamp": "2025-12-17T08:21:38.272168Z", "telemetry": {"lat": 28.7531033, "lon": 77.1178162, "satellites": 8, "altitude_gps_m": 212.6599884033203, "groundspeed_mps": 0.12139289081096649}, "flight": {"mode": "STABILIZE", "armed": false}, "ekf": {"attitude": {"roll": -0.029383927583694458, "pitch": -0.031090738251805305, "yaw": 0.9434428215026855}, "local_position": {"x": 0.13608069717884064, "y": 0.015820005908608437, "z": -0.27107492089271545}, "status": {"flags": 831, "velocity_variance": 0.06691258400678635, "pos_horiz_variance": 0.013841917738318443, "pos_vert_variance": 0.03129692003130913}}, "errors": ["GPS 1: probing for u-blox at 230400 baud", "GPS 1: detected u-blox", "u-blox 1 HW: 00070000 SW: 1.00 (59842)", "PreArm: RC not found", "PreArm: Hardware safety switch", "GPS 1: u-blox saving config", "PreArm: RC not found", "PreArm: Hardware safety switch", "PreArm: RC not found", "PreArm: Hardware safety switch", "EKF3 IMU0 origin set", "Field Elevation Set: 212m", "EKF3 IMU0 is using GPS", "EKF3 IMU1 origin set", "EKF3 IMU1 is using GPS"]}
