{"timestamp": "2025-12-28T11:19:23.521663Z", "telemetry": {"lat": 28.7531979, "lon": 77.1178437, "satellites": 9, "altitude_gps_m": 213.5800018310547, "groundspeed_mps": 0.4414428770542145}, "flight": {"mode": null, "armed": null}, "ekf": {"attitude": {"roll": -0.025016698986291885, "pitch": 0.004472700878977776, "yaw": 3.0451834201812744}, "local_position": {"x": 14.033153533935547, "y": -3.6876957416534424, "z": -4.656803607940674}, "status": {"flags": 33599, "velocity_variance": 0.1810743510723114, "pos_horiz_variance": 0.01067293155938387, "pos_vert_variance": 0.07162877917289734}}, "errors": []}
{"timestamp": "2025-12-28T11:19:24.471810Z", "telemetry": {"lat": 28.7531981, "lon": 77.1178447, "satellites": 9, "altitude_gps_m": 213.59999084472656, "groundspeed_mps": 0.4388977885246277}, "flight": {"mode": "STABILIZE", "armed": false}, "ekf": {"attitude": {"roll": -0.02558908984065056, "pitch": 0.0038030813448131084, "yaw": 3.0450003147125244}, "local_position": {"x": 14.04025650024414, "y": -3.6610591411590576, "z": -4.674795150756836}, "status": {"flags": 33599, "velocity_variance": 0.2992170453071594, "pos_horiz_variance": 0.013312716037034988, "pos_vert_variance": 0.03924049064517021}}, "errors": []}
{"timestamp": "2025-12-28T11:19:25.421308Z", "telemetry": {"lat": 28.7531969, "lon": 77.1178441, "satellites": 9, "altitude_gps_m": 213.6599884033203, "groundspeed_mps": 0.42477598786354065}, "flight": {"mode": "STABILIZE", "armed": false}, "ekf": {"attitude": {"roll": -0.025936219841241837, "pitch": 0.003163411980494857, "yaw": 3.0449039936065674}, "local_position": {"x": 14.011655807495117, "y": -3.6122584342956543, "z": -4.737385272979736}, "status": {"flags": 33599, "velocity_variance": 0.11829723417758942, "pos_horiz_variance": 0.012811596505343914, "pos_vert_variance": 0.01744803413748741}}, "errors": []}
{"timestamp": "2025-12-28T11:19:26.371404Z", "telemetry": {"lat": 28.7531973, "lon": 77.117843, "satellites": 9, "altitude_gps_m": 213.6699981689453, "groundspeed_mps": 0.46105146408081055}, "flight": {"mode": "STABILIZE", "armed": false}, "ekf": {"attitude": {"roll": -0.02623298391699791, "pitch": 0.003035446396097541, "yaw": 3.0446975231170654}, "local_position": {"x": 14.113874435424805, "y": -3.728703260421753, "z": -4.742889881134033}, "status": {"flags": 33599, "velocity_variance": 0.15463422238826752, "pos_horiz_variance": 0.013440189883112907, "pos_vert_variance": 0.044457320123910904}}, "errors": []}
{"timestamp": "2025-12-28T11:19:27.368271Z", "telemetry": {"lat": 28.7531997, "lon": 77.1178457, "satellites": 10, "altitude_gps_m": 213.70999145507812, "groundspeed_mps": 0.4465225636959076}, "flight": {"mode": "STABILIZE", "armed": false}, "ekf": {"attitude": {"roll": -0.02799450233578682, "pitch": 0.0021868518088012934, "yaw": 3.044548511505127}, "local_position": {"x": 14.323246002197266, "y": -3.570651054382324, "z": -4.782912731170654}, "status": {"flags": 33599, "velocity_variance": 0.13625983893871307, "pos_horiz_variance": 0.014789883978664875, "pos_vert_variance": 0.04096100851893425}}, "errors": []}
{"timestamp": "2025-12-28T11:19:28.368430Z", "telemetry": {"lat": 28.7531992, "lon": 77.1178461, "satellites": 10, "altitude_gps_m": 213.72000122070312, "groundspeed_mps": 0.4128342866897583}, "flight": {"mode": "STABILIZE", "armed": false}, "ekf": {"attitude": {"roll": -0.028813045471906662, "pitch": 0.0010712705552577972, "yaw": 3.0444252490997314}, "local_position": {"x": 14.34149169921875, "y": -3.586362838745117, "z": -4.8030900955200195}, "status": {"flags": 33599, "velocity_variance": 0.23139110207557678, "pos_horiz_variance": 0.016762416809797287, "pos_vert_variance": 0.0508529357612133}}, "errors": []}
{"timestamp": "2025-12-28T11:19:29.368497Z", "telemetry": {"lat": 28.7532001, "lon": 77.1178463, "satellites": 9, "altitude_gps_m": 213.69000244140625, "groundspeed_mps": 0.40686720609664917}, "flight": {"mode": "STABILIZE", "armed": false}, "ekf": {"attitude": {"roll": -0.0293472521007061, "pitch": 0.0008262372575700283, "yaw": 3.044448137283325}, "local_position": {"x": 14.393693923950195, "y": -3.5343520641326904, "z": -4.763723850250244}, "status": {"flags": 33599, "velocity_variance": 0.22799623012542725, "pos_horiz_variance": 0.015760833397507668, "pos_vert_variance": 0.008976922370493412}}, "errors": []}
{"timestamp": "2025-12-28T11:19:30.367894Z", "telemetry": {"lat": 28.7532009, "lon": 77.117845, "satellites": 9, "altitude_gps_m": 213.70999145507812, "groundspeed_mps": 0.3985220491886139}, "flight": {"mode": "STABILIZE", "armed": false}, "ekf": {"attitude": {"roll": -0.02993891015648842, "pitch": 0.0002369983121752739, "yaw": 3.0443944931030273}, "local_position": {"x": 14.534908294677734, "y": -3.50302791595459, "z": -4.79356050491333}, "status": {"flags": 33599, "velocity_variance": 0.18407614529132843, "pos_horiz_variance": 0.01458351407200098, "pos_vert_variance": 0.005910824052989483}}, "errors": []}
{"timestamp": "2025-12-28T11:19:31.368518Z", "telemetry": {"lat": 28.7531987, "lon": 77.1178438, "satellites": 10, "altitude_gps_m": 213.69000244140625, "groundspeed_mps": 0.3741616904735565}, "flight": {"mode": "STABILIZE", "armed": false}, "ekf": {"attitude": {"roll": -0.030186954885721207, "pitch": -0.0004314393736422062, "yaw": 3.044347047805786}, "local_position": {"x": 14.555850982666016, "y": -3.5360734462738037, "z": -4.763433933258057}, "status": {"flags": 33599, "velocity_variance": 0.08406967669725418, "pos_horiz_variance": 0.01744239777326584, "pos_vert_variance": 0.05655316635966301}}, "errors": []}
{"timestamp": "2025-12-28T11:19:32.368350Z", "telemetry": {"lat": 28.7531997, "lon": 77.1178473, "satellites": 10, "altitude_gps_m": 213.6999969482422, "groundspeed_mps": 0.3243198096752167}, "flight": {"mode": "STABILIZE", "armed": false}, "ekf": {"attitude": {"roll": -0.03148036077618599, "pitch": -0.0012857192195951939, "yaw": 3.0443918704986572}, "local_position": {"x": 14.58560562133789, "y": -3.3416051864624023, "z": -4.7782440185546875}, "status": {"flags": 33599, "velocity_variance": 0.3349009156227112, "pos_horiz_variance": 0.018362481147050858, "pos_vert_variance": 0.030320586636662483}}, "errors": []}
{"timestamp": "2025-12-28T11:19:33.368441Z", "telemetry": {"lat": 28.7531968, "lon": 77.1178526, "satellites": 9, "altitude_gps_m": 213.64999389648438, "groundspeed_mps": 0.20855940878391266}, "flight": {"mode": "STABILIZE", "armed": false}, "ekf": {"attitude": {"roll": -0.03313906118273735, "pitch": -0.0029572504572570324, "yaw": 3.044410467147827}, "local_position": {"x": 14.332133293151855, "y": -2.8824546337127686, "z": -4.729297637939453}, "status": {"flags": 33599, "velocity_variance": 0.21669138967990875, "pos_horiz_variance": 0.020859789103269577, "pos_vert_variance": 0.015020952560007572}}, "errors": []}
{"timestamp": "2025-12-28T11:19:34.370688Z", "telemetry": {"lat": 28.7531904, "lon": 77.1178554, "satellites": 9, "altitude_gps_m": 213.62998962402344, "groundspeed_mps": 0.12154129892587662}, "flight": {"mode": "STABILIZE", "armed": false}, "ekf": {"attitude": {"roll": -0.03387041017413139, "pitch": -0.005348868202418089, "yaw": 3.0445303916931152}, "local_position": {"x": 13.720327377319336, "y": -2.4633235931396484, "z": -4.701295375823975}, "status": {"flags": 33599, "velocity_variance": 0.14029695093631744, "pos_horiz_variance": 0.021243086084723473, "pos_vert_variance": 0.010458860546350479}}, "errors": []}
{"timestamp": "2025-12-28T11:19:35.368521Z", "telemetry": {"lat": 28.7531869, "lon": 77.1178532, "satellites": 9, "altitude_gps_m": 213.6699981689453, "groundspeed_mps": 0.09990962594747543}, "flight": {"mode": "STABILIZE", "armed": false}, "ekf": {"attitude": {"roll": -0.033115264028310776, "pitch": -0.006643753964453936, "yaw": 3.0445480346679688}, "local_position": {"x": 13.313272476196289, "y": -2.4820046424865723, "z": -4.744521617889404}, "status": {"flags": 33599, "velocity_variance": 0.14648810029029846, "pos_horiz_variance": 0.019833413884043694, "pos_vert_variance": 0.04833928868174553}}, "errors": []}
{"timestamp": "2025-12-28T11:19:36.368669Z", "telemetry": {"lat": 28.7531859, "lon": 77.1178525, "satellites": 9, "altitude_gps_m": 213.64999389648438, "groundspeed_mps": 0.13650275766849518}, "flight": {"mode": "STABILIZE", "armed": false}, "ekf": {"attitude": {"roll": -0.03311872109770775, "pitch": -0.006871817167848349, "yaw": 3.044595241546631}, "local_position": {"x": 13.029634475708008, "y": -2.405194044113159, "z": -4.723605632781982}, "status": {"flags": 33599, "velocity_variance": 0.3295174241065979, "pos_horiz_variance": 0.01636471040546894, "pos_vert_variance": 0.08571232110261917}}, "errors": []}
{"timestamp": "2025-12-28T11:19:37.370025Z", "telemetry": {"lat": 28.7531839, "lon": 77.1178572, "satellites": 9, "altitude_gps_m": 213.63999938964844, "groundspeed_mps": 0.2453555166721344}, "flight": {"mode": "STABILIZE", "armed": false}, "ekf": {"attitude": {"roll": -0.03396314010024071, "pitch": -0.007791500072926283, "yaw": 3.0445587635040283}, "local_position": {"x": 12.63210678100586, "y": -2.027398109436035, "z": -4.714905261993408}, "status": {"flags": 33599, "velocity_variance": 0.14923830330371857, "pos_horiz_variance": 0.01374214980751276, "pos_vert_variance": 0.05165127292275429}}, "errors": []}
{"timestamp": "2025-12-28T11:19:38.368393Z", "telemetry": {"lat": 28.7531844, "lon": 77.1178599, "satellites": 9, "altitude_gps_m": 213.62998962402344, "groundspeed_mps": 0.33500775694847107}, "flight": {"mode": "STABILIZE", "armed": false}, "ekf": {"attitude": {"roll": -0.03461616858839989, "pitch": -0.008371381089091301, "yaw": 3.04469633102417}, "local_position": {"x": 12.25333309173584, "y": -1.6708312034606934, "z": -4.707544803619385}, "status": {"flags": 33599, "velocity_variance": 0.18938758969306946, "pos_horiz_variance": 0.005716543644666672, "pos_vert_variance": 0.03348604962229729}}, "errors": []}
{"timestamp": "2025-12-28T11:19:39.368492Z", "telemetry": {"lat": 28.753184, "lon": 77.1178602, "satellites": 9, "altitude_gps_m": 213.6999969482422, "groundspeed_mps": 0.3479039669036865}, "flight": {"mode": "STABILIZE", "armed": false}, "ekf": {"attitude": {"roll": -0.034346919506788254, "pitch": -0.008532196283340454, "yaw": 3.044646739959717}, "local_position": {"x": 12.048542022705078, "y": -1.5130500793457031, "z": -4.777956008911133}, "status": {"flags": 33599, "velocity_variance": 0.24660660326480865, "pos_horiz_variance": 0.0024307589046657085, "pos_vert_variance": 0.033040281385183334}}, "errors": []}
{"timestamp": "2025-12-28T11:19:40.368594Z", "telemetry": {"lat": 28.7531775, "lon": 77.1178628, "satellites": 10, "altitude_gps_m": 213.70999145507812, "groundspeed_mps": 0.4130583703517914}, "flight": {"mode": "STABILIZE", "armed": false}, "ekf": {"attitude": {"roll": -0.034162525087594986, "pitch": -0.008965898305177689, "yaw": 3.044861316680908}, "local_position": {"x": 11.61752986907959, "y": -1.2635434865951538, "z": -4.786450386047363}, "status": {"flags": 33599, "velocity_variance": 0.27735722064971924, "pos_horiz_variance": 0.0070767709985375404, "pos_vert_variance": 0.11130532622337341}}, "errors": []}
{"timestamp": "2025-12-28T11:19:41.368383Z", "telemetry": {"lat": 28.7531768, "lon": 77.1178661, "satellites": 10, "altitude_gps_m": 213.63999938964844, "groundspeed_mps": 0.40069326758384705}, "flight": {"mode": "STABILIZE", "armed": false}, "ekf": {"attitude": {"roll": -0.0344054140150547, "pitch": -0.008189082145690918, "yaw": 3.0448784828186035}, "local_position": {"x": 11.441298484802246, "y": -1.074827790260315, "z": -4.71525239944458}, "status": {"flags": 33599, "velocity_variance": 0.24245846271514893, "pos_horiz_variance": 0.00568782351911068, "pos_vert_variance": 0.06635137647390366}}, "errors": []}
{"timestamp": "2025-12-28T11:19:42.368175Z", "telemetry": {"lat": 28.7531829, "lon": 77.1178639, "satellites": 10, "altitude_gps_m": 213.6999969482422, "groundspeed_mps": 0.27424249053001404}, "flight": {"mode": "STABILIZE", "armed": false}, "ekf": {"attitude": {"roll": -0.033611129969358444, "pitch": -0.0060845487751066685, "yaw": 3.044959783554077}, "local_position": {"x": 11.776935577392578, "y": -1.0045396089553833, "z": -4.772181987762451}, "status": {"flags": 33599, "velocity_variance": 0.1726103127002716, "pos_horiz_variance": 0.0024042311124503613, "pos_vert_variance": 0.034123603254556656}}, "errors": []}
{"timestamp": "2025-12-28T11:19:43.368669Z", "telemetry": {"lat": 28.7531906, "lon": 77.1178588, "satellites": 10, "altitude_gps_m": 213.83999633789062, "groundspeed_mps": 0.10882090032100677}, "flight": {"mode": "STABILIZE", "armed": false}, "ekf": {"attitude": {"roll": -0.031998831778764725, "pitch": -0.0036191861145198345, "yaw": 3.0449438095092773}, "local_position": {"x": 12.31443977355957, "y": -1.264275312423706, "z": -4.917321681976318}, "status": {"flags": 33599, "velocity_variance": 0.23400378227233887, "pos_horiz_variance": 0.010439992882311344, "pos_vert_variance": 0.02337579056620598}}, "errors": []}
{"timestamp": "2025-12-28T11:19:44.368182Z", "telemetry": {"lat": 28.7531879, "lon": 77.1178571, "satellites": 10, "altitude_gps_m": 213.8699951171875, "groundspeed_mps": 0.045230377465486526}, "flight": {"mode": "STABILIZE", "armed": false}, "ekf": {"attitude": {"roll": -0.030648905783891678, "pitch": -0.003503135871142149, "yaw": 3.0449330806732178}, "local_position": {"x": 12.472427368164062, "y": -1.4277949333190918, "z": -4.96073579788208}, "status": {"flags": 33599, "velocity_variance": 0.4192846119403839, "pos_horiz_variance": 0.007641512900590897, "pos_vert_variance": 0.02013397589325905}}, "errors": []}
{"timestamp": "2025-12-28T11:19:45.368474Z", "telemetry": {"lat": 28.7531928, "lon": 77.117847, "satellites": 10, "altitude_gps_m": 213.7899932861328, "groundspeed_mps": 0.18058925867080688}, "flight": {"mode": "STABILIZE", "armed": false}, "ekf": {"attitude": {"roll": -0.029750052839517593, "pitch": -0.002072653267532587, "yaw": 3.0448763370513916}, "local_position": {"x": 12.746088027954102, "y": -2.1150026321411133, "z": -4.861733436584473}, "status": {"flags": 33599, "velocity_variance": 0.17980818450450897, "pos_horiz_variance": 0.014612861908972263, "pos_vert_variance": 0.018208075314760208}}, "errors": []}
