{"timestamp": "2026-01-15T13:54:58.468515Z", "telemetry": {"lat": 28.7530059, "lon": 77.1179622, "satellites": 0, "altitude_gps_m": 0.28999999165534973, "groundspeed_mps": 0.011951406486332417}, "flight": {"mode": "STABILIZE", "armed": false}, "ekf": {"attitude": {"roll": 0.02161758951842785, "pitch": 0.0005491822957992554, "yaw": -0.5546300411224365}, "local_position": {"x": null, "y": null, "z": null}, "status": {"flags": 135, "velocity_variance": 0.0, "pos_horiz_variance": 0.00313024059869349, "pos_vert_variance": 0.05358672887086868}}, "errors": []}
{"timestamp": "2026-01-15T13:54:59.481953Z", "telemetry": {"lat": 28.7530059, "lon": 77.1179622, "satellites": 0, "altitude_gps_m": 0.28999999165534973, "groundspeed_mps": 0.01112401019781828}, "flight": {"mode": "STABILIZE", "armed": false}, "ekf": {"attitude": {"roll": 0.02161763235926628, "pitch": 0.00045343954116106033, "yaw": -0.5546450614929199}, "local_position": {"x": null, "y": null, "z": null}, "status": {"flags": 135, "velocity_variance": 0.0, "pos_horiz_variance": 0.0028734426014125347, "pos_vert_variance": 0.021000606939196587}}, "errors": []}
{"timestamp": "2026-01-15T13:55:00.510086Z", "telemetry": {"lat": 28.7530059, "lon": 77.1179622, "satellites": 0, "altitude_gps_m": 0.28999999165534973, "groundspeed_mps": 0.012777244672179222}, "flight": {"mode": "STABILIZE", "armed": false}, "ekf": {"attitude": {"roll": 0.02159002609550953, "pitch": 0.0004251450300216675, "yaw": -0.5546219348907471}, "local_position": {"x": null, "y": null, "z": null}, "status": {"flags": 135, "velocity_variance": 0.0, "pos_horiz_variance": 0.00280398759059608, "pos_vert_variance": 0.02036326192319393}}, "errors": []}
{"timestamp": "2026-01-15T13:55:01.484008Z", "telemetry": {"lat": 28.7530059, "lon": 77.1179622, "satellites": 0, "altitude_gps_m": 0.28999999165534973, "groundspeed_mps": 0.015275094658136368}, "flight": {"mode": "STABILIZE", "armed": false}, "ekf": {"attitude": {"roll": 0.021595953032374382, "pitch": 0.00032986607402563095, "yaw": -0.5546302199363708}, "local_position": {"x": null, "y": null, "z": null}, "status": {"flags": 135, "velocity_variance": 0.0, "pos_horiz_variance": 0.003183030756190419, "pos_vert_variance": 0.04018012806773186}}, "errors": []}
{"timestamp": "2026-01-15T13:55:02.487572Z", "telemetry": {"lat": 28.7530059, "lon": 77.1179622, "satellites": 0, "altitude_gps_m": 0.28999999165534973, "groundspeed_mps": 0.015598448924720287}, "flight": {"mode": "STABILIZE", "armed": false}, "ekf": {"attitude": {"roll": 0.021677421405911446, "pitch": 0.00028607994318008423, "yaw": -0.5547361373901367}, "local_position": {"x": null, "y": null, "z": null}, "status": {"flags": 135, "velocity_variance": 0.0, "pos_horiz_variance": 0.0034120555501431227, "pos_vert_variance": 0.031685154885053635}}, "errors": []}
{"timestamp": "2026-01-15T13:55:03.491484Z", "telemetry": {"lat": 28.7530059, "lon": 77.1179622, "satellites": 0, "altitude_gps_m": 0.28999999165534973, "groundspeed_mps": 0.013163285329937935}, "flight": {"mode": "STABILIZE", "armed": false}, "ekf": {"attitude": {"roll": 0.021797694265842438, "pitch": 0.0003309655003249645, "yaw": -0.554707944393158}, "local_position": {"x": null, "y": null, "z": null}, "status": {"flags": 135, "velocity_variance": 0.0, "pos_horiz_variance": 0.003593236207962036, "pos_vert_variance": 0.03165992349386215}}, "errors": []}
{"timestamp": "2026-01-15T13:55:04.513880Z", "telemetry": {"lat": 28.7530059, "lon": 77.1179622, "satellites": 0, "altitude_gps_m": 0.28999999165534973, "groundspeed_mps": 0.013886376284062862}, "flight": {"mode": "STABILIZE", "armed": false}, "ekf": {"attitude": {"roll": 0.021839085966348648, "pitch": 0.00025934167206287384, "yaw": -0.5547381639480591}, "local_position": {"x": null, "y": null, "z": null}, "status": {"flags": 135, "velocity_variance": 0.0, "pos_horiz_variance": 0.0034237278159707785, "pos_vert_variance": 0.04832184314727783}}, "errors": []}
{"timestamp": "2026-01-15T13:55:05.518119Z", "telemetry": {"lat": 28.7530059, "lon": 77.1179622, "satellites": 0, "altitude_gps_m": 0.28999999165534973, "groundspeed_mps": 0.011692899279296398}, "flight": {"mode": "STABILIZE", "armed": false}, "ekf": {"attitude": {"roll": 0.021911827847361565, "pitch": 0.00038426369428634644, "yaw": -0.5545686483383179}, "local_position": {"x": null, "y": null, "z": null}, "status": {"flags": 135, "velocity_variance": 0.0, "pos_horiz_variance": 0.0031826936174184084, "pos_vert_variance": 0.05362394452095032}}, "errors": []}
{"timestamp": "2026-01-15T13:55:06.486739Z", "telemetry": {"lat": 28.7530059, "lon": 77.1179622, "satellites": 0, "altitude_gps_m": 0.28999999165534973, "groundspeed_mps": 0.009813831187784672}, "flight": {"mode": "STABILIZE", "armed": false}, "ekf": {"attitude": {"roll": 0.02190125733613968, "pitch": 0.0002471175976097584, "yaw": -0.5546642541885376}, "local_position": {"x": null, "y": null, "z": null}, "status": {"flags": 135, "velocity_variance": 0.0, "pos_horiz_variance": 0.0028135990723967552, "pos_vert_variance": 0.04003141447901726}}, "errors": []}
{"timestamp": "2026-01-15T13:55:07.490501Z", "telemetry": {"lat": 28.7530059, "lon": 77.1179622, "satellites": 0, "altitude_gps_m": 0.28999999165534973, "groundspeed_mps": 0.010180427692830563}, "flight": {"mode": "STABILIZE", "armed": false}, "ekf": {"attitude": {"roll": 0.02193586528301239, "pitch": 0.00010508764535188675, "yaw": -0.5547636151313782}, "local_position": {"x": null, "y": null, "z": null}, "status": {"flags": 135, "velocity_variance": 0.0, "pos_horiz_variance": 0.002332709962502122, "pos_vert_variance": 0.04603302478790283}}, "errors": []}
{"timestamp": "2026-01-15T13:55:08.492824Z", "telemetry": {"lat": 28.7530059, "lon": 77.1179622, "satellites": 0, "altitude_gps_m": 0.28999999165534973, "groundspeed_mps": 0.014108622446656227}, "flight": {"mode": "STABILIZE", "armed": false}, "ekf": {"attitude": {"roll": 0.02192438580095768, "pitch": 8.044298738241196e-06, "yaw": -0.5544966459274292}, "local_position": {"x": null, "y": null, "z": null}, "status": {"flags": 135, "velocity_variance": 0.0, "pos_horiz_variance": 0.0026372240390628576, "pos_vert_variance": 0.02946486696600914}}, "errors": []}
{"timestamp": "2026-01-15T13:55:09.491875Z", "telemetry": {"lat": 28.7530059, "lon": 77.1179622, "satellites": 0, "altitude_gps_m": 0.28999999165534973, "groundspeed_mps": 0.017857272177934647}, "flight": {"mode": "STABILIZE", "armed": false}, "ekf": {"attitude": {"roll": 0.021788669750094414, "pitch": 0.0002209637314081192, "yaw": -0.5543323159217834}, "local_position": {"x": null, "y": null, "z": null}, "status": {"flags": 135, "velocity_variance": 0.0, "pos_horiz_variance": 0.0036185237113386393, "pos_vert_variance": 0.1593196541070938}}, "errors": []}
{"timestamp": "2026-01-15T13:55:10.521816Z", "telemetry": {"lat": 28.7530059, "lon": 77.1179622, "satellites": 0, "altitude_gps_m": 0.28999999165534973, "groundspeed_mps": 0.016818242147564888}, "flight": {"mode": "STABILIZE", "armed": false}, "ekf": {"attitude": {"roll": 0.02163497731089592, "pitch": 0.0002709031105041504, "yaw": -0.5544266104698181}, "local_position": {"x": null, "y": null, "z": null}, "status": {"flags": 135, "velocity_variance": 0.0, "pos_horiz_variance": 0.004065587650984526, "pos_vert_variance": 0.00015536355203948915}}, "errors": ["PreArm: Hardware safety switch"]}
{"timestamp": "2026-01-15T13:55:11.494091Z", "telemetry": {"lat": 28.7530059, "lon": 77.1179622, "satellites": 0, "altitude_gps_m": 0.28999999165534973, "groundspeed_mps": 0.01284346729516983}, "flight": {"mode": "STABILIZE", "armed": false}, "ekf": {"attitude": {"roll": 0.021719029173254967, "pitch": 0.00029334938153624535, "yaw": -0.5544837713241577}, "local_position": {"x": null, "y": null, "z": null}, "status": {"flags": 135, "velocity_variance": 0.0, "pos_horiz_variance": 0.0039504817686975, "pos_vert_variance": 0.07050373405218124}}, "errors": ["PreArm: Hardware safety switch"]}
{"timestamp": "2026-01-15T13:55:12.497056Z", "telemetry": {"lat": 28.7530059, "lon": 77.1179622, "satellites": 0, "altitude_gps_m": 0.28999999165534973, "groundspeed_mps": 0.010440850630402565}, "flight": {"mode": "STABILIZE", "armed": false}, "ekf": {"attitude": {"roll": 0.02183893509209156, "pitch": 0.0002940311096608639, "yaw": -0.5544772148132324}, "local_position": {"x": null, "y": null, "z": null}, "status": {"flags": 135, "velocity_variance": 0.0, "pos_horiz_variance": 0.003190046176314354, "pos_vert_variance": 0.051031388342380524}}, "errors": ["PreArm: Hardware safety switch"]}
{"timestamp": "2026-01-15T13:55:13.491738Z", "telemetry": {"lat": 28.7530059, "lon": 77.1179622, "satellites": 0, "altitude_gps_m": 0.28999999165534973, "groundspeed_mps": 0.009838555008172989}, "flight": {"mode": "STABILIZE", "armed": false}, "ekf": {"attitude": {"roll": 0.02193576842546463, "pitch": 0.00017455685883760452, "yaw": -0.5545276403427124}, "local_position": {"x": null, "y": null, "z": null}, "status": {"flags": 135, "velocity_variance": 0.0, "pos_horiz_variance": 0.0026290633250027895, "pos_vert_variance": 0.051551975309848785}}, "errors": ["PreArm: Hardware safety switch"]}
{"timestamp": "2026-01-15T13:55:14.499819Z", "telemetry": {"lat": 28.7530059, "lon": 77.1179622, "satellites": 0, "altitude_gps_m": 0.28999999165534973, "groundspeed_mps": 0.012274033389985561}, "flight": {"mode": "STABILIZE", "armed": false}, "ekf": {"attitude": {"roll": 0.022034047171473503, "pitch": 0.0001473715528845787, "yaw": -0.554472804069519}, "local_position": {"x": null, "y": null, "z": null}, "status": {"flags": 135, "velocity_variance": 0.0, "pos_horiz_variance": 0.0026225545443594456, "pos_vert_variance": 0.038482144474983215}}, "errors": ["PreArm: Hardware safety switch"]}
{"timestamp": "2026-01-15T13:55:15.499771Z", "telemetry": {"lat": 28.7530059, "lon": 77.1179622, "satellites": 0, "altitude_gps_m": 0.28999999165534973, "groundspeed_mps": 0.015259353443980217}, "flight": {"mode": "STABILIZE", "armed": false}, "ekf": {"attitude": {"roll": 0.021964851766824722, "pitch": 0.00018684379756450653, "yaw": -0.554436445236206}, "local_position": {"x": null, "y": null, "z": null}, "status": {"flags": 135, "velocity_variance": 0.0, "pos_horiz_variance": 0.0030429905746132135, "pos_vert_variance": 0.03093695268034935}}, "errors": ["PreArm: Hardware safety switch"]}
{"timestamp": "2026-01-15T13:55:16.493751Z", "telemetry": {"lat": 28.7530059, "lon": 77.1179622, "satellites": 0, "altitude_gps_m": 0.28999999165534973, "groundspeed_mps": 0.013854069635272026}, "flight": {"mode": "STABILIZE", "armed": false}, "ekf": {"attitude": {"roll": 0.021986160427331924, "pitch": 0.000212883111089468, "yaw": -0.5543837547302246}, "local_position": {"x": null, "y": null, "z": null}, "status": {"flags": 135, "velocity_variance": 0.0, "pos_horiz_variance": 0.003395178820937872, "pos_vert_variance": 0.06037457659840584}}, "errors": ["PreArm: Hardware safety switch"]}
{"timestamp": "2026-01-15T13:55:17.493712Z", "telemetry": {"lat": 28.7530059, "lon": 77.1179622, "satellites": 0, "altitude_gps_m": 0.28999999165534973, "groundspeed_mps": 0.015236759558320045}, "flight": {"mode": "STABILIZE", "armed": false}, "ekf": {"attitude": {"roll": 0.022099915891885757, "pitch": 0.0003645154647529125, "yaw": -0.5542800426483154}, "local_position": {"x": null, "y": null, "z": null}, "status": {"flags": 135, "velocity_variance": 0.0, "pos_horiz_variance": 0.0034366538748145103, "pos_vert_variance": 0.015446096658706665}}, "errors": ["PreArm: Hardware safety switch"]}
{"timestamp": "2026-01-15T13:55:18.473380Z", "telemetry": {"lat": 28.7530059, "lon": 77.1179622, "satellites": 0, "altitude_gps_m": 0.28999999165534973, "groundspeed_mps": 0.013140137307345867}, "flight": {"mode": "STABILIZE", "armed": false}, "ekf": {"attitude": {"roll": 0.02229553647339344, "pitch": 0.000457247719168663, "yaw": -0.5542946457862854}, "local_position": {"x": null, "y": null, "z": null}, "status": {"flags": 135, "velocity_variance": 0.0, "pos_horiz_variance": 0.0035670462530106306, "pos_vert_variance": 0.07717957347631454}}, "errors": ["PreArm: Hardware safety switch"]}
{"timestamp": "2026-01-15T13:55:19.473027Z", "telemetry": {"lat": 28.7530059, "lon": 77.1179622, "satellites": 0, "altitude_gps_m": 0.28999999165534973, "groundspeed_mps": 0.010494107380509377}, "flight": {"mode": "STABILIZE", "armed": false}, "ekf": {"attitude": {"roll": 0.022232819348573685, "pitch": 0.000525167677551508, "yaw": -0.5543886423110962}, "local_position": {"x": null, "y": null, "z": null}, "status": {"flags": 135, "velocity_variance": 0.0, "pos_horiz_variance": 0.0032331347465515137, "pos_vert_variance": 0.0073229409754276276}}, "errors": ["PreArm: Hardware safety switch"]}
{"timestamp": "2026-01-15T13:55:20.497970Z", "telemetry": {"lat": 28.7530059, "lon": 77.1179622, "satellites": 0, "altitude_gps_m": 0.28999999165534973, "groundspeed_mps": 0.008472667075693607}, "flight": {"mode": "STABILIZE", "armed": false}, "ekf": {"attitude": {"roll": 0.022157935425639153, "pitch": 0.0006356476806104183, "yaw": -0.5544072389602661}, "local_position": {"x": null, "y": null, "z": null}, "status": {"flags": 135, "velocity_variance": 0.0, "pos_horiz_variance": 0.002663226565346122, "pos_vert_variance": 0.09096371382474899}}, "errors": ["PreArm: Hardware safety switch"]}
{"timestamp": "2026-01-15T13:55:21.497564Z", "telemetry": {"lat": 28.7530059, "lon": 77.1179622, "satellites": 0, "altitude_gps_m": 0.28999999165534973, "groundspeed_mps": 0.006137905642390251}, "flight": {"mode": "STABILIZE", "armed": false}, "ekf": {"attitude": {"roll": 0.022061025723814964, "pitch": 0.0006419876590371132, "yaw": -0.5543046593666077}, "local_position": {"x": null, "y": null, "z": null}, "status": {"flags": 135, "velocity_variance": 0.0, "pos_horiz_variance": 0.0020537017844617367, "pos_vert_variance": 0.018927108496427536}}, "errors": ["PreArm: Hardware safety switch"]}
{"timestamp": "2026-01-15T13:55:22.472438Z", "telemetry": {"lat": 28.7530059, "lon": 77.1179622, "satellites": 0, "altitude_gps_m": 0.28999999165534973, "groundspeed_mps": 0.0039040904957801104}, "flight": {"mode": "STABILIZE", "armed": false}, "ekf": {"attitude": {"roll": 0.022010136395692825, "pitch": 0.0006421436555683613, "yaw": -0.5544025897979736}, "local_position": {"x": null, "y": null, "z": null}, "status": {"flags": 135, "velocity_variance": 0.0, "pos_horiz_variance": 0.001422752276994288, "pos_vert_variance": 0.07264228910207748}}, "errors": ["PreArm: Hardware safety switch"]}
{"timestamp": "2026-01-15T13:55:23.501917Z", "telemetry": {"lat": 28.7530059, "lon": 77.1179622, "satellites": 0, "altitude_gps_m": 0.28999999165534973, "groundspeed_mps": 0.0071495892480015755}, "flight": {"mode": "STABILIZE", "armed": false}, "ekf": {"attitude": {"roll": 0.02194901555776596, "pitch": 0.0005514668300747871, "yaw": -0.55434650182724}, "local_position": {"x": null, "y": null, "z": null}, "status": {"flags": 135, "velocity_variance": 0.0, "pos_horiz_variance": 0.0011586396722123027, "pos_vert_variance": 0.008998948149383068}}, "errors": ["PreArm: Hardware safety switch"]}
{"timestamp": "2026-01-15T13:55:24.501574Z", "telemetry": {"lat": 28.7530059, "lon": 77.1179622, "satellites": 0, "altitude_gps_m": 0.28999999165534973, "groundspeed_mps": 0.009358352981507778}, "flight": {"mode": "STABILIZE", "armed": false}, "ekf": {"attitude": {"roll": 0.021909579634666443, "pitch": 0.0004836432635784149, "yaw": -0.554241955280304}, "local_position": {"x": null, "y": null, "z": null}, "status": {"flags": 135, "velocity_variance": 0.0, "pos_horiz_variance": 0.001522384351119399, "pos_vert_variance": 0.04120026156306267}}, "errors": ["PreArm: Hardware safety switch"]}
{"timestamp": "2026-01-15T13:55:25.501579Z", "telemetry": {"lat": 28.7530059, "lon": 77.1179622, "satellites": 0, "altitude_gps_m": 0.28999999165534973, "groundspeed_mps": 0.012245642021298409}, "flight": {"mode": "STABILIZE", "armed": false}, "ekf": {"attitude": {"roll": 0.02193412557244301, "pitch": 0.00039018504321575165, "yaw": -0.5542186498641968}, "local_position": {"x": null, "y": null, "z": null}, "status": {"flags": 135, "velocity_variance": 0.0, "pos_horiz_variance": 0.0023023297544568777, "pos_vert_variance": 0.030327947810292244}}, "errors": ["PreArm: Hardware safety switch"]}
{"timestamp": "2026-01-15T13:55:26.501524Z", "telemetry": {"lat": 28.7530059, "lon": 77.1179622, "satellites": 0, "altitude_gps_m": 0.28999999165534973, "groundspeed_mps": 0.009247233159840107}, "flight": {"mode": "STABILIZE", "armed": false}, "ekf": {"attitude": {"roll": 0.022058039903640747, "pitch": 0.00043766899034380913, "yaw": -0.5538515448570251}, "local_position": {"x": null, "y": null, "z": null}, "status": {"flags": 135, "velocity_variance": 0.0, "pos_horiz_variance": 0.002403248567134142, "pos_vert_variance": 0.07032498717308044}}, "errors": ["PreArm: Hardware safety switch"]}
{"timestamp": "2026-01-15T13:55:27.505595Z", "telemetry": {"lat": 28.7530059, "lon": 77.1179622, "satellites": 0, "altitude_gps_m": 0.28999999165534973, "groundspeed_mps": 0.008483577519655228}, "flight": {"mode": "STABILIZE", "armed": false}, "ekf": {"attitude": {"roll": 0.022068019956350327, "pitch": 0.00038807420060038567, "yaw": -0.5537437200546265}, "local_position": {"x": null, "y": null, "z": null}, "status": {"flags": 135, "velocity_variance": 0.0, "pos_horiz_variance": 0.00229068286716938, "pos_vert_variance": 0.03262294456362724}}, "errors": ["PreArm: Hardware safety switch"]}
{"timestamp": "2026-01-15T13:55:28.478889Z", "telemetry": {"lat": 28.7530059, "lon": 77.1179622, "satellites": 0, "altitude_gps_m": 0.28999999165534973, "groundspeed_mps": 0.006318821106106043}, "flight": {"mode": "STABILIZE", "armed": false}, "ekf": {"attitude": {"roll": 0.022075247019529343, "pitch": 0.00039997370913624763, "yaw": -0.5536896586418152}, "local_position": {"x": null, "y": null, "z": null}, "status": {"flags": 135, "velocity_variance": 0.0, "pos_horiz_variance": 0.0018632410792633891, "pos_vert_variance": 0.02843078225851059}}, "errors": ["PreArm: Hardware safety switch"]}
{"timestamp": "2026-01-15T13:55:29.478126Z", "telemetry": {"lat": 28.7530059, "lon": 77.1179622, "satellites": 0, "altitude_gps_m": 0.28999999165534973, "groundspeed_mps": 0.009199896827340126}, "flight": {"mode": "STABILIZE", "armed": false}, "ekf": {"attitude": {"roll": 0.022067101672291756, "pitch": 0.00045381439849734306, "yaw": -0.5537717342376709}, "local_position": {"x": null, "y": null, "z": null}, "status": {"flags": 135, "velocity_variance": 0.0, "pos_horiz_variance": 0.0017709041712805629, "pos_vert_variance": 0.04761112853884697}}, "errors": ["PreArm: Hardware safety switch"]}
