{"timestamp": "2025-12-28T11:21:06.468936Z", "telemetry": {"lat": 28.7532089, "lon": 77.1178559, "satellites": 9, "altitude_gps_m": 213.80999755859375, "groundspeed_mps": 0.1898927539587021}, "flight": {"mode": null, "armed": null}, "ekf": {"attitude": {"roll": -0.0337495394051075, "pitch": -0.004479877185076475, "yaw": 3.0449070930480957}, "local_position": {"x": 15.769485473632812, "y": -2.3086354732513428, "z": -4.880728721618652}, "status": {"flags": 33599, "velocity_variance": 0.23370160162448883, "pos_horiz_variance": 0.01998453214764595, "pos_vert_variance": 0.001316780224442482}}, "errors": []}
{"timestamp": "2025-12-28T11:21:07.418972Z", "telemetry": {"lat": 28.7532068, "lon": 77.1178534, "satellites": 9, "altitude_gps_m": 213.84999084472656, "groundspeed_mps": 0.2111523151397705}, "flight": {"mode": "STABILIZE", "armed": false}, "ekf": {"attitude": {"roll": -0.032516587525606155, "pitch": -0.0052450732327997684, "yaw": 3.044949769973755}, "local_position": {"x": 15.502896308898926, "y": -2.297137975692749, "z": -4.933143138885498}, "status": {"flags": 33599, "velocity_variance": 0.2567363679409027, "pos_horiz_variance": 0.02021668292582035, "pos_vert_variance": 0.12418434023857117}}, "errors": []}
{"timestamp": "2025-12-28T11:21:08.369830Z", "telemetry": {"lat": 28.7531987, "lon": 77.1178548, "satellites": 10, "altitude_gps_m": 213.87998962402344, "groundspeed_mps": 0.258136510848999}, "flight": {"mode": "STABILIZE", "armed": false}, "ekf": {"attitude": {"roll": -0.0320727564394474, "pitch": -0.006041191052645445, "yaw": 3.0449378490448}, "local_position": {"x": 15.03396224975586, "y": -2.1712615489959717, "z": -4.929061412811279}, "status": {"flags": 33599, "velocity_variance": 0.21052519977092743, "pos_horiz_variance": 0.022943152114748955, "pos_vert_variance": 0.07075261324644089}}, "errors": []}
{"timestamp": "2025-12-28T11:21:09.368757Z", "telemetry": {"lat": 28.7531963, "lon": 77.1178558, "satellites": 10, "altitude_gps_m": 213.84999084472656, "groundspeed_mps": 0.31295064091682434}, "flight": {"mode": "STABILIZE", "armed": false}, "ekf": {"attitude": {"roll": -0.032673824578523636, "pitch": -0.006417582277208567, "yaw": 3.04487681388855}, "local_position": {"x": 14.184590339660645, "y": -1.886877179145813, "z": -4.919980525970459}, "status": {"flags": 33599, "velocity_variance": 0.09805095940828323, "pos_horiz_variance": 0.016773706302046776, "pos_vert_variance": 0.024786263704299927}}, "errors": []}
{"timestamp": "2025-12-28T11:21:10.368411Z", "telemetry": {"lat": 28.7531907, "lon": 77.1178567, "satellites": 10, "altitude_gps_m": 213.7899932861328, "groundspeed_mps": 0.3585699796676636}, "flight": {"mode": "STABILIZE", "armed": false}, "ekf": {"attitude": {"roll": -0.0328039787709713, "pitch": -0.007184237707406282, "yaw": 3.044771432876587}, "local_position": {"x": 13.7606782913208, "y": -1.7578843832015991, "z": -4.867459774017334}, "status": {"flags": 33599, "velocity_variance": 0.14799998700618744, "pos_horiz_variance": 0.019673366099596024, "pos_vert_variance": 0.046872444450855255}}, "errors": []}
{"timestamp": "2025-12-28T11:21:11.372061Z", "telemetry": {"lat": 28.7531927, "lon": 77.117854, "satellites": 10, "altitude_gps_m": 213.80999755859375, "groundspeed_mps": 0.36089688539505005}, "flight": {"mode": "STABILIZE", "armed": false}, "ekf": {"attitude": {"roll": -0.03219318762421608, "pitch": -0.00669029401615262, "yaw": 3.0446457862854004}, "local_position": {"x": 13.418498992919922, "y": -1.7181700468063354, "z": -4.883706569671631}, "status": {"flags": 33599, "velocity_variance": 0.39049530029296875, "pos_horiz_variance": 0.011937360279262066, "pos_vert_variance": 0.05848511680960655}}, "errors": []}
{"timestamp": "2025-12-28T11:21:12.367884Z", "telemetry": {"lat": 28.7531919, "lon": 77.1178458, "satellites": 10, "altitude_gps_m": 213.83999633789062, "groundspeed_mps": 0.36786937713623047}, "flight": {"mode": "STABILIZE", "armed": false}, "ekf": {"attitude": {"roll": -0.029505696147680283, "pitch": -0.006194192450493574, "yaw": 3.0444352626800537}, "local_position": {"x": 12.776501655578613, "y": -2.4574272632598877, "z": -4.919131278991699}, "status": {"flags": 33599, "velocity_variance": 0.17241117358207703, "pos_horiz_variance": 0.009730679914355278, "pos_vert_variance": 0.01480916328728199}}, "errors": []}
{"timestamp": "2025-12-28T11:21:13.368665Z", "telemetry": {"lat": 28.7531851, "lon": 77.1178443, "satellites": 10, "altitude_gps_m": 213.77999877929688, "groundspeed_mps": 0.37599265575408936}, "flight": {"mode": "STABILIZE", "armed": false}, "ekf": {"attitude": {"roll": -0.02861405536532402, "pitch": -0.0059677730314433575, "yaw": 3.044290542602539}, "local_position": {"x": 12.655080795288086, "y": -2.808748722076416, "z": -4.873429775238037}, "status": {"flags": 33599, "velocity_variance": 0.22858339548110962, "pos_horiz_variance": 0.009980444796383381, "pos_vert_variance": 0.11818709224462509}}, "errors": []}
{"timestamp": "2025-12-28T11:21:14.371748Z", "telemetry": {"lat": 28.7531822, "lon": 77.1178474, "satellites": 10, "altitude_gps_m": 213.76998901367188, "groundspeed_mps": 0.3644845485687256}, "flight": {"mode": "STABILIZE", "armed": false}, "ekf": {"attitude": {"roll": -0.02956245467066765, "pitch": -0.005662788171321154, "yaw": 3.044180154800415}, "local_position": {"x": 12.220447540283203, "y": -2.872495651245117, "z": -4.841336250305176}, "status": {"flags": 33599, "velocity_variance": 0.1754099577665329, "pos_horiz_variance": 0.008570097386837006, "pos_vert_variance": 0.006159171462059021}}, "errors": []}
{"timestamp": "2025-12-28T11:21:15.368795Z", "telemetry": {"lat": 28.7531807, "lon": 77.1178526, "satellites": 10, "altitude_gps_m": 213.59999084472656, "groundspeed_mps": 0.28370586037635803}, "flight": {"mode": "STABILIZE", "armed": false}, "ekf": {"attitude": {"roll": -0.031978826969861984, "pitch": -0.005307960789650679, "yaw": 3.044145345687866}, "local_position": {"x": 12.019676208496094, "y": -2.4903485774993896, "z": -4.6729044914245605}, "status": {"flags": 33599, "velocity_variance": 0.2217269390821457, "pos_horiz_variance": 0.007863594219088554, "pos_vert_variance": 0.02616770751774311}}, "errors": []}
{"timestamp": "2025-12-28T11:21:16.368831Z", "telemetry": {"lat": 28.753177, "lon": 77.1178523, "satellites": 10, "altitude_gps_m": 213.5699920654297, "groundspeed_mps": 0.2904582917690277}, "flight": {"mode": "STABILIZE", "armed": false}, "ekf": {"attitude": {"roll": -0.03165890648961067, "pitch": -0.005288552958518267, "yaw": 3.044139862060547}, "local_position": {"x": 11.733813285827637, "y": -2.3901689052581787, "z": -4.626104831695557}, "status": {"flags": 33599, "velocity_variance": 0.07147596031427383, "pos_horiz_variance": 0.01122322864830494, "pos_vert_variance": 0.03947819396853447}}, "errors": []}
{"timestamp": "2025-12-28T11:21:17.369093Z", "telemetry": {"lat": 28.7531732, "lon": 77.117849, "satellites": 10, "altitude_gps_m": 213.61000061035156, "groundspeed_mps": 0.2679368257522583}, "flight": {"mode": "STABILIZE", "armed": false}, "ekf": {"attitude": {"roll": -0.03164875879883766, "pitch": -0.004787436220794916, "yaw": 3.044260263442993}, "local_position": {"x": 11.439338684082031, "y": -2.4785773754119873, "z": -4.6960530281066895}, "status": {"flags": 33599, "velocity_variance": 0.2140515297651291, "pos_horiz_variance": 0.013211194425821304, "pos_vert_variance": 0.06933030486106873}}, "errors": []}
{"timestamp": "2025-12-28T11:21:18.368711Z", "telemetry": {"lat": 28.7531749, "lon": 77.1178457, "satellites": 10, "altitude_gps_m": 213.5800018310547, "groundspeed_mps": 0.22789208590984344}, "flight": {"mode": "STABILIZE", "armed": false}, "ekf": {"attitude": {"roll": -0.031426381319761276, "pitch": -0.004239682573825121, "yaw": 3.0442025661468506}, "local_position": {"x": 11.324261665344238, "y": -2.656759262084961, "z": -4.6554107666015625}, "status": {"flags": 33599, "velocity_variance": 0.1968296766281128, "pos_horiz_variance": 0.009562251158058643, "pos_vert_variance": 0.008783291094005108}}, "errors": []}
{"timestamp": "2025-12-28T11:21:19.368719Z", "telemetry": {"lat": 28.753179, "lon": 77.1178445, "satellites": 10, "altitude_gps_m": 213.5800018310547, "groundspeed_mps": 0.15673883259296417}, "flight": {"mode": "STABILIZE", "armed": false}, "ekf": {"attitude": {"roll": -0.032098185271024704, "pitch": -0.0031560170464217663, "yaw": 3.044243812561035}, "local_position": {"x": 11.176609992980957, "y": -2.643913984298706, "z": -4.669572353363037}, "status": {"flags": 33599, "velocity_variance": 0.2622973322868347, "pos_horiz_variance": 0.009896445088088512, "pos_vert_variance": 0.0630125179886818}}, "errors": []}
{"timestamp": "2025-12-28T11:21:20.369713Z", "telemetry": {"lat": 28.7531792, "lon": 77.1178426, "satellites": 10, "altitude_gps_m": 213.54998779296875, "groundspeed_mps": 0.08992231637239456}, "flight": {"mode": "STABILIZE", "armed": false}, "ekf": {"attitude": {"roll": -0.03147738054394722, "pitch": -0.001575659029185772, "yaw": 3.044358491897583}, "local_position": {"x": 11.267860412597656, "y": -2.7566611766815186, "z": -4.616339683532715}, "status": {"flags": 33599, "velocity_variance": 0.08506867289543152, "pos_horiz_variance": 0.00996472593396902, "pos_vert_variance": 0.010194825008511543}}, "errors": []}
{"timestamp": "2025-12-28T11:21:21.368771Z", "telemetry": {"lat": 28.7531832, "lon": 77.1178409, "satellites": 10, "altitude_gps_m": 213.55999755859375, "groundspeed_mps": 0.14819058775901794}, "flight": {"mode": "STABILIZE", "armed": false}, "ekf": {"attitude": {"roll": -0.031895119696855545, "pitch": 0.00023473380133509636, "yaw": 3.044342279434204}, "local_position": {"x": 11.591431617736816, "y": -2.9697301387786865, "z": -4.652400970458984}, "status": {"flags": 33599, "velocity_variance": 0.14949630200862885, "pos_horiz_variance": 0.011930483393371105, "pos_vert_variance": 0.036444440484046936}}, "errors": []}
{"timestamp": "2025-12-28T11:21:22.367872Z", "telemetry": {"lat": 28.753184, "lon": 77.1178422, "satellites": 10, "altitude_gps_m": 213.61000061035156, "groundspeed_mps": 0.23830997943878174}, "flight": {"mode": "STABILIZE", "armed": false}, "ekf": {"attitude": {"roll": -0.032472770661115646, "pitch": 0.0011479142121970654, "yaw": 3.044290781021118}, "local_position": {"x": 12.197042465209961, "y": -3.0296120643615723, "z": -4.681947708129883}, "status": {"flags": 33599, "velocity_variance": 0.29280707240104675, "pos_horiz_variance": 0.004924344830214977, "pos_vert_variance": 0.01157073862850666}}, "errors": []}
{"timestamp": "2025-12-28T11:21:23.369622Z", "telemetry": {"lat": 28.7531806, "lon": 77.1178426, "satellites": 10, "altitude_gps_m": 213.75999450683594, "groundspeed_mps": 0.22332563996315002}, "flight": {"mode": "STABILIZE", "armed": false}, "ekf": {"attitude": {"roll": -0.03256944939494133, "pitch": 0.0003277561627328396, "yaw": 3.0442841053009033}, "local_position": {"x": 12.18870735168457, "y": -2.956493854522705, "z": -4.825723648071289}, "status": {"flags": 33599, "velocity_variance": 0.03885461017489433, "pos_horiz_variance": 0.006038936786353588, "pos_vert_variance": 0.007223099935799837}}, "errors": []}
{"timestamp": "2025-12-28T11:21:24.368638Z", "telemetry": {"lat": 28.7531796, "lon": 77.1178405, "satellites": 10, "altitude_gps_m": 213.67999267578125, "groundspeed_mps": 0.2730392813682556}, "flight": {"mode": "STABILIZE", "armed": false}, "ekf": {"attitude": {"roll": -0.03207177296280861, "pitch": 0.0007180860266089439, "yaw": 3.044293165206909}, "local_position": {"x": 12.226428985595703, "y": -3.086662769317627, "z": -4.767060279846191}, "status": {"flags": 33599, "velocity_variance": 0.14954306185245514, "pos_horiz_variance": 0.013379248790442944, "pos_vert_variance": 0.020386777818202972}}, "errors": []}
{"timestamp": "2025-12-28T11:21:25.367842Z", "telemetry": {"lat": 28.7531764, "lon": 77.1178316, "satellites": 10, "altitude_gps_m": 213.79998779296875, "groundspeed_mps": 0.30730512738227844}, "flight": {"mode": "STABILIZE", "armed": false}, "ekf": {"attitude": {"roll": -0.030920948833227158, "pitch": 0.00031079864129424095, "yaw": 3.044412136077881}, "local_position": {"x": 12.286203384399414, "y": -3.595262289047241, "z": -4.871862888336182}, "status": {"flags": 33599, "velocity_variance": 0.3878282606601715, "pos_horiz_variance": 0.02318767085671425, "pos_vert_variance": 0.014539598487317562}}, "errors": []}
{"timestamp": "2025-12-28T11:21:26.368594Z", "telemetry": {"lat": 28.7531728, "lon": 77.1178299, "satellites": 10, "altitude_gps_m": 213.79998779296875, "groundspeed_mps": 0.31926411390304565}, "flight": {"mode": "STABILIZE", "armed": false}, "ekf": {"attitude": {"roll": -0.030459169298410416, "pitch": -0.0005313390865921974, "yaw": 3.044281005859375}, "local_position": {"x": 12.188739776611328, "y": -3.9449689388275146, "z": -4.863844871520996}, "status": {"flags": 33599, "velocity_variance": 0.2112777680158615, "pos_horiz_variance": 0.027924025431275368, "pos_vert_variance": 0.017332525923848152}}, "errors": []}
{"timestamp": "2025-12-28T11:21:27.368657Z", "telemetry": {"lat": 28.7531705, "lon": 77.1178306, "satellites": 10, "altitude_gps_m": 213.88999938964844, "groundspeed_mps": 0.18106316030025482}, "flight": {"mode": "STABILIZE", "armed": false}, "ekf": {"attitude": {"roll": -0.03165492042899132, "pitch": -0.0026064449921250343, "yaw": 3.0443215370178223}, "local_position": {"x": 11.772130966186523, "y": -3.9634194374084473, "z": -4.9457550048828125}, "status": {"flags": 33599, "velocity_variance": 0.19506992399692535, "pos_horiz_variance": 0.025292696431279182, "pos_vert_variance": 0.07885421812534332}}, "errors": []}
{"timestamp": "2025-12-28T11:21:28.368840Z", "telemetry": {"lat": 28.7531673, "lon": 77.117827, "satellites": 10, "altitude_gps_m": 213.83999633789062, "groundspeed_mps": 0.1240534782409668}, "flight": {"mode": "STABILIZE", "armed": false}, "ekf": {"attitude": {"roll": -0.03212929144501686, "pitch": -0.003693238366395235, "yaw": 3.044250249862671}, "local_position": {"x": 11.114680290222168, "y": -4.051316261291504, "z": -4.910037994384766}, "status": {"flags": 33599, "velocity_variance": 0.22654244303703308, "pos_horiz_variance": 0.02233229950070381, "pos_vert_variance": 0.010806930251419544}}, "errors": []}
{"timestamp": "2025-12-28T11:21:29.368546Z", "telemetry": {"lat": 28.7531656, "lon": 77.1178241, "satellites": 10, "altitude_gps_m": 213.80999755859375, "groundspeed_mps": 0.1572582721710205}, "flight": {"mode": "STABILIZE", "armed": false}, "ekf": {"attitude": {"roll": -0.03211969509720802, "pitch": -0.005149278324097395, "yaw": 3.0443427562713623}, "local_position": {"x": 10.75867748260498, "y": -4.252100467681885, "z": -4.880249500274658}, "status": {"flags": 33599, "velocity_variance": 0.1066633015871048, "pos_horiz_variance": 0.02170921303331852, "pos_vert_variance": 0.07543852180242538}}, "errors": []}
{"timestamp": "2025-12-28T11:21:30.368764Z", "telemetry": {"lat": 28.7531633, "lon": 77.117822, "satellites": 10, "altitude_gps_m": 213.79998779296875, "groundspeed_mps": 0.21467342972755432}, "flight": {"mode": "STABILIZE", "armed": false}, "ekf": {"attitude": {"roll": -0.03226649388670921, "pitch": -0.006380996201187372, "yaw": 3.0444393157958984}, "local_position": {"x": 10.352126121520996, "y": -4.443011283874512, "z": -4.86067008972168}, "status": {"flags": 33599, "velocity_variance": 0.12014085054397583, "pos_horiz_variance": 0.020541494712233543, "pos_vert_variance": 0.005946586839854717}}, "errors": []}
{"timestamp": "2025-12-28T11:21:31.368606Z", "telemetry": {"lat": 28.7531623, "lon": 77.1178185, "satellites": 10, "altitude_gps_m": 213.80999755859375, "groundspeed_mps": 0.2617899477481842}, "flight": {"mode": "STABILIZE", "armed": false}, "ekf": {"attitude": {"roll": -0.032414812594652176, "pitch": -0.006884241010993719, "yaw": 3.044621229171753}, "local_position": {"x": 9.7909517288208, "y": -4.747197151184082, "z": -4.88922643661499}, "status": {"flags": 33599, "velocity_variance": 0.30749717354774475, "pos_horiz_variance": 0.01597355119884014, "pos_vert_variance": 0.04204094782471657}}, "errors": []}
{"timestamp": "2025-12-28T11:21:32.368766Z", "telemetry": {"lat": 28.7531624, "lon": 77.1178177, "satellites": 10, "altitude_gps_m": 213.75999450683594, "groundspeed_mps": 0.2193383425474167}, "flight": {"mode": "STABILIZE", "armed": false}, "ekf": {"attitude": {"roll": -0.03294169530272484, "pitch": -0.005968897137790918, "yaw": 3.044717311859131}, "local_position": {"x": 9.700545310974121, "y": -4.836818695068359, "z": -4.842528343200684}, "status": {"flags": 33599, "velocity_variance": 0.12420158833265305, "pos_horiz_variance": 0.016283616423606873, "pos_vert_variance": 0.0040716249495744705}}, "errors": []}
{"timestamp": "2025-12-28T11:21:33.368662Z", "telemetry": {"lat": 28.7531642, "lon": 77.1178133, "satellites": 10, "altitude_gps_m": 213.83999633789062, "groundspeed_mps": 0.20303940773010254}, "flight": {"mode": "STABILIZE", "armed": false}, "ekf": {"attitude": {"roll": -0.03257669135928154, "pitch": -0.00553862052038312, "yaw": 3.044527530670166}, "local_position": {"x": 9.87703800201416, "y": -5.289685249328613, "z": -4.902259826660156}, "status": {"flags": 33599, "velocity_variance": 0.10187283903360367, "pos_horiz_variance": 0.01569424569606781, "pos_vert_variance": 0.012714811600744724}}, "errors": []}
{"timestamp": "2025-12-28T11:21:34.368300Z", "telemetry": {"lat": 28.7531584, "lon": 77.1178092, "satellites": 9, "altitude_gps_m": 213.80999755859375, "groundspeed_mps": 0.24539534747600555}, "flight": {"mode": "STABILIZE", "armed": false}, "ekf": {"attitude": {"roll": -0.0317021943628788, "pitch": -0.005375583190470934, "yaw": 3.044513702392578}, "local_position": {"x": 9.621676445007324, "y": -5.7445969581604, "z": -4.884526252746582}, "status": {"flags": 33599, "velocity_variance": 0.1393589973449707, "pos_horiz_variance": 0.01554978359490633, "pos_vert_variance": 0.030482962727546692}}, "errors": []}
{"timestamp": "2025-12-28T11:21:35.368731Z", "telemetry": {"lat": 28.7531596, "lon": 77.1178077, "satellites": 9, "altitude_gps_m": 213.84999084472656, "groundspeed_mps": 0.2575385868549347}, "flight": {"mode": "STABILIZE", "armed": false}, "ekf": {"attitude": {"roll": -0.031643662601709366, "pitch": -0.0042477757669985294, "yaw": 3.0445170402526855}, "local_position": {"x": 9.665481567382812, "y": -6.086007595062256, "z": -4.913835525512695}, "status": {"flags": 33599, "velocity_variance": 0.20005029439926147, "pos_horiz_variance": 0.01334996148943901, "pos_vert_variance": 0.014398741535842419}}, "errors": []}
{"timestamp": "2025-12-28T11:21:36.368133Z", "telemetry": {"lat": 28.7531574, "lon": 77.1178076, "satellites": 9, "altitude_gps_m": 213.89999389648438, "groundspeed_mps": 0.2228384017944336}, "flight": {"mode": "STABILIZE", "armed": false}, "ekf": {"attitude": {"roll": -0.03251771256327629, "pitch": -0.005220724735409021, "yaw": 3.044518232345581}, "local_position": {"x": 9.647017478942871, "y": -6.3251519203186035, "z": -4.939745903015137}, "status": {"flags": 33599, "velocity_variance": 0.24577759206295013, "pos_horiz_variance": 0.01226549781858921, "pos_vert_variance": 0.0026506814174354076}}, "errors": ["PreArm: Hardware safety switch", "PreArm: Internal errors 0x100000 l:66 flow_of_ctrl"]}
{"timestamp": "2025-12-28T11:21:37.368235Z", "telemetry": {"lat": 28.7531547, "lon": 77.1178085, "satellites": 9, "altitude_gps_m": 213.89999389648438, "groundspeed_mps": 0.20560799539089203}, "flight": {"mode": "STABILIZE", "armed": false}, "ekf": {"attitude": {"roll": -0.032672394067049026, "pitch": -0.0050777229480445385, "yaw": 3.0445053577423096}, "local_position": {"x": 9.333951950073242, "y": -6.389997959136963, "z": -4.982593059539795}, "status": {"flags": 33599, "velocity_variance": 0.07975675910711288, "pos_horiz_variance": 0.011713091284036636, "pos_vert_variance": 0.005831906571984291}}, "errors": ["PreArm: Hardware safety switch", "PreArm: Internal errors 0x100000 l:66 flow_of_ctrl"]}
{"timestamp": "2025-12-28T11:21:38.368684Z", "telemetry": {"lat": 28.7531558, "lon": 77.1178111, "satellites": 9, "altitude_gps_m": 213.83999633789062, "groundspeed_mps": 0.13648661971092224}, "flight": {"mode": "STABILIZE", "armed": false}, "ekf": {"attitude": {"roll": -0.034513335675001144, "pitch": -0.005403666291385889, "yaw": 3.0445730686187744}, "local_position": {"x": 9.076741218566895, "y": -6.280909538269043, "z": -4.919039249420166}, "status": {"flags": 33599, "velocity_variance": 0.24679474532604218, "pos_horiz_variance": 0.003388101700693369, "pos_vert_variance": 0.02634781412780285}}, "errors": ["PreArm: Hardware safety switch", "PreArm: Internal errors 0x100000 l:66 flow_of_ctrl"]}
{"timestamp": "2025-12-28T11:21:39.368296Z", "telemetry": {"lat": 28.7531485, "lon": 77.1178161, "satellites": 9, "altitude_gps_m": 213.84999084472656, "groundspeed_mps": 0.21677106618881226}, "flight": {"mode": "STABILIZE", "armed": false}, "ekf": {"attitude": {"roll": -0.0357266329228878, "pitch": -0.006452908273786306, "yaw": 3.044750452041626}, "local_position": {"x": 8.602603912353516, "y": -6.003669738769531, "z": -4.93259334564209}, "status": {"flags": 33599, "velocity_variance": 0.25446805357933044, "pos_horiz_variance": 0.011365515179932117, "pos_vert_variance": 0.02288898080587387}}, "errors": ["PreArm: Hardware safety switch", "PreArm: Internal errors 0x100000 l:66 flow_of_ctrl"]}
{"timestamp": "2025-12-28T11:21:40.368161Z", "telemetry": {"lat": 28.7531549, "lon": 77.1178149, "satellites": 10, "altitude_gps_m": 213.8699951171875, "groundspeed_mps": 0.250006765127182}, "flight": {"mode": "STABILIZE", "armed": false}, "ekf": {"attitude": {"roll": -0.035939279943704605, "pitch": -0.006571456324309111, "yaw": 3.0448484420776367}, "local_position": {"x": 8.27988052368164, "y": -5.786679267883301, "z": -4.9409966468811035}, "status": {"flags": 33599, "velocity_variance": 0.34222412109375, "pos_horiz_variance": 0.008466186933219433, "pos_vert_variance": 0.006715628318488598}}, "errors": ["PreArm: Hardware safety switch", "PreArm: Internal errors 0x100000 l:66 flow_of_ctrl"]}
{"timestamp": "2025-12-28T11:21:41.367882Z", "telemetry": {"lat": 28.7531574, "lon": 77.117813, "satellites": 10, "altitude_gps_m": 213.8300018310547, "groundspeed_mps": 0.2254602462053299}, "flight": {"mode": "STABILIZE", "armed": false}, "ekf": {"attitude": {"roll": -0.03626967594027519, "pitch": -0.005742245819419622, "yaw": 3.044874668121338}, "local_position": {"x": 8.27570629119873, "y": -5.7359442710876465, "z": -4.932101249694824}, "status": {"flags": 33599, "velocity_variance": 0.1304246038198471, "pos_horiz_variance": 0.014417299069464207, "pos_vert_variance": 0.05234035477042198}}, "errors": ["PreArm: Hardware safety switch", "PreArm: Internal errors 0x100000 l:66 flow_of_ctrl"]}
{"timestamp": "2025-12-28T11:21:42.368715Z", "telemetry": {"lat": 28.7531614, "lon": 77.1178132, "satellites": 10, "altitude_gps_m": 213.8300018310547, "groundspeed_mps": 0.2187076210975647}, "flight": {"mode": "STABILIZE", "armed": false}, "ekf": {"attitude": {"roll": -0.03705230727791786, "pitch": -0.004762610886245966, "yaw": 3.044900417327881}, "local_position": {"x": 8.49860668182373, "y": -5.613853931427002, "z": -4.908031940460205}, "status": {"flags": 33599, "velocity_variance": 0.2538728713989258, "pos_horiz_variance": 0.019223708659410477, "pos_vert_variance": 0.01870102807879448}}, "errors": ["PreArm: Hardware safety switch", "PreArm: Internal errors 0x100000 l:66 flow_of_ctrl"]}
{"timestamp": "2025-12-28T11:21:43.367881Z", "telemetry": {"lat": 28.7531588, "lon": 77.1178104, "satellites": 10, "altitude_gps_m": 213.87998962402344, "groundspeed_mps": 0.15576466917991638}, "flight": {"mode": "STABILIZE", "armed": false}, "ekf": {"attitude": {"roll": -0.03566039726138115, "pitch": -0.004387026187032461, "yaw": 3.0451266765594482}, "local_position": {"x": 8.696533203125, "y": -5.739841938018799, "z": -4.952705383300781}, "status": {"flags": 33599, "velocity_variance": 0.17377586662769318, "pos_horiz_variance": 0.014176517724990845, "pos_vert_variance": 0.0352042019367218}}, "errors": ["PreArm: Hardware safety switch", "PreArm: Internal errors 0x100000 l:66 flow_of_ctrl"]}
{"timestamp": "2025-12-28T11:21:44.368245Z", "telemetry": {"lat": 28.753161, "lon": 77.1178095, "satellites": 10, "altitude_gps_m": 213.89999389648438, "groundspeed_mps": 0.1280873417854309}, "flight": {"mode": "STABILIZE", "armed": false}, "ekf": {"attitude": {"roll": -0.03563982620835304, "pitch": -0.0038537182845175266, "yaw": 3.0452067852020264}, "local_position": {"x": 8.745471954345703, "y": -5.831280708312988, "z": -4.970002174377441}, "status": {"flags": 33599, "velocity_variance": 0.09612303227186203, "pos_horiz_variance": 0.017553260549902916, "pos_vert_variance": 0.040767449885606766}}, "errors": ["PreArm: Hardware safety switch", "PreArm: Internal errors 0x100000 l:66 flow_of_ctrl", "Arm: Hardware safety switch", "Arm: Internal errors 0x100000 l:66 flow_of_ctrl"]}
{"timestamp": "2025-12-28T11:21:45.370433Z", "telemetry": {"lat": 28.7531658, "lon": 77.1178097, "satellites": 10, "altitude_gps_m": 213.88999938964844, "groundspeed_mps": 0.21695880591869354}, "flight": {"mode": "STABILIZE", "armed": false}, "ekf": {"attitude": {"roll": -0.036992620676755905, "pitch": -0.0037024454213678837, "yaw": 3.0452961921691895}, "local_position": {"x": 9.016939163208008, "y": -5.741953372955322, "z": -4.9762773513793945}, "status": {"flags": 33599, "velocity_variance": 0.26688873767852783, "pos_horiz_variance": 0.02186889573931694, "pos_vert_variance": 0.028683587908744812}}, "errors": ["PreArm: Hardware safety switch", "PreArm: Internal errors 0x100000 l:66 flow_of_ctrl", "Arm: Hardware safety switch", "Arm: Internal errors 0x100000 l:66 flow_of_ctrl"]}
{"timestamp": "2025-12-28T11:21:46.367844Z", "telemetry": {"lat": 28.7531723, "lon": 77.1178132, "satellites": 10, "altitude_gps_m": 213.9199981689453, "groundspeed_mps": 0.3112766146659851}, "flight": {"mode": "STABILIZE", "armed": false}, "ekf": {"attitude": {"roll": -0.03704812005162239, "pitch": -0.002647197339683771, "yaw": 3.0454823970794678}, "local_position": {"x": 9.355255126953125, "y": -5.320729732513428, "z": -4.974511623382568}, "status": {"flags": 33599, "velocity_variance": 0.18660083413124084, "pos_horiz_variance": 0.027295183390378952, "pos_vert_variance": 0.012531273066997528}}, "errors": ["PreArm: Hardware safety switch", "PreArm: Internal errors 0x100000 l:66 flow_of_ctrl", "Arm: Hardware safety switch", "Arm: Internal errors 0x100000 l:66 flow_of_ctrl"]}
{"timestamp": "2025-12-28T11:21:47.368260Z", "telemetry": {"lat": 28.7531711, "lon": 77.1178136, "satellites": 10, "altitude_gps_m": 213.89999389648438, "groundspeed_mps": 0.3171265721321106}, "flight": {"mode": "STABILIZE", "armed": false}, "ekf": {"attitude": {"roll": -0.03662293031811714, "pitch": -0.0028596646152436733, "yaw": 3.045616626739502}, "local_position": {"x": 9.8289155960083, "y": -5.3559088706970215, "z": -4.979298114776611}, "status": {"flags": 33599, "velocity_variance": 0.17519763112068176, "pos_horiz_variance": 0.019288133829832077, "pos_vert_variance": 0.02787880226969719}}, "errors": ["PreArm: Hardware safety switch", "PreArm: Internal errors 0x100000 l:66 flow_of_ctrl", "Arm: Hardware safety switch", "Arm: Internal errors 0x100000 l:66 flow_of_ctrl"]}
{"timestamp": "2025-12-28T11:21:48.369769Z", "telemetry": {"lat": 28.7531698, "lon": 77.1178148, "satellites": 10, "altitude_gps_m": 213.9499969482422, "groundspeed_mps": 0.3119990825653076}, "flight": {"mode": "STABILIZE", "armed": false}, "ekf": {"attitude": {"roll": -0.03620230033993721, "pitch": -0.002909317146986723, "yaw": 3.0455236434936523}, "local_position": {"x": 9.871074676513672, "y": -5.341076850891113, "z": -5.009372234344482}, "status": {"flags": 33599, "velocity_variance": 0.23749972879886627, "pos_horiz_variance": 0.01634572632610798, "pos_vert_variance": 0.020671948790550232}}, "errors": ["PreArm: Hardware safety switch", "PreArm: Internal errors 0x100000 l:66 flow_of_ctrl", "Arm: Hardware safety switch", "Arm: Internal errors 0x100000 l:66 flow_of_ctrl", "Arm: Hardware safety switch", "Arm: Internal errors 0x100000 l:66 flow_of_ctrl"]}
{"timestamp": "2025-12-28T11:21:49.368254Z", "telemetry": {"lat": 28.7531613, "lon": 77.1178212, "satellites": 10, "altitude_gps_m": 214.0, "groundspeed_mps": 0.2940244674682617}, "flight": {"mode": "STABILIZE", "armed": false}, "ekf": {"attitude": {"roll": -0.036087993532419205, "pitch": -0.005326832178980112, "yaw": 3.045773983001709}, "local_position": {"x": 9.845634460449219, "y": -5.188048362731934, "z": -5.062631607055664}, "status": {"flags": 33599, "velocity_variance": 0.325324684381485, "pos_horiz_variance": 0.00622251583263278, "pos_vert_variance": 0.08308055996894836}}, "errors": ["PreArm: Hardware safety switch", "PreArm: Internal errors 0x100000 l:66 flow_of_ctrl", "Arm: Hardware safety switch", "Arm: Internal errors 0x100000 l:66 flow_of_ctrl", "Arm: Hardware safety switch", "Arm: Internal errors 0x100000 l:66 flow_of_ctrl"]}
{"timestamp": "2025-12-28T11:21:50.368190Z", "telemetry": {"lat": 28.7531614, "lon": 77.1178234, "satellites": 10, "altitude_gps_m": 214.01998901367188, "groundspeed_mps": 0.33803433179855347}, "flight": {"mode": "STABILIZE", "armed": false}, "ekf": {"attitude": {"roll": -0.036134567111730576, "pitch": -0.006514603737741709, "yaw": 3.046379804611206}, "local_position": {"x": 9.457571029663086, "y": -4.833305358886719, "z": -5.090254306793213}, "status": {"flags": 33599, "velocity_variance": 0.17558979988098145, "pos_horiz_variance": 0.003116847947239876, "pos_vert_variance": 0.04129735007882118}}, "errors": ["PreArm: Hardware safety switch", "PreArm: Internal errors 0x100000 l:66 flow_of_ctrl", "Arm: Hardware safety switch", "Arm: Internal errors 0x100000 l:66 flow_of_ctrl", "Arm: Hardware safety switch", "Arm: Internal errors 0x100000 l:66 flow_of_ctrl"]}
{"timestamp": "2025-12-28T11:21:51.369498Z", "telemetry": {"lat": 28.7531571, "lon": 77.1178268, "satellites": 10, "altitude_gps_m": 213.89999389648438, "groundspeed_mps": 0.4534395635128021}, "flight": {"mode": "STABILIZE", "armed": false}, "ekf": {"attitude": {"roll": -0.03737088665366173, "pitch": -0.007726737763732672, "yaw": 3.046450138092041}, "local_position": {"x": 9.037965774536133, "y": -4.473966121673584, "z": -5.024986267089844}, "status": {"flags": 33599, "velocity_variance": 0.22342342138290405, "pos_horiz_variance": 0.0030135391280055046, "pos_vert_variance": 0.07570207118988037}}, "errors": ["PreArm: Hardware safety switch", "PreArm: Internal errors 0x100000 l:66 flow_of_ctrl", "Arm: Hardware safety switch", "Arm: Internal errors 0x100000 l:66 flow_of_ctrl", "Arm: Hardware safety switch", "Arm: Internal errors 0x100000 l:66 flow_of_ctrl", "Arm: Hardware safety switch", "Arm: Internal errors 0x100000 l:66 flow_of_ctrl"]}
{"timestamp": "2025-12-28T11:21:52.368826Z", "telemetry": {"lat": 28.7531558, "lon": 77.1178323, "satellites": 9, "altitude_gps_m": 213.83999633789062, "groundspeed_mps": 0.5094418525695801}, "flight": {"mode": "STABILIZE", "armed": false}, "ekf": {"attitude": {"roll": -0.03690857067704201, "pitch": -0.008248912170529366, "yaw": 3.046444892883301}, "local_position": {"x": 8.672876358032227, "y": -3.910522937774658, "z": -4.948170185089111}, "status": {"flags": 33599, "velocity_variance": 0.1771026998758316, "pos_horiz_variance": 0.0037673134356737137, "pos_vert_variance": 0.07195337861776352}}, "errors": ["PreArm: Hardware safety switch", "PreArm: Internal errors 0x100000 l:66 flow_of_ctrl", "Arm: Hardware safety switch", "Arm: Internal errors 0x100000 l:66 flow_of_ctrl", "Arm: Hardware safety switch", "Arm: Internal errors 0x100000 l:66 flow_of_ctrl", "Arm: Hardware safety switch", "Arm: Internal errors 0x100000 l:66 flow_of_ctrl"]}
