{"timestamp": "2026-01-15T14:05:43.466324Z", "telemetry": {"lat": null, "lon": null, "satellites": null, "altitude_gps_m": 0.28999999165534973, "groundspeed_mps": 0.011884527280926704}, "flight": {"mode": "STABILIZE", "armed": false}, "ekf": {"attitude": {"roll": 0.022312769666314125, "pitch": 0.0014202487654983997, "yaw": -0.5139853358268738}, "local_position": {"x": null, "y": null, "z": null}, "status": {"flags": null, "velocity_variance": null, "pos_horiz_variance": null, "pos_vert_variance": null}}, "errors": []}
{"timestamp": "2026-01-15T14:05:44.500156Z", "telemetry": {"lat": 28.7530059, "lon": 77.1179622, "satellites": 0, "altitude_gps_m": 0.28999999165534973, "groundspeed_mps": 0.008451808243989944}, "flight": {"mode": "STABILIZE", "armed": false}, "ekf": {"attitude": {"roll": 0.022370535880327225, "pitch": 0.0015297834761440754, "yaw": -0.5139381289482117}, "local_position": {"x": null, "y": null, "z": null}, "status": {"flags": 135, "velocity_variance": 0.0, "pos_horiz_variance": 0.00278391782194376, "pos_vert_variance": 0.011918562464416027}}, "errors": []}
{"timestamp": "2026-01-15T14:05:45.501606Z", "telemetry": {"lat": 28.7530059, "lon": 77.1179622, "satellites": 0, "altitude_gps_m": 0.28999999165534973, "groundspeed_mps": 0.008325530216097832}, "flight": {"mode": "STABILIZE", "armed": false}, "ekf": {"attitude": {"roll": 0.022313611581921577, "pitch": 0.0016180474776774645, "yaw": -0.5140718817710876}, "local_position": {"x": null, "y": null, "z": null}, "status": {"flags": 135, "velocity_variance": 0.0, "pos_horiz_variance": 0.002281979424878955, "pos_vert_variance": 0.057656217366456985}}, "errors": []}
{"timestamp": "2026-01-15T14:05:46.501221Z", "telemetry": {"lat": 28.7530059, "lon": 77.1179622, "satellites": 0, "altitude_gps_m": 0.28999999165534973, "groundspeed_mps": 0.008050148375332355}, "flight": {"mode": "STABILIZE", "armed": false}, "ekf": {"attitude": {"roll": 0.022472407668828964, "pitch": 0.0016338634304702282, "yaw": -0.5140809416770935}, "local_position": {"x": null, "y": null, "z": null}, "status": {"flags": 135, "velocity_variance": 0.0, "pos_horiz_variance": 0.0022371821105480194, "pos_vert_variance": 0.022641785442829132}}, "errors": []}
{"timestamp": "2026-01-15T14:05:47.501411Z", "telemetry": {"lat": 28.7530059, "lon": 77.1179622, "satellites": 0, "altitude_gps_m": 0.28999999165534973, "groundspeed_mps": 0.009875232353806496}, "flight": {"mode": "STABILIZE", "armed": false}, "ekf": {"attitude": {"roll": 0.022424306720495224, "pitch": 0.0017337591852992773, "yaw": -0.5142644643783569}, "local_position": {"x": null, "y": null, "z": null}, "status": {"flags": 135, "velocity_variance": 0.0, "pos_horiz_variance": 0.0022858644369989634, "pos_vert_variance": 0.004405453335493803}}, "errors": []}
{"timestamp": "2026-01-15T14:05:48.505107Z", "telemetry": {"lat": 28.7530059, "lon": 77.1179622, "satellites": 0, "altitude_gps_m": 0.28999999165534973, "groundspeed_mps": 0.007891274988651276}, "flight": {"mode": "STABILIZE", "armed": false}, "ekf": {"attitude": {"roll": 0.022469108924269676, "pitch": 0.0018805048894137144, "yaw": -0.5141029953956604}, "local_position": {"x": null, "y": null, "z": null}, "status": {"flags": 135, "velocity_variance": 0.0, "pos_horiz_variance": 0.002337760291993618, "pos_vert_variance": 0.07418474555015564}}, "errors": []}
{"timestamp": "2026-01-15T14:05:49.472598Z", "telemetry": {"lat": 28.7530059, "lon": 77.1179622, "satellites": 0, "altitude_gps_m": 0.28999999165534973, "groundspeed_mps": 0.003741428256034851}, "flight": {"mode": "STABILIZE", "armed": false}, "ekf": {"attitude": {"roll": 0.022541850805282593, "pitch": 0.0019045677036046982, "yaw": -0.5141431093215942}, "local_position": {"x": null, "y": null, "z": null}, "status": {"flags": 135, "velocity_variance": 0.0, "pos_horiz_variance": 0.001804723753593862, "pos_vert_variance": 0.0024240470957010984}}, "errors": []}
{"timestamp": "2026-01-15T14:05:50.496404Z", "telemetry": {"lat": 28.7530059, "lon": 77.1179622, "satellites": 0, "altitude_gps_m": 0.28999999165534973, "groundspeed_mps": 0.00318617164157331}, "flight": {"mode": "STABILIZE", "armed": false}, "ekf": {"attitude": {"roll": 0.02259688451886177, "pitch": 0.0016135857440531254, "yaw": -0.5142350196838379}, "local_position": {"x": null, "y": null, "z": null}, "status": {"flags": 135, "velocity_variance": 0.0, "pos_horiz_variance": 0.0013311695074662566, "pos_vert_variance": 0.014693881385028362}}, "errors": []}
{"timestamp": "2026-01-15T14:05:51.496199Z", "telemetry": {"lat": 28.7530059, "lon": 77.1179622, "satellites": 0, "altitude_gps_m": 0.28999999165534973, "groundspeed_mps": 0.0028501448687165976}, "flight": {"mode": "STABILIZE", "armed": false}, "ekf": {"attitude": {"roll": 0.022694405168294907, "pitch": 0.0015585082583129406, "yaw": -0.514116644859314}, "local_position": {"x": null, "y": null, "z": null}, "status": {"flags": 135, "velocity_variance": 0.0, "pos_horiz_variance": 0.0008468450978398323, "pos_vert_variance": 0.054248128086328506}}, "errors": []}
{"timestamp": "2026-01-15T14:05:52.500473Z", "telemetry": {"lat": 28.7530059, "lon": 77.1179622, "satellites": 0, "altitude_gps_m": 0.28999999165534973, "groundspeed_mps": 0.00048549604252912104}, "flight": {"mode": "STABILIZE", "armed": false}, "ekf": {"attitude": {"roll": 0.0227824579924345, "pitch": 0.0017700023017823696, "yaw": -0.5141955614089966}, "local_position": {"x": null, "y": null, "z": null}, "status": {"flags": 135, "velocity_variance": 0.0, "pos_horiz_variance": 0.0002994624665006995, "pos_vert_variance": 0.02842089720070362}}, "errors": []}
{"timestamp": "2026-01-15T14:05:53.500480Z", "telemetry": {"lat": 28.7530059, "lon": 77.1179622, "satellites": 0, "altitude_gps_m": 0.28999999165534973, "groundspeed_mps": 0.0028941973578184843}, "flight": {"mode": "STABILIZE", "armed": false}, "ekf": {"attitude": {"roll": 0.02271227352321148, "pitch": 0.0017047733999788761, "yaw": -0.5139616131782532}, "local_position": {"x": null, "y": null, "z": null}, "status": {"flags": 135, "velocity_variance": 0.0, "pos_horiz_variance": 0.00011189260112587363, "pos_vert_variance": 0.04632110893726349}}, "errors": []}
{"timestamp": "2026-01-15T14:05:54.500276Z", "telemetry": {"lat": 28.7530059, "lon": 77.1179622, "satellites": 0, "altitude_gps_m": 0.28999999165534973, "groundspeed_mps": 0.006300392560660839}, "flight": {"mode": "STABILIZE", "armed": false}, "ekf": {"attitude": {"roll": 0.02258673496544361, "pitch": 0.0015959602314978838, "yaw": -0.5139507055282593}, "local_position": {"x": null, "y": null, "z": null}, "status": {"flags": 135, "velocity_variance": 0.0, "pos_horiz_variance": 0.000539701955858618, "pos_vert_variance": 0.017105041071772575}}, "errors": []}
{"timestamp": "2026-01-15T14:05:55.509102Z", "telemetry": {"lat": 28.7530059, "lon": 77.1179622, "satellites": 0, "altitude_gps_m": 0.28999999165534973, "groundspeed_mps": 0.004048528615385294}, "flight": {"mode": "STABILIZE", "armed": false}, "ekf": {"attitude": {"roll": 0.022512564435601234, "pitch": 0.0014985378365963697, "yaw": -0.5141878724098206}, "local_position": {"x": null, "y": null, "z": null}, "status": {"flags": 135, "velocity_variance": 0.0, "pos_horiz_variance": 0.0007578355143778026, "pos_vert_variance": 0.03286905586719513}}, "errors": ["PreArm: Hardware safety switch", "PreArm: Battery 1 low voltage failsafe"]}
{"timestamp": "2026-01-15T14:05:56.474849Z", "telemetry": {"lat": 28.7530059, "lon": 77.1179622, "satellites": 0, "altitude_gps_m": 0.28999999165534973, "groundspeed_mps": 0.004906096961349249}, "flight": {"mode": "STABILIZE", "armed": false}, "ekf": {"attitude": {"roll": 0.02231854386627674, "pitch": 0.0014934428036212921, "yaw": -0.5143358111381531}, "local_position": {"x": null, "y": null, "z": null}, "status": {"flags": 135, "velocity_variance": 0.0, "pos_horiz_variance": 0.0008094797958619893, "pos_vert_variance": 0.03976648673415184}}, "errors": ["PreArm: Hardware safety switch", "PreArm: Battery 1 low voltage failsafe"]}
{"timestamp": "2026-01-15T14:05:57.473459Z", "telemetry": {"lat": 28.7530059, "lon": 77.1179622, "satellites": 0, "altitude_gps_m": 0.28999999165534973, "groundspeed_mps": 0.009579404257237911}, "flight": {"mode": "STABILIZE", "armed": false}, "ekf": {"attitude": {"roll": 0.022141937166452408, "pitch": 0.0016453019343316555, "yaw": -0.5144035816192627}, "local_position": {"x": null, "y": null, "z": null}, "status": {"flags": 135, "velocity_variance": 0.0, "pos_horiz_variance": 0.0012750026071444154, "pos_vert_variance": 0.08166154474020004}}, "errors": ["PreArm: Hardware safety switch", "PreArm: Battery 1 low voltage failsafe"]}
{"timestamp": "2026-01-15T14:05:58.481074Z", "telemetry": {"lat": 28.7530059, "lon": 77.1179622, "satellites": 0, "altitude_gps_m": 0.28999999165534973, "groundspeed_mps": 0.010710533708333969}, "flight": {"mode": "STABILIZE", "armed": false}, "ekf": {"attitude": {"roll": 0.022142760455608368, "pitch": 0.0018333853222429752, "yaw": -0.5144651532173157}, "local_position": {"x": null, "y": null, "z": null}, "status": {"flags": 135, "velocity_variance": 0.0, "pos_horiz_variance": 0.0020455375779420137, "pos_vert_variance": 0.002094973111525178}}, "errors": ["PreArm: Hardware safety switch", "PreArm: Battery 1 low voltage failsafe"]}
{"timestamp": "2026-01-15T14:05:59.504197Z", "telemetry": {"lat": 28.7530059, "lon": 77.1179622, "satellites": 0, "altitude_gps_m": 0.28999999165534973, "groundspeed_mps": 0.01049997378140688}, "flight": {"mode": "STABILIZE", "armed": false}, "ekf": {"attitude": {"roll": 0.022127637639641762, "pitch": 0.0019290605559945107, "yaw": -0.5144456624984741}, "local_position": {"x": null, "y": null, "z": null}, "status": {"flags": 135, "velocity_variance": 0.0, "pos_horiz_variance": 0.002289800439029932, "pos_vert_variance": 0.008702704682946205}}, "errors": ["PreArm: Hardware safety switch", "PreArm: Battery 1 low voltage failsafe"]}
{"timestamp": "2026-01-15T14:06:00.508472Z", "telemetry": {"lat": 28.7530059, "lon": 77.1179622, "satellites": 0, "altitude_gps_m": 0.28999999165534973, "groundspeed_mps": 0.009372090920805931}, "flight": {"mode": "STABILIZE", "armed": false}, "ekf": {"attitude": {"roll": 0.02227996475994587, "pitch": 0.0020235783886164427, "yaw": -0.5143668055534363}, "local_position": {"x": null, "y": null, "z": null}, "status": {"flags": 135, "velocity_variance": 0.0, "pos_horiz_variance": 0.002252824604511261, "pos_vert_variance": 0.08506610244512558}}, "errors": ["PreArm: Hardware safety switch", "PreArm: Battery 1 low voltage failsafe"]}
{"timestamp": "2026-01-15T14:06:01.508862Z", "telemetry": {"lat": 28.7530059, "lon": 77.1179622, "satellites": 0, "altitude_gps_m": 0.28999999165534973, "groundspeed_mps": 0.0059692454524338245}, "flight": {"mode": "STABILIZE", "armed": false}, "ekf": {"attitude": {"roll": 0.022368136793375015, "pitch": 0.0018603862263262272, "yaw": -0.514412522315979}, "local_position": {"x": null, "y": null, "z": null}, "status": {"flags": 135, "velocity_variance": 0.0, "pos_horiz_variance": 0.001784909632988274, "pos_vert_variance": 0.059379369020462036}}, "errors": ["PreArm: Hardware safety switch", "PreArm: Battery 1 low voltage failsafe"]}
{"timestamp": "2026-01-15T14:06:02.509028Z", "telemetry": {"lat": 28.7530059, "lon": 77.1179622, "satellites": 0, "altitude_gps_m": 0.28999999165534973, "groundspeed_mps": 0.0057526822201907635}, "flight": {"mode": "STABILIZE", "armed": false}, "ekf": {"attitude": {"roll": 0.022354936227202415, "pitch": 0.0015826351009309292, "yaw": -0.5144665241241455}, "local_position": {"x": null, "y": null, "z": null}, "status": {"flags": 135, "velocity_variance": 0.0, "pos_horiz_variance": 0.0014679334126412868, "pos_vert_variance": 0.03324956074357033}}, "errors": ["PreArm: Hardware safety switch", "PreArm: Battery 1 low voltage failsafe"]}
{"timestamp": "2026-01-15T14:06:03.508519Z", "telemetry": {"lat": 28.7530059, "lon": 77.1179622, "satellites": 0, "altitude_gps_m": 0.28999999165534973, "groundspeed_mps": 0.004308597184717655}, "flight": {"mode": "STABILIZE", "armed": false}, "ekf": {"attitude": {"roll": 0.022381367161870003, "pitch": 0.0015504744369536638, "yaw": -0.514610230922699}, "local_position": {"x": null, "y": null, "z": null}, "status": {"flags": 135, "velocity_variance": 0.0, "pos_horiz_variance": 0.0011297474848106503, "pos_vert_variance": 0.009894235990941525}}, "errors": ["PreArm: Hardware safety switch", "PreArm: Battery 1 low voltage failsafe"]}
{"timestamp": "2026-01-15T14:06:04.482629Z", "telemetry": {"lat": 28.7530059, "lon": 77.1179622, "satellites": 0, "altitude_gps_m": 0.28999999165534973, "groundspeed_mps": 0.007229812443256378}, "flight": {"mode": "STABILIZE", "armed": false}, "ekf": {"attitude": {"roll": 0.02239144779741764, "pitch": 0.0016283090226352215, "yaw": -0.5146759152412415}, "local_position": {"x": null, "y": null, "z": null}, "status": {"flags": 135, "velocity_variance": 0.0, "pos_horiz_variance": 0.0011261629406362772, "pos_vert_variance": 0.04011184722185135}}, "errors": ["PreArm: Hardware safety switch", "PreArm: Battery 1 low voltage failsafe"]}
