{"timestamp": "2025-12-27T08:04:20.913398Z", "telemetry": {"lat": 28.7528936, "lon": 77.1179546, "satellites": 4, "altitude_gps_m": 205.1599884033203, "groundspeed_mps": 0.19939573109149933}, "flight": {"mode": null, "armed": null}, "ekf": {"attitude": {"roll": -0.14482614398002625, "pitch": -0.48548969626426697, "yaw": -0.42428475618362427}, "local_position": {"x": null, "y": null, "z": null}, "status": {"flags": 135, "velocity_variance": 0.0, "pos_horiz_variance": 0.05601949617266655, "pos_vert_variance": 0.009258819743990898}}, "errors": []}
{"timestamp": "2025-12-27T08:04:21.867517Z", "telemetry": {"lat": 28.7529, "lon": 77.1179452, "satellites": 4, "altitude_gps_m": 205.1199951171875, "groundspeed_mps": 0.10902740061283112}, "flight": {"mode": "STABILIZE", "armed": false}, "ekf": {"attitude": {"roll": 0.012234307825565338, "pitch": -0.5144250392913818, "yaw": -0.5373921990394592}, "local_position": {"x": null, "y": null, "z": null}, "status": {"flags": 135, "velocity_variance": 0.0, "pos_horiz_variance": 0.04971463233232498, "pos_vert_variance": 0.025703055784106255}}, "errors": []}
{"timestamp": "2025-12-27T08:04:22.813003Z", "telemetry": {"lat": 28.7529069, "lon": 77.1179455, "satellites": 4, "altitude_gps_m": 206.47000122070312, "groundspeed_mps": 0.10590297728776932}, "flight": {"mode": "STABILIZE", "armed": false}, "ekf": {"attitude": {"roll": -0.03851717337965965, "pitch": -0.44402793049812317, "yaw": 0.12520833313465118}, "local_position": {"x": null, "y": null, "z": null}, "status": {"flags": 135, "velocity_variance": 0.0, "pos_horiz_variance": 0.029503019526600838, "pos_vert_variance": 0.06301621347665787}}, "errors": []}
{"timestamp": "2025-12-27T08:04:23.813492Z", "telemetry": {"lat": 28.7529261, "lon": 77.1179508, "satellites": 4, "altitude_gps_m": 204.4499969482422, "groundspeed_mps": 0.1984296441078186}, "flight": {"mode": "STABILIZE", "armed": false}, "ekf": {"attitude": {"roll": -0.0561138354241848, "pitch": -0.3307884931564331, "yaw": 0.4801504909992218}, "local_position": {"x": null, "y": null, "z": null}, "status": {"flags": 135, "velocity_variance": 0.0, "pos_horiz_variance": 0.022948728874325752, "pos_vert_variance": 0.02378462441265583}}, "errors": []}
{"timestamp": "2025-12-27T08:04:24.813352Z", "telemetry": {"lat": 28.7529408, "lon": 77.1179626, "satellites": 4, "altitude_gps_m": 202.76998901367188, "groundspeed_mps": 0.13114896416664124}, "flight": {"mode": "STABILIZE", "armed": false}, "ekf": {"attitude": {"roll": -0.09671251475811005, "pitch": -0.17477235198020935, "yaw": 0.7946909070014954}, "local_position": {"x": null, "y": null, "z": null}, "status": {"flags": 135, "velocity_variance": 0.0, "pos_horiz_variance": 0.021590014919638634, "pos_vert_variance": 0.03593162074685097}}, "errors": ["PreArm: Hardware safety switch"]}
{"timestamp": "2025-12-27T08:04:25.813577Z", "telemetry": {"lat": 28.7529535, "lon": 77.1179589, "satellites": 4, "altitude_gps_m": 202.83999633789062, "groundspeed_mps": 0.09028295427560806}, "flight": {"mode": "STABILIZE", "armed": false}, "ekf": {"attitude": {"roll": 0.002821262925863266, "pitch": -0.24920019507408142, "yaw": 0.5364460945129395}, "local_position": {"x": null, "y": null, "z": null}, "status": {"flags": 135, "velocity_variance": 0.0, "pos_horiz_variance": 0.00689294096082449, "pos_vert_variance": 0.0007734555983915925}}, "errors": ["PreArm: Hardware safety switch"]}
{"timestamp": "2025-12-27T08:04:26.813559Z", "telemetry": {"lat": 28.7529623, "lon": 77.1179571, "satellites": 4, "altitude_gps_m": 203.6599884033203, "groundspeed_mps": 0.20783266425132751}, "flight": {"mode": "STABILIZE", "armed": false}, "ekf": {"attitude": {"roll": 0.11513888835906982, "pitch": -0.06781543046236038, "yaw": 0.3266764283180237}, "local_position": {"x": null, "y": null, "z": null}, "status": {"flags": 135, "velocity_variance": 0.0, "pos_horiz_variance": 0.007492837496101856, "pos_vert_variance": 0.0061189038679003716}}, "errors": ["PreArm: Hardware safety switch"]}
{"timestamp": "2025-12-27T08:04:27.817157Z", "telemetry": {"lat": 28.7529779, "lon": 77.117958, "satellites": 4, "altitude_gps_m": 201.94000244140625, "groundspeed_mps": 0.2881510853767395}, "flight": {"mode": "STABILIZE", "armed": false}, "ekf": {"attitude": {"roll": -0.11012764275074005, "pitch": -0.22682681679725647, "yaw": 0.8354039192199707}, "local_position": {"x": null, "y": null, "z": null}, "status": {"flags": 135, "velocity_variance": 0.0, "pos_horiz_variance": 0.008621791377663612, "pos_vert_variance": 0.0016699139960110188}}, "errors": ["PreArm: Hardware safety switch"]}
{"timestamp": "2025-12-27T08:04:28.813553Z", "telemetry": {"lat": 28.7529922, "lon": 77.117957, "satellites": 4, "altitude_gps_m": 201.3000030517578, "groundspeed_mps": 0.11043624579906464}, "flight": {"mode": "STABILIZE", "armed": false}, "ekf": {"attitude": {"roll": -0.03306339308619499, "pitch": -0.2304694950580597, "yaw": 0.8018383979797363}, "local_position": {"x": null, "y": null, "z": null}, "status": {"flags": 135, "velocity_variance": 0.0, "pos_horiz_variance": 0.014859810471534729, "pos_vert_variance": 0.010665226727724075}}, "errors": ["PreArm: Hardware safety switch"]}
{"timestamp": "2025-12-27T08:04:29.813934Z", "telemetry": {"lat": 28.7530022, "lon": 77.1179522, "satellites": 4, "altitude_gps_m": 202.62998962402344, "groundspeed_mps": 0.36351579427719116}, "flight": {"mode": "STABILIZE", "armed": false}, "ekf": {"attitude": {"roll": -0.008816119283437729, "pitch": -0.3337542414665222, "yaw": 0.9391700625419617}, "local_position": {"x": null, "y": null, "z": null}, "status": {"flags": 135, "velocity_variance": 0.0, "pos_horiz_variance": 0.03897256776690483, "pos_vert_variance": 0.01650669239461422}}, "errors": ["PreArm: Hardware safety switch"]}
{"timestamp": "2025-12-27T08:04:30.813549Z", "telemetry": {"lat": 28.7530145, "lon": 77.1179497, "satellites": 4, "altitude_gps_m": 202.489990234375, "groundspeed_mps": 0.25818678736686707}, "flight": {"mode": "STABILIZE", "armed": false}, "ekf": {"attitude": {"roll": -0.06810373067855835, "pitch": -0.3736664354801178, "yaw": 1.0526217222213745}, "local_position": {"x": null, "y": null, "z": null}, "status": {"flags": 135, "velocity_variance": 0.0, "pos_horiz_variance": 0.06505265831947327, "pos_vert_variance": 0.0182083360850811}}, "errors": ["PreArm: Hardware safety switch"]}
{"timestamp": "2025-12-27T08:04:31.813413Z", "telemetry": {"lat": 28.7530301, "lon": 77.1179518, "satellites": 4, "altitude_gps_m": 200.27999877929688, "groundspeed_mps": 0.44041332602500916}, "flight": {"mode": "STABILIZE", "armed": false}, "ekf": {"attitude": {"roll": -0.06215057149529457, "pitch": -0.29482755064964294, "yaw": 1.0597857236862183}, "local_position": {"x": null, "y": null, "z": null}, "status": {"flags": 135, "velocity_variance": 0.0, "pos_horiz_variance": 0.08545105159282684, "pos_vert_variance": 0.013742266222834587}}, "errors": ["PreArm: Hardware safety switch"]}
{"timestamp": "2025-12-27T08:04:32.812586Z", "telemetry": {"lat": 28.7530413, "lon": 77.11795, "satellites": 4, "altitude_gps_m": 200.39999389648438, "groundspeed_mps": 0.5956408381462097}, "flight": {"mode": "STABILIZE", "armed": false}, "ekf": {"attitude": {"roll": -0.08334808051586151, "pitch": -0.16927844285964966, "yaw": 0.9015752673149109}, "local_position": {"x": null, "y": null, "z": null}, "status": {"flags": 135, "velocity_variance": 0.0, "pos_horiz_variance": 0.10586231201887131, "pos_vert_variance": 0.12163395434617996}}, "errors": ["PreArm: Hardware safety switch"]}
{"timestamp": "2025-12-27T08:04:33.813424Z", "telemetry": {"lat": 28.7530511, "lon": 77.1179498, "satellites": 4, "altitude_gps_m": 200.30999755859375, "groundspeed_mps": 0.41569599509239197}, "flight": {"mode": "STABILIZE", "armed": false}, "ekf": {"attitude": {"roll": -0.09948468208312988, "pitch": -0.1228649690747261, "yaw": 0.8329924941062927}, "local_position": {"x": null, "y": null, "z": null}, "status": {"flags": 135, "velocity_variance": 0.0, "pos_horiz_variance": 0.10646256804466248, "pos_vert_variance": 0.001040317234583199}}, "errors": ["PreArm: Hardware safety switch"]}
{"timestamp": "2025-12-27T08:04:34.813551Z", "telemetry": {"lat": 28.7530606, "lon": 77.1179506, "satellites": 4, "altitude_gps_m": 199.83999633789062, "groundspeed_mps": 0.05473834648728371}, "flight": {"mode": "STABILIZE", "armed": false}, "ekf": {"attitude": {"roll": -0.035746943205595016, "pitch": -0.10894646495580673, "yaw": 0.6682831645011902}, "local_position": {"x": null, "y": null, "z": null}, "status": {"flags": 135, "velocity_variance": 0.0, "pos_horiz_variance": 0.09033969789743423, "pos_vert_variance": 0.03304298222064972}}, "errors": ["PreArm: Hardware safety switch"]}
{"timestamp": "2025-12-27T08:04:35.813420Z", "telemetry": {"lat": 28.7530668, "lon": 77.1179495, "satellites": 4, "altitude_gps_m": 199.94000244140625, "groundspeed_mps": 0.15060827136039734}, "flight": {"mode": "STABILIZE", "armed": false}, "ekf": {"attitude": {"roll": -0.06366375088691711, "pitch": -0.09504146128892899, "yaw": 0.6543276309967041}, "local_position": {"x": null, "y": null, "z": null}, "status": {"flags": 135, "velocity_variance": 0.0, "pos_horiz_variance": 0.06509855389595032, "pos_vert_variance": 0.001445650588721037}}, "errors": ["PreArm: Hardware safety switch"]}
{"timestamp": "2025-12-27T08:04:36.813467Z", "telemetry": {"lat": 28.7530785, "lon": 77.1179521, "satellites": 4, "altitude_gps_m": 198.86000061035156, "groundspeed_mps": 0.44395533204078674}, "flight": {"mode": "STABILIZE", "armed": false}, "ekf": {"attitude": {"roll": -0.10186767578125, "pitch": -0.19815866649150848, "yaw": 0.6166336536407471}, "local_position": {"x": null, "y": null, "z": null}, "status": {"flags": 135, "velocity_variance": 0.0, "pos_horiz_variance": 0.034670744091272354, "pos_vert_variance": 0.025114398449659348}}, "errors": ["PreArm: Hardware safety switch"]}
{"timestamp": "2025-12-27T08:04:37.813279Z", "telemetry": {"lat": 28.7530891, "lon": 77.1179516, "satellites": 4, "altitude_gps_m": 198.3000030517578, "groundspeed_mps": 0.5561712384223938}, "flight": {"mode": "STABILIZE", "armed": false}, "ekf": {"attitude": {"roll": -0.15940679609775543, "pitch": -0.24963626265525818, "yaw": 0.5064825415611267}, "local_position": {"x": null, "y": null, "z": null}, "status": {"flags": 135, "velocity_variance": 0.0, "pos_horiz_variance": 0.09034264087677002, "pos_vert_variance": 0.017741600051522255}}, "errors": ["PreArm: Hardware safety switch"]}
{"timestamp": "2025-12-27T08:04:38.813143Z", "telemetry": {"lat": 28.7530977, "lon": 77.1179465, "satellites": 4, "altitude_gps_m": 199.09999084472656, "groundspeed_mps": 0.5721055269241333}, "flight": {"mode": "STABILIZE", "armed": false}, "ekf": {"attitude": {"roll": -0.15843264758586884, "pitch": -0.28808796405792236, "yaw": 0.42399895191192627}, "local_position": {"x": null, "y": null, "z": null}, "status": {"flags": 135, "velocity_variance": 0.0, "pos_horiz_variance": 0.14551135897636414, "pos_vert_variance": 0.02669966034591198}}, "errors": ["PreArm: Hardware safety switch"]}
{"timestamp": "2025-12-27T08:04:39.816334Z", "telemetry": {"lat": 28.7531073, "lon": 77.1179402, "satellites": 4, "altitude_gps_m": 198.95999145507812, "groundspeed_mps": 0.71476149559021}, "flight": {"mode": "STABILIZE", "armed": false}, "ekf": {"attitude": {"roll": -0.10195930302143097, "pitch": -0.2533218264579773, "yaw": 0.3628939688205719}, "local_position": {"x": null, "y": null, "z": null}, "status": {"flags": 135, "velocity_variance": 0.0, "pos_horiz_variance": 0.1593676209449768, "pos_vert_variance": 0.0183163620531559}}, "errors": ["PreArm: Hardware safety switch"]}
{"timestamp": "2025-12-27T08:04:40.813541Z", "telemetry": {"lat": 28.7531167, "lon": 77.1179341, "satellites": 4, "altitude_gps_m": 198.39999389648438, "groundspeed_mps": 0.7897213101387024}, "flight": {"mode": "STABILIZE", "armed": false}, "ekf": {"attitude": {"roll": -0.1213386058807373, "pitch": -0.22878989577293396, "yaw": 0.12975160777568817}, "local_position": {"x": null, "y": null, "z": null}, "status": {"flags": 135, "velocity_variance": 0.0, "pos_horiz_variance": 0.1610092967748642, "pos_vert_variance": 0.04074346274137497}}, "errors": ["PreArm: Hardware safety switch"]}
{"timestamp": "2025-12-27T08:04:41.813636Z", "telemetry": {"lat": 28.7531221, "lon": 77.1179201, "satellites": 4, "altitude_gps_m": 199.92999267578125, "groundspeed_mps": 0.5806829333305359}, "flight": {"mode": "STABILIZE", "armed": false}, "ekf": {"attitude": {"roll": -0.13575400412082672, "pitch": -0.2775089144706726, "yaw": 0.06536974757909775}, "local_position": {"x": null, "y": null, "z": null}, "status": {"flags": 135, "velocity_variance": 0.0, "pos_horiz_variance": 0.15494601428508759, "pos_vert_variance": 0.013754011131823063}}, "errors": ["PreArm: Hardware safety switch"]}
{"timestamp": "2025-12-27T08:04:42.812708Z", "telemetry": {"lat": 28.7531286, "lon": 77.1179073, "satellites": 4, "altitude_gps_m": 200.22999572753906, "groundspeed_mps": 0.12860403954982758}, "flight": {"mode": "STABILIZE", "armed": false}, "ekf": {"attitude": {"roll": -0.12735097110271454, "pitch": -0.21789436042308807, "yaw": -0.006800676696002483}, "local_position": {"x": null, "y": null, "z": null}, "status": {"flags": 135, "velocity_variance": 0.0, "pos_horiz_variance": 0.10828445106744766, "pos_vert_variance": 0.0268931295722723}}, "errors": ["PreArm: Hardware safety switch"]}
{"timestamp": "2025-12-27T08:04:43.812746Z", "telemetry": {"lat": 28.7531346, "lon": 77.1178964, "satellites": 4, "altitude_gps_m": 200.47000122070312, "groundspeed_mps": 0.4061528742313385}, "flight": {"mode": "STABILIZE", "armed": false}, "ekf": {"attitude": {"roll": -0.0747917890548706, "pitch": -0.2859886586666107, "yaw": -0.06117920204997063}, "local_position": {"x": null, "y": null, "z": null}, "status": {"flags": 135, "velocity_variance": 0.0, "pos_horiz_variance": 0.03646531328558922, "pos_vert_variance": 0.0727289691567421}}, "errors": ["PreArm: Hardware safety switch"]}
{"timestamp": "2025-12-27T08:04:44.812765Z", "telemetry": {"lat": 28.7531403, "lon": 77.11789, "satellites": 4, "altitude_gps_m": 200.1199951171875, "groundspeed_mps": 0.8536446690559387}, "flight": {"mode": "STABILIZE", "armed": false}, "ekf": {"attitude": {"roll": -0.12781308591365814, "pitch": -0.27932873368263245, "yaw": -0.16607250273227692}, "local_position": {"x": null, "y": null, "z": null}, "status": {"flags": 135, "velocity_variance": 0.0, "pos_horiz_variance": 0.06834550946950912, "pos_vert_variance": 0.01986093446612358}}, "errors": ["PreArm: Hardware safety switch"]}
{"timestamp": "2025-12-27T08:04:45.812971Z", "telemetry": {"lat": 28.7531426, "lon": 77.1178876, "satellites": 4, "altitude_gps_m": 199.89999389648438, "groundspeed_mps": 1.0351837873458862}, "flight": {"mode": "STABILIZE", "armed": false}, "ekf": {"attitude": {"roll": -0.16387583315372467, "pitch": -0.3308908939361572, "yaw": -0.3006044626235962}, "local_position": {"x": null, "y": null, "z": null}, "status": {"flags": 135, "velocity_variance": 0.0, "pos_horiz_variance": 0.16722571849822998, "pos_vert_variance": 0.0037139947526156902}}, "errors": ["PreArm: Hardware safety switch"]}
{"timestamp": "2025-12-27T08:04:46.812733Z", "telemetry": {"lat": 28.753145, "lon": 77.1178862, "satellites": 4, "altitude_gps_m": 198.9199981689453, "groundspeed_mps": 0.92198646068573}, "flight": {"mode": "STABILIZE", "armed": false}, "ekf": {"attitude": {"roll": -0.2503938674926758, "pitch": -0.23178035020828247, "yaw": -0.29677942395210266}, "local_position": {"x": null, "y": null, "z": null}, "status": {"flags": 135, "velocity_variance": 0.0, "pos_horiz_variance": 0.20436637103557587, "pos_vert_variance": 0.005148818250745535}}, "errors": ["PreArm: Hardware safety switch"]}
{"timestamp": "2025-12-27T08:04:47.813600Z", "telemetry": {"lat": 28.7531468, "lon": 77.1178849, "satellites": 4, "altitude_gps_m": 198.58999633789062, "groundspeed_mps": 0.6852940320968628}, "flight": {"mode": "STABILIZE", "armed": false}, "ekf": {"attitude": {"roll": -0.1789013147354126, "pitch": -0.3140486180782318, "yaw": -0.5623230338096619}, "local_position": {"x": null, "y": null, "z": null}, "status": {"flags": 135, "velocity_variance": 0.0, "pos_horiz_variance": 0.21047139167785645, "pos_vert_variance": 0.016256161034107208}}, "errors": ["PreArm: Hardware safety switch"]}
{"timestamp": "2025-12-27T08:04:48.813591Z", "telemetry": {"lat": 28.7531495, "lon": 77.117892, "satellites": 4, "altitude_gps_m": 198.67999267578125, "groundspeed_mps": 0.9390367865562439}, "flight": {"mode": "STABILIZE", "armed": false}, "ekf": {"attitude": {"roll": -0.06147344782948494, "pitch": -0.19018769264221191, "yaw": -0.5479848384857178}, "local_position": {"x": null, "y": null, "z": null}, "status": {"flags": 135, "velocity_variance": 0.0, "pos_horiz_variance": 0.15410076081752777, "pos_vert_variance": 0.02605719305574894}}, "errors": ["PreArm: Hardware safety switch"]}
{"timestamp": "2025-12-27T08:04:49.818396Z", "telemetry": {"lat": 28.7531505, "lon": 77.1178827, "satellites": 4, "altitude_gps_m": 198.59999084472656, "groundspeed_mps": 1.063236117362976}, "flight": {"mode": "STABILIZE", "armed": false}, "ekf": {"attitude": {"roll": -0.14822089672088623, "pitch": -0.22416505217552185, "yaw": -0.6753592491149902}, "local_position": {"x": null, "y": null, "z": null}, "status": {"flags": 135, "velocity_variance": 0.0, "pos_horiz_variance": 0.11734437942504883, "pos_vert_variance": 0.024553081020712852}}, "errors": ["PreArm: Hardware safety switch"]}
{"timestamp": "2025-12-27T08:04:50.818888Z", "telemetry": {"lat": 28.7531473, "lon": 77.1178831, "satellites": 4, "altitude_gps_m": 198.6699981689453, "groundspeed_mps": 0.7052371501922607}, "flight": {"mode": "STABILIZE", "armed": false}, "ekf": {"attitude": {"roll": -0.34310677647590637, "pitch": -0.11672501266002655, "yaw": -0.913320779800415}, "local_position": {"x": null, "y": null, "z": null}, "status": {"flags": 135, "velocity_variance": 0.0, "pos_horiz_variance": 0.20656543970108032, "pos_vert_variance": 0.04359685629606247}}, "errors": ["PreArm: Hardware safety switch"]}
{"timestamp": "2025-12-27T08:04:51.814698Z", "telemetry": {"lat": 28.7531449, "lon": 77.1178907, "satellites": 4, "altitude_gps_m": 199.1599884033203, "groundspeed_mps": 0.8361824154853821}, "flight": {"mode": "STABILIZE", "armed": false}, "ekf": {"attitude": {"roll": -0.2326134741306305, "pitch": -0.1953674554824829, "yaw": -1.1466883420944214}, "local_position": {"x": null, "y": null, "z": null}, "status": {"flags": 135, "velocity_variance": 0.0, "pos_horiz_variance": 0.15775983035564423, "pos_vert_variance": 0.01934577152132988}}, "errors": ["PreArm: Hardware safety switch"]}
{"timestamp": "2025-12-27T08:04:52.813368Z", "telemetry": {"lat": 28.7531441, "lon": 77.1178832, "satellites": 4, "altitude_gps_m": 199.76998901367188, "groundspeed_mps": 0.4121260941028595}, "flight": {"mode": "STABILIZE", "armed": false}, "ekf": {"attitude": {"roll": -0.2234993577003479, "pitch": -0.2536078989505768, "yaw": -0.6641169786453247}, "local_position": {"x": null, "y": null, "z": null}, "status": {"flags": 135, "velocity_variance": 0.0, "pos_horiz_variance": 0.1682683825492859, "pos_vert_variance": 0.025733349844813347}}, "errors": ["PreArm: Hardware safety switch"]}
{"timestamp": "2025-12-27T08:04:53.812675Z", "telemetry": {"lat": 28.7531446, "lon": 77.1178833, "satellites": 4, "altitude_gps_m": 200.51998901367188, "groundspeed_mps": 0.767683207988739}, "flight": {"mode": "STABILIZE", "armed": false}, "ekf": {"attitude": {"roll": -0.22230753302574158, "pitch": -0.327908992767334, "yaw": 0.20282045006752014}, "local_position": {"x": null, "y": null, "z": null}, "status": {"flags": 135, "velocity_variance": 0.0, "pos_horiz_variance": 0.09654903411865234, "pos_vert_variance": 0.007794693112373352}}, "errors": ["PreArm: Hardware safety switch"]}
{"timestamp": "2025-12-27T08:04:54.813339Z", "telemetry": {"lat": 28.7531471, "lon": 77.1178851, "satellites": 4, "altitude_gps_m": 201.6699981689453, "groundspeed_mps": 0.16641275584697723}, "flight": {"mode": "STABILIZE", "armed": false}, "ekf": {"attitude": {"roll": -0.13057464361190796, "pitch": -0.10293715447187424, "yaw": 0.5929574966430664}, "local_position": {"x": null, "y": null, "z": null}, "status": {"flags": 135, "velocity_variance": 0.0, "pos_horiz_variance": 0.061084505170583725, "pos_vert_variance": 0.07952665537595749}}, "errors": ["PreArm: Hardware safety switch", "PreArm: Hardware safety switch"]}
{"timestamp": "2025-12-27T08:04:55.813274Z", "telemetry": {"lat": 28.7531523, "lon": 77.1178811, "satellites": 4, "altitude_gps_m": 201.26998901367188, "groundspeed_mps": 0.6630502939224243}, "flight": {"mode": "STABILIZE", "armed": false}, "ekf": {"attitude": {"roll": -0.08555535972118378, "pitch": -0.13957305252552032, "yaw": 0.5345857739448547}, "local_position": {"x": null, "y": null, "z": null}, "status": {"flags": 135, "velocity_variance": 0.0, "pos_horiz_variance": 0.034346435219049454, "pos_vert_variance": 0.015154904685914516}}, "errors": ["PreArm: Hardware safety switch", "PreArm: Hardware safety switch"]}
{"timestamp": "2025-12-27T08:04:56.812883Z", "telemetry": {"lat": 28.7531553, "lon": 77.1178753, "satellites": 4, "altitude_gps_m": 201.05999755859375, "groundspeed_mps": 0.5648903250694275}, "flight": {"mode": "STABILIZE", "armed": false}, "ekf": {"attitude": {"roll": -0.030225258320569992, "pitch": -0.11435164511203766, "yaw": 0.4671655595302582}, "local_position": {"x": null, "y": null, "z": null}, "status": {"flags": 135, "velocity_variance": 0.0, "pos_horiz_variance": 0.1027829647064209, "pos_vert_variance": 0.10600238293409348}}, "errors": ["PreArm: Hardware safety switch", "PreArm: Hardware safety switch"]}
{"timestamp": "2025-12-27T08:04:57.812629Z", "telemetry": {"lat": 28.7531535, "lon": 77.1178699, "satellites": 4, "altitude_gps_m": 202.76998901367188, "groundspeed_mps": 0.4088032841682434}, "flight": {"mode": "STABILIZE", "armed": false}, "ekf": {"attitude": {"roll": 0.013723103329539299, "pitch": 0.031558431684970856, "yaw": 0.48966941237449646}, "local_position": {"x": null, "y": null, "z": null}, "status": {"flags": 135, "velocity_variance": 0.0, "pos_horiz_variance": 0.12781615555286407, "pos_vert_variance": 0.001856655115261674}}, "errors": ["PreArm: Hardware safety switch", "PreArm: Hardware safety switch"]}
{"timestamp": "2025-12-27T08:04:58.812922Z", "telemetry": {"lat": 28.7531563, "lon": 77.1178634, "satellites": 4, "altitude_gps_m": 202.9199981689453, "groundspeed_mps": 0.26063859462738037}, "flight": {"mode": "STABILIZE", "armed": false}, "ekf": {"attitude": {"roll": 0.01645897701382637, "pitch": 0.031230008229613304, "yaw": 0.49096593260765076}, "local_position": {"x": null, "y": null, "z": null}, "status": {"flags": 135, "velocity_variance": 0.0, "pos_horiz_variance": 0.110783152282238, "pos_vert_variance": 0.027689091861248016}}, "errors": ["PreArm: Hardware safety switch", "PreArm: Hardware safety switch"]}
{"timestamp": "2025-12-27T08:04:59.813115Z", "telemetry": {"lat": 28.7531627, "lon": 77.1178587, "satellites": 4, "altitude_gps_m": 202.75, "groundspeed_mps": 0.10683116316795349}, "flight": {"mode": "STABILIZE", "armed": false}, "ekf": {"attitude": {"roll": 0.016126170754432678, "pitch": 0.028339333832263947, "yaw": 0.49220824241638184}, "local_position": {"x": null, "y": null, "z": null}, "status": {"flags": 135, "velocity_variance": 0.0, "pos_horiz_variance": 0.07353781163692474, "pos_vert_variance": 0.07862628251314163}}, "errors": ["PreArm: Hardware safety switch", "PreArm: Hardware safety switch"]}
{"timestamp": "2025-12-27T08:05:00.812896Z", "telemetry": {"lat": 28.7531564, "lon": 77.1178577, "satellites": 4, "altitude_gps_m": 205.6699981689453, "groundspeed_mps": 0.12753072381019592}, "flight": {"mode": "STABILIZE", "armed": false}, "ekf": {"attitude": {"roll": 0.016477016732096672, "pitch": 0.026018736883997917, "yaw": 0.493368923664093}, "local_position": {"x": null, "y": null, "z": null}, "status": {"flags": 135, "velocity_variance": 0.0, "pos_horiz_variance": 0.035114873200654984, "pos_vert_variance": 0.010183935053646564}}, "errors": ["PreArm: Hardware safety switch", "PreArm: Hardware safety switch"]}
{"timestamp": "2025-12-27T08:05:01.816884Z", "telemetry": {"lat": 28.7531527, "lon": 77.1178429, "satellites": 4, "altitude_gps_m": 209.20999145507812, "groundspeed_mps": 0.21003010869026184}, "flight": {"mode": "STABILIZE", "armed": false}, "ekf": {"attitude": {"roll": 0.01714649610221386, "pitch": 0.024893399327993393, "yaw": 0.4945410490036011}, "local_position": {"x": null, "y": null, "z": null}, "status": {"flags": 135, "velocity_variance": 0.0, "pos_horiz_variance": 0.02305850386619568, "pos_vert_variance": 0.02446875348687172}}, "errors": ["PreArm: Hardware safety switch", "PreArm: Hardware safety switch"]}
{"timestamp": "2025-12-27T08:05:02.816877Z", "telemetry": {"lat": 28.7531469, "lon": 77.1178292, "satellites": 4, "altitude_gps_m": 214.72999572753906, "groundspeed_mps": 0.25452160835266113}, "flight": {"mode": "STABILIZE", "armed": false}, "ekf": {"attitude": {"roll": 0.017916405573487282, "pitch": 0.024685179814696312, "yaw": 0.49588969349861145}, "local_position": {"x": null, "y": null, "z": null}, "status": {"flags": 135, "velocity_variance": 0.0, "pos_horiz_variance": 0.0420047864317894, "pos_vert_variance": 0.016077246516942978}}, "errors": ["PreArm: Hardware safety switch", "PreArm: Hardware safety switch"]}
{"timestamp": "2025-12-27T08:05:03.813097Z", "telemetry": {"lat": 28.7531363, "lon": 77.1178076, "satellites": 4, "altitude_gps_m": 220.83999633789062, "groundspeed_mps": 0.26417940855026245}, "flight": {"mode": "STABILIZE", "armed": false}, "ekf": {"attitude": {"roll": 0.01894587278366089, "pitch": 0.025263294577598572, "yaw": 0.49712738394737244}, "local_position": {"x": null, "y": null, "z": null}, "status": {"flags": 135, "velocity_variance": 0.0, "pos_horiz_variance": 0.05657906457781792, "pos_vert_variance": 0.007555605378001928}}, "errors": ["PreArm: Hardware safety switch", "PreArm: Hardware safety switch"]}
{"timestamp": "2025-12-27T08:05:04.812589Z", "telemetry": {"lat": 28.7531335, "lon": 77.1177891, "satellites": 4, "altitude_gps_m": 225.39999389648438, "groundspeed_mps": 0.2479407787322998}, "flight": {"mode": "STABILIZE", "armed": false}, "ekf": {"attitude": {"roll": 0.01951988786458969, "pitch": 0.02600398100912571, "yaw": 0.4978350102901459}, "local_position": {"x": null, "y": null, "z": null}, "status": {"flags": 135, "velocity_variance": 0.0, "pos_horiz_variance": 0.062218502163887024, "pos_vert_variance": 0.005145732779055834}}, "errors": ["PreArm: Hardware safety switch", "PreArm: Hardware safety switch"]}
{"timestamp": "2025-12-27T08:05:05.812744Z", "telemetry": {"lat": 28.7531302, "lon": 77.1177776, "satellites": 4, "altitude_gps_m": 230.5, "groundspeed_mps": 0.21632376313209534}, "flight": {"mode": "STABILIZE", "armed": false}, "ekf": {"attitude": {"roll": 0.020263023674488068, "pitch": 0.0271819606423378, "yaw": 0.4985373616218567}, "local_position": {"x": null, "y": null, "z": null}, "status": {"flags": 135, "velocity_variance": 0.0, "pos_horiz_variance": 0.06167156249284744, "pos_vert_variance": 0.04002735763788223}}, "errors": ["PreArm: Hardware safety switch", "PreArm: Hardware safety switch"]}
{"timestamp": "2025-12-27T08:05:06.813205Z", "telemetry": {"lat": 28.7531212, "lon": 77.1177769, "satellites": 4, "altitude_gps_m": 233.739990234375, "groundspeed_mps": 0.17768926918506622}, "flight": {"mode": "STABILIZE", "armed": false}, "ekf": {"attitude": {"roll": 0.020917756482958794, "pitch": 0.028551658615469933, "yaw": 0.49927154183387756}, "local_position": {"x": null, "y": null, "z": null}, "status": {"flags": 135, "velocity_variance": 0.0, "pos_horiz_variance": 0.05649716407060623, "pos_vert_variance": 0.04272614046931267}}, "errors": ["PreArm: Hardware safety switch", "PreArm: Hardware safety switch"]}
{"timestamp": "2025-12-27T08:05:07.813151Z", "telemetry": {"lat": 28.7531255, "lon": 77.1177936, "satellites": 4, "altitude_gps_m": 229.2899932861328, "groundspeed_mps": 0.13958826661109924}, "flight": {"mode": "STABILIZE", "armed": false}, "ekf": {"attitude": {"roll": 0.021175900474190712, "pitch": 0.029282718896865845, "yaw": 0.49956992268562317}, "local_position": {"x": null, "y": null, "z": null}, "status": {"flags": 135, "velocity_variance": 0.0, "pos_horiz_variance": 0.04874509200453758, "pos_vert_variance": 0.002033552620559931}}, "errors": ["PreArm: Hardware safety switch", "PreArm: Hardware safety switch"]}
{"timestamp": "2025-12-27T08:05:08.812742Z", "telemetry": {"lat": 28.753116, "lon": 77.1177764, "satellites": 4, "altitude_gps_m": 235.76998901367188, "groundspeed_mps": 0.11126015335321426}, "flight": {"mode": "STABILIZE", "armed": false}, "ekf": {"attitude": {"roll": 0.021391229704022408, "pitch": 0.030058296397328377, "yaw": 0.499916672706604}, "local_position": {"x": null, "y": null, "z": null}, "status": {"flags": 135, "velocity_variance": 0.0, "pos_horiz_variance": 0.040581732988357544, "pos_vert_variance": 0.009822200983762741}}, "errors": ["PreArm: Hardware safety switch", "PreArm: Hardware safety switch"]}
{"timestamp": "2025-12-27T08:05:09.813054Z", "telemetry": {"lat": 28.7531068, "lon": 77.1177575, "satellites": 4, "altitude_gps_m": 241.76998901367188, "groundspeed_mps": 0.08908425271511078}, "flight": {"mode": "STABILIZE", "armed": false}, "ekf": {"attitude": {"roll": 0.021419676020741463, "pitch": 0.0307026207447052, "yaw": 0.5003122091293335}, "local_position": {"x": null, "y": null, "z": null}, "status": {"flags": 135, "velocity_variance": 0.0, "pos_horiz_variance": 0.03319660946726799, "pos_vert_variance": 0.008719108067452908}}, "errors": ["PreArm: Hardware safety switch", "PreArm: Hardware safety switch"]}
{"timestamp": "2025-12-27T08:05:10.812859Z", "telemetry": {"lat": 28.7530944, "lon": 77.1177406, "satellites": 4, "altitude_gps_m": 248.52999877929688, "groundspeed_mps": 0.07030301541090012}, "flight": {"mode": "STABILIZE", "armed": false}, "ekf": {"attitude": {"roll": 0.021384909749031067, "pitch": 0.031030524522066116, "yaw": 0.5007767081260681}, "local_position": {"x": null, "y": null, "z": null}, "status": {"flags": 135, "velocity_variance": 0.0, "pos_horiz_variance": 0.02728414162993431, "pos_vert_variance": 0.03151711821556091}}, "errors": ["PreArm: Hardware safety switch", "PreArm: Hardware safety switch"]}
{"timestamp": "2025-12-27T08:05:11.813249Z", "telemetry": {"lat": 28.7530851, "lon": 77.1177331, "satellites": 4, "altitude_gps_m": 249.47000122070312, "groundspeed_mps": 0.05977776646614075}, "flight": {"mode": "STABILIZE", "armed": false}, "ekf": {"attitude": {"roll": 0.021333660930395126, "pitch": 0.03130875155329704, "yaw": 0.5012187957763672}, "local_position": {"x": null, "y": null, "z": null}, "status": {"flags": 135, "velocity_variance": 0.0, "pos_horiz_variance": 0.022444024682044983, "pos_vert_variance": 0.05875116586685181}}, "errors": ["PreArm: Hardware safety switch", "PreArm: Hardware safety switch"]}
{"timestamp": "2025-12-27T08:05:12.818391Z", "telemetry": {"lat": 28.7530766, "lon": 77.1177105, "satellites": 4, "altitude_gps_m": 253.62998962402344, "groundspeed_mps": 0.05617652088403702}, "flight": {"mode": "STABILIZE", "armed": false}, "ekf": {"attitude": {"roll": 0.02128007262945175, "pitch": 0.031373556703329086, "yaw": 0.5013576149940491}, "local_position": {"x": null, "y": null, "z": null}, "status": {"flags": 135, "velocity_variance": 0.0, "pos_horiz_variance": 0.018818391487002373, "pos_vert_variance": 0.0023646983318030834}}, "errors": ["PreArm: Hardware safety switch", "PreArm: Hardware safety switch", "ArduCopter V4.6.1 (57591cb8)", "ChibiOS: 88b84600", "fmuv3 00240032 33385119 36353030", "IOMCU: 420 1001 411FC231", "RCOut: PWM:1-14", "IMU0: fast sampling enabled 8.0kHz/1.0kHz", "Frame: QUAD/X"]}
{"timestamp": "2025-12-27T08:05:13.814767Z", "telemetry": {"lat": 28.7530766, "lon": 77.1177105, "satellites": 4, "altitude_gps_m": 261.8500061035156, "groundspeed_mps": 0.04618021845817566}, "flight": {"mode": "STABILIZE", "armed": false}, "ekf": {"attitude": {"roll": 0.021030070260167122, "pitch": 0.03200671076774597, "yaw": 0.502372145652771}, "local_position": {"x": null, "y": null, "z": null}, "status": {"flags": 135, "velocity_variance": 0.0, "pos_horiz_variance": 0.018818391487002373, "pos_vert_variance": 0.0023646983318030834}}, "errors": ["PreArm: Hardware safety switch", "PreArm: Hardware safety switch", "ArduCopter V4.6.1 (57591cb8)", "ChibiOS: 88b84600", "fmuv3 00240032 33385119 36353030", "IOMCU: 420 1001 411FC231", "RCOut: PWM:1-14", "IMU0: fast sampling enabled 8.0kHz/1.0kHz", "Frame: QUAD/X"]}
{"timestamp": "2025-12-27T08:05:14.813237Z", "telemetry": {"lat": 28.7530696, "lon": 77.1176975, "satellites": 4, "altitude_gps_m": 262.0799865722656, "groundspeed_mps": 0.04134396091103554}, "flight": {"mode": "STABILIZE", "armed": false}, "ekf": {"attitude": {"roll": 0.020817924290895462, "pitch": 0.03206148371100426, "yaw": 0.503007173538208}, "local_position": {"x": null, "y": null, "z": null}, "status": {"flags": 135, "velocity_variance": 0.0, "pos_horiz_variance": 0.01651799865067005, "pos_vert_variance": 0.039778586477041245}}, "errors": ["PreArm: Hardware safety switch", "PreArm: Hardware safety switch", "ArduCopter V4.6.1 (57591cb8)", "ChibiOS: 88b84600", "fmuv3 00240032 33385119 36353030", "IOMCU: 420 1001 411FC231", "RCOut: PWM:1-14", "IMU0: fast sampling enabled 8.0kHz/1.0kHz", "Frame: QUAD/X"]}
{"timestamp": "2025-12-27T08:05:15.813297Z", "telemetry": {"lat": 28.7530702, "lon": 77.1177004, "satellites": 4, "altitude_gps_m": 270.3599853515625, "groundspeed_mps": 0.03708086535334587}, "flight": {"mode": "STABILIZE", "armed": false}, "ekf": {"attitude": {"roll": 0.02063702419400215, "pitch": 0.032185185700654984, "yaw": 0.5036931037902832}, "local_position": {"x": null, "y": null, "z": null}, "status": {"flags": 135, "velocity_variance": 0.0, "pos_horiz_variance": 0.014463529922068119, "pos_vert_variance": 0.014438298530876637}}, "errors": ["PreArm: Hardware safety switch", "PreArm: Hardware safety switch", "ArduCopter V4.6.1 (57591cb8)", "ChibiOS: 88b84600", "fmuv3 00240032 33385119 36353030", "IOMCU: 420 1001 411FC231", "RCOut: PWM:1-14", "IMU0: fast sampling enabled 8.0kHz/1.0kHz", "Frame: QUAD/X"]}
{"timestamp": "2025-12-27T08:05:16.813371Z", "telemetry": {"lat": 28.7530702, "lon": 77.1177004, "satellites": 4, "altitude_gps_m": 270.3599853515625, "groundspeed_mps": 0.03708086535334587}, "flight": {"mode": "STABILIZE", "armed": false}, "ekf": {"attitude": {"roll": 0.02063702419400215, "pitch": 0.032185185700654984, "yaw": 0.5036931037902832}, "local_position": {"x": null, "y": null, "z": null}, "status": {"flags": 135, "velocity_variance": 0.0, "pos_horiz_variance": 0.014463529922068119, "pos_vert_variance": 0.014438298530876637}}, "errors": ["PreArm: Hardware safety switch", "PreArm: Hardware safety switch", "ArduCopter V4.6.1 (57591cb8)", "ChibiOS: 88b84600", "fmuv3 00240032 33385119 36353030", "IOMCU: 420 1001 411FC231", "RCOut: PWM:1-14", "IMU0: fast sampling enabled 8.0kHz/1.0kHz", "Frame: QUAD/X"]}
{"timestamp": "2025-12-27T08:05:17.813433Z", "telemetry": {"lat": 28.7530408, "lon": 77.1176741, "satellites": 4, "altitude_gps_m": 273.989990234375, "groundspeed_mps": 0.02669299580156803}, "flight": {"mode": "STABILIZE", "armed": false}, "ekf": {"attitude": {"roll": 0.02026863396167755, "pitch": 0.03261730447411537, "yaw": 0.5048516988754272}, "local_position": {"x": null, "y": null, "z": null}, "status": {"flags": 135, "velocity_variance": 0.0, "pos_horiz_variance": 0.009909688495099545, "pos_vert_variance": 0.10916604846715927}}, "errors": ["PreArm: Hardware safety switch", "PreArm: Hardware safety switch", "ArduCopter V4.6.1 (57591cb8)", "ChibiOS: 88b84600", "fmuv3 00240032 33385119 36353030", "IOMCU: 420 1001 411FC231", "RCOut: PWM:1-14", "IMU0: fast sampling enabled 8.0kHz/1.0kHz", "Frame: QUAD/X"]}
{"timestamp": "2025-12-27T08:05:18.813462Z", "telemetry": {"lat": 28.7530408, "lon": 77.1176741, "satellites": 4, "altitude_gps_m": 269.1300048828125, "groundspeed_mps": 0.02114381268620491}, "flight": {"mode": "STABILIZE", "armed": false}, "ekf": {"attitude": {"roll": 0.02032564952969551, "pitch": 0.032773565500974655, "yaw": 0.5054877400398254}, "local_position": {"x": null, "y": null, "z": null}, "status": {"flags": 135, "velocity_variance": 0.0, "pos_horiz_variance": 0.009909688495099545, "pos_vert_variance": 0.10916604846715927}}, "errors": ["PreArm: Hardware safety switch", "PreArm: Hardware safety switch", "ArduCopter V4.6.1 (57591cb8)", "ChibiOS: 88b84600", "fmuv3 00240032 33385119 36353030", "IOMCU: 420 1001 411FC231", "RCOut: PWM:1-14", "IMU0: fast sampling enabled 8.0kHz/1.0kHz", "Frame: QUAD/X"]}
{"timestamp": "2025-12-27T08:05:19.813567Z", "telemetry": {"lat": 28.7530483, "lon": 77.1176883, "satellites": 4, "altitude_gps_m": 269.8299865722656, "groundspeed_mps": 0.019703317433595657}, "flight": {"mode": "STABILIZE", "armed": false}, "ekf": {"attitude": {"roll": 0.020324144512414932, "pitch": 0.03280287981033325, "yaw": 0.5060621500015259}, "local_position": {"x": null, "y": null, "z": null}, "status": {"flags": 135, "velocity_variance": 0.0, "pos_horiz_variance": 0.006971339229494333, "pos_vert_variance": 0.025806233286857605}}, "errors": ["PreArm: Hardware safety switch", "PreArm: Hardware safety switch", "ArduCopter V4.6.1 (57591cb8)", "ChibiOS: 88b84600", "fmuv3 00240032 33385119 36353030", "IOMCU: 420 1001 411FC231", "RCOut: PWM:1-14", "IMU0: fast sampling enabled 8.0kHz/1.0kHz", "Frame: QUAD/X"]}
{"timestamp": "2025-12-27T08:05:20.813226Z", "telemetry": {"lat": 28.7530382, "lon": 77.117686, "satellites": 4, "altitude_gps_m": 270.5299987792969, "groundspeed_mps": 0.016151314601302147}, "flight": {"mode": "STABILIZE", "armed": false}, "ekf": {"attitude": {"roll": 0.020377429202198982, "pitch": 0.03268943727016449, "yaw": 0.5065895915031433}, "local_position": {"x": null, "y": null, "z": null}, "status": {"flags": 135, "velocity_variance": 0.0, "pos_horiz_variance": 0.006075212266296148, "pos_vert_variance": 0.05825645476579666}}, "errors": ["PreArm: Hardware safety switch", "PreArm: Hardware safety switch", "ArduCopter V4.6.1 (57591cb8)", "ChibiOS: 88b84600", "fmuv3 00240032 33385119 36353030", "IOMCU: 420 1001 411FC231", "RCOut: PWM:1-14", "IMU0: fast sampling enabled 8.0kHz/1.0kHz", "Frame: QUAD/X"]}
{"timestamp": "2025-12-27T08:05:21.813243Z", "telemetry": {"lat": 28.7530444, "lon": 77.1177135, "satellites": 4, "altitude_gps_m": 259.75, "groundspeed_mps": 0.017794737592339516}, "flight": {"mode": "STABILIZE", "armed": false}, "ekf": {"attitude": {"roll": 0.02033773623406887, "pitch": 0.03269847482442856, "yaw": 0.5072771310806274}, "local_position": {"x": null, "y": null, "z": null}, "status": {"flags": 135, "velocity_variance": 0.0, "pos_horiz_variance": 0.005586483050137758, "pos_vert_variance": 0.07960762083530426}}, "errors": ["PreArm: Hardware safety switch", "PreArm: Hardware safety switch", "ArduCopter V4.6.1 (57591cb8)", "ChibiOS: 88b84600", "fmuv3 00240032 33385119 36353030", "IOMCU: 420 1001 411FC231", "RCOut: PWM:1-14", "IMU0: fast sampling enabled 8.0kHz/1.0kHz", "Frame: QUAD/X"]}
{"timestamp": "2025-12-27T08:05:22.812617Z", "telemetry": {"lat": 28.7530352, "lon": 77.1176906, "satellites": 4, "altitude_gps_m": 269.2200012207031, "groundspeed_mps": 0.01917898841202259}, "flight": {"mode": "STABILIZE", "armed": false}, "ekf": {"attitude": {"roll": 0.02032310515642166, "pitch": 0.032613690942525864, "yaw": 0.5079249739646912}, "local_position": {"x": null, "y": null, "z": null}, "status": {"flags": 135, "velocity_variance": 0.0, "pos_horiz_variance": 0.005464824847877026, "pos_vert_variance": 0.017355352640151978}}, "errors": ["PreArm: Hardware safety switch", "PreArm: Hardware safety switch", "ArduCopter V4.6.1 (57591cb8)", "ChibiOS: 88b84600", "fmuv3 00240032 33385119 36353030", "IOMCU: 420 1001 411FC231", "RCOut: PWM:1-14", "IMU0: fast sampling enabled 8.0kHz/1.0kHz", "Frame: QUAD/X"]}
{"timestamp": "2025-12-27T08:05:23.813315Z", "telemetry": {"lat": 28.7530259, "lon": 77.117677, "satellites": 4, "altitude_gps_m": 275.75, "groundspeed_mps": 0.02449536882340908}, "flight": {"mode": "STABILIZE", "armed": false}, "ekf": {"attitude": {"roll": 0.020264483988285065, "pitch": 0.03245801851153374, "yaw": 0.5085421800613403}, "local_position": {"x": null, "y": null, "z": null}, "status": {"flags": 135, "velocity_variance": 0.0, "pos_horiz_variance": 0.0056601632386446, "pos_vert_variance": 0.028015494346618652}}, "errors": ["PreArm: Hardware safety switch", "PreArm: Hardware safety switch", "ArduCopter V4.6.1 (57591cb8)", "ChibiOS: 88b84600", "fmuv3 00240032 33385119 36353030", "IOMCU: 420 1001 411FC231", "RCOut: PWM:1-14", "IMU0: fast sampling enabled 8.0kHz/1.0kHz", "Frame: QUAD/X"]}
{"timestamp": "2025-12-27T08:05:24.816160Z", "telemetry": {"lat": 28.7530271, "lon": 77.1176898, "satellites": 4, "altitude_gps_m": 271.7900085449219, "groundspeed_mps": 0.028352247551083565}, "flight": {"mode": "STABILIZE", "armed": false}, "ekf": {"attitude": {"roll": 0.020288361236453056, "pitch": 0.032062649726867676, "yaw": 0.5089636445045471}, "local_position": {"x": null, "y": null, "z": null}, "status": {"flags": 135, "velocity_variance": 0.0, "pos_horiz_variance": 0.0065035573206841946, "pos_vert_variance": 0.018560299649834633}}, "errors": ["PreArm: Hardware safety switch", "PreArm: Hardware safety switch", "ArduCopter V4.6.1 (57591cb8)", "ChibiOS: 88b84600", "fmuv3 00240032 33385119 36353030", "IOMCU: 420 1001 411FC231", "RCOut: PWM:1-14", "IMU0: fast sampling enabled 8.0kHz/1.0kHz", "Frame: QUAD/X", "PreArm: Hardware safety switch"]}
{"timestamp": "2025-12-27T08:05:25.812990Z", "telemetry": {"lat": 28.7530217, "lon": 77.1176736, "satellites": 4, "altitude_gps_m": 273.57000732421875, "groundspeed_mps": 0.03343150392174721}, "flight": {"mode": "STABILIZE", "armed": false}, "ekf": {"attitude": {"roll": 0.0203329399228096, "pitch": 0.03151039034128189, "yaw": 0.5095700025558472}, "local_position": {"x": null, "y": null, "z": null}, "status": {"flags": 135, "velocity_variance": 0.0, "pos_horiz_variance": 0.007427620701491833, "pos_vert_variance": 0.006264204625040293}}, "errors": ["PreArm: Hardware safety switch", "PreArm: Hardware safety switch", "ArduCopter V4.6.1 (57591cb8)", "ChibiOS: 88b84600", "fmuv3 00240032 33385119 36353030", "IOMCU: 420 1001 411FC231", "RCOut: PWM:1-14", "IMU0: fast sampling enabled 8.0kHz/1.0kHz", "Frame: QUAD/X", "PreArm: Hardware safety switch"]}
{"timestamp": "2025-12-27T08:05:26.812643Z", "telemetry": {"lat": 28.7530171, "lon": 77.1176714, "satellites": 4, "altitude_gps_m": 275.3999938964844, "groundspeed_mps": 0.043231651186943054}, "flight": {"mode": "STABILIZE", "armed": false}, "ekf": {"attitude": {"roll": 0.02025468461215496, "pitch": 0.03102291375398636, "yaw": 0.510062575340271}, "local_position": {"x": null, "y": null, "z": null}, "status": {"flags": 135, "velocity_variance": 0.0, "pos_horiz_variance": 0.008771800436079502, "pos_vert_variance": 0.006167699117213488}}, "errors": ["PreArm: Hardware safety switch", "PreArm: Hardware safety switch", "ArduCopter V4.6.1 (57591cb8)", "ChibiOS: 88b84600", "fmuv3 00240032 33385119 36353030", "IOMCU: 420 1001 411FC231", "RCOut: PWM:1-14", "IMU0: fast sampling enabled 8.0kHz/1.0kHz", "Frame: QUAD/X", "PreArm: Hardware safety switch"]}
{"timestamp": "2025-12-27T08:05:27.813238Z", "telemetry": {"lat": 28.7530127, "lon": 77.1176655, "satellites": 4, "altitude_gps_m": 280.7200012207031, "groundspeed_mps": 0.05441732332110405}, "flight": {"mode": "STABILIZE", "armed": false}, "ekf": {"attitude": {"roll": 0.020309120416641235, "pitch": 0.030662614852190018, "yaw": 0.5107206106185913}, "local_position": {"x": null, "y": null, "z": null}, "status": {"flags": 135, "velocity_variance": 0.0, "pos_horiz_variance": 0.01107821986079216, "pos_vert_variance": 0.022497916594147682}}, "errors": ["PreArm: Hardware safety switch", "PreArm: Hardware safety switch", "ArduCopter V4.6.1 (57591cb8)", "ChibiOS: 88b84600", "fmuv3 00240032 33385119 36353030", "IOMCU: 420 1001 411FC231", "RCOut: PWM:1-14", "IMU0: fast sampling enabled 8.0kHz/1.0kHz", "Frame: QUAD/X", "PreArm: Hardware safety switch"]}
{"timestamp": "2025-12-27T08:05:28.812849Z", "telemetry": {"lat": 28.752995, "lon": 77.1176447, "satellites": 4, "altitude_gps_m": 286.8399963378906, "groundspeed_mps": 0.06114548444747925}, "flight": {"mode": "STABILIZE", "armed": false}, "ekf": {"attitude": {"roll": 0.020264174789190292, "pitch": 0.030522895976901054, "yaw": 0.5111326575279236}, "local_position": {"x": null, "y": null, "z": null}, "status": {"flags": 135, "velocity_variance": 0.0, "pos_horiz_variance": 0.013673569075763226, "pos_vert_variance": 0.0395783931016922}}, "errors": ["PreArm: Hardware safety switch", "PreArm: Hardware safety switch", "ArduCopter V4.6.1 (57591cb8)", "ChibiOS: 88b84600", "fmuv3 00240032 33385119 36353030", "IOMCU: 420 1001 411FC231", "RCOut: PWM:1-14", "IMU0: fast sampling enabled 8.0kHz/1.0kHz", "Frame: QUAD/X", "PreArm: Hardware safety switch"]}
{"timestamp": "2025-12-27T08:05:29.813089Z", "telemetry": {"lat": 28.7529999, "lon": 77.1176513, "satellites": 4, "altitude_gps_m": 283.30999755859375, "groundspeed_mps": 0.07398671656847}, "flight": {"mode": "STABILIZE", "armed": false}, "ekf": {"attitude": {"roll": 0.02033812738955021, "pitch": 0.03011791780591011, "yaw": 0.5115888714790344}, "local_position": {"x": null, "y": null, "z": null}, "status": {"flags": 135, "velocity_variance": 0.0, "pos_horiz_variance": 0.016262561082839966, "pos_vert_variance": 0.030405892059206963}}, "errors": ["PreArm: Hardware safety switch", "PreArm: Hardware safety switch", "ArduCopter V4.6.1 (57591cb8)", "ChibiOS: 88b84600", "fmuv3 00240032 33385119 36353030", "IOMCU: 420 1001 411FC231", "RCOut: PWM:1-14", "IMU0: fast sampling enabled 8.0kHz/1.0kHz", "Frame: QUAD/X", "PreArm: Hardware safety switch"]}
{"timestamp": "2025-12-27T08:05:30.812822Z", "telemetry": {"lat": 28.7530421, "lon": 77.1177165, "satellites": 5, "altitude_gps_m": 254.4399871826172, "groundspeed_mps": 0.08411048352718353}, "flight": {"mode": "STABILIZE", "armed": false}, "ekf": {"attitude": {"roll": 0.020327314734458923, "pitch": 0.02987850271165371, "yaw": 0.5120039582252502}, "local_position": {"x": null, "y": null, "z": null}, "status": {"flags": 135, "velocity_variance": 0.0, "pos_horiz_variance": 0.01998746022582054, "pos_vert_variance": 0.04722360521554947}}, "errors": ["PreArm: Hardware safety switch", "PreArm: Hardware safety switch", "ArduCopter V4.6.1 (57591cb8)", "ChibiOS: 88b84600", "fmuv3 00240032 33385119 36353030", "IOMCU: 420 1001 411FC231", "RCOut: PWM:1-14", "IMU0: fast sampling enabled 8.0kHz/1.0kHz", "Frame: QUAD/X", "PreArm: Hardware safety switch"]}
{"timestamp": "2025-12-27T08:05:31.813482Z", "telemetry": {"lat": 28.7530462, "lon": 77.1177333, "satellites": 5, "altitude_gps_m": 247.42999267578125, "groundspeed_mps": 0.09010970592498779}, "flight": {"mode": "STABILIZE", "armed": false}, "ekf": {"attitude": {"roll": 0.02040180005133152, "pitch": 0.029719851911067963, "yaw": 0.5124356150627136}, "local_position": {"x": null, "y": null, "z": null}, "status": {"flags": 135, "velocity_variance": 0.0, "pos_horiz_variance": 0.022296829149127007, "pos_vert_variance": 0.026161624118685722}}, "errors": ["PreArm: Hardware safety switch", "PreArm: Hardware safety switch", "ArduCopter V4.6.1 (57591cb8)", "ChibiOS: 88b84600", "fmuv3 00240032 33385119 36353030", "IOMCU: 420 1001 411FC231", "RCOut: PWM:1-14", "IMU0: fast sampling enabled 8.0kHz/1.0kHz", "Frame: QUAD/X", "PreArm: Hardware safety switch"]}
{"timestamp": "2025-12-27T08:05:32.812601Z", "telemetry": {"lat": 28.753057, "lon": 77.117731, "satellites": 5, "altitude_gps_m": 243.6599884033203, "groundspeed_mps": 0.09564239531755447}, "flight": {"mode": "STABILIZE", "armed": false}, "ekf": {"attitude": {"roll": 0.020428426563739777, "pitch": 0.02964886836707592, "yaw": 0.5127071738243103}, "local_position": {"x": null, "y": null, "z": null}, "status": {"flags": 135, "velocity_variance": 0.0, "pos_horiz_variance": 0.023557109758257866, "pos_vert_variance": 0.011142967268824577}}, "errors": ["PreArm: Hardware safety switch", "PreArm: Hardware safety switch", "ArduCopter V4.6.1 (57591cb8)", "ChibiOS: 88b84600", "fmuv3 00240032 33385119 36353030", "IOMCU: 420 1001 411FC231", "RCOut: PWM:1-14", "IMU0: fast sampling enabled 8.0kHz/1.0kHz", "Frame: QUAD/X", "PreArm: Hardware safety switch"]}
{"timestamp": "2025-12-27T08:05:33.813068Z", "telemetry": {"lat": 28.7530615, "lon": 77.1177248, "satellites": 5, "altitude_gps_m": 241.6699981689453, "groundspeed_mps": 0.0965653583407402}, "flight": {"mode": "STABILIZE", "armed": false}, "ekf": {"attitude": {"roll": 0.020599398761987686, "pitch": 0.029683232307434082, "yaw": 0.5131531953811646}, "local_position": {"x": null, "y": null, "z": null}, "status": {"flags": 135, "velocity_variance": 0.0, "pos_horiz_variance": 0.0253096055239439, "pos_vert_variance": 0.0008181700832210481}}, "errors": ["PreArm: Hardware safety switch", "PreArm: Hardware safety switch", "ArduCopter V4.6.1 (57591cb8)", "ChibiOS: 88b84600", "fmuv3 00240032 33385119 36353030", "IOMCU: 420 1001 411FC231", "RCOut: PWM:1-14", "IMU0: fast sampling enabled 8.0kHz/1.0kHz", "Frame: QUAD/X", "PreArm: Hardware safety switch"]}
{"timestamp": "2025-12-27T08:05:34.817855Z", "telemetry": {"lat": 28.7530687, "lon": 77.1177284, "satellites": 5, "altitude_gps_m": 239.75999450683594, "groundspeed_mps": 0.09378888458013535}, "flight": {"mode": "STABILIZE", "armed": false}, "ekf": {"attitude": {"roll": 0.020609397441148758, "pitch": 0.02981150522828102, "yaw": 0.513558030128479}, "local_position": {"x": null, "y": null, "z": null}, "status": {"flags": 135, "velocity_variance": 0.0, "pos_horiz_variance": 0.026051027700304985, "pos_vert_variance": 0.03698892891407013}}, "errors": ["PreArm: Hardware safety switch", "PreArm: Hardware safety switch", "ArduCopter V4.6.1 (57591cb8)", "ChibiOS: 88b84600", "fmuv3 00240032 33385119 36353030", "IOMCU: 420 1001 411FC231", "RCOut: PWM:1-14", "IMU0: fast sampling enabled 8.0kHz/1.0kHz", "Frame: QUAD/X", "PreArm: Hardware safety switch"]}
{"timestamp": "2025-12-27T08:05:35.817760Z", "telemetry": {"lat": 28.753076, "lon": 77.1177254, "satellites": 5, "altitude_gps_m": 237.76998901367188, "groundspeed_mps": 0.09118881076574326}, "flight": {"mode": "STABILIZE", "armed": false}, "ekf": {"attitude": {"roll": 0.02067585103213787, "pitch": 0.029844898730516434, "yaw": 0.5138923525810242}, "local_position": {"x": null, "y": null, "z": null}, "status": {"flags": 135, "velocity_variance": 0.0, "pos_horiz_variance": 0.026085264980793, "pos_vert_variance": 0.030883027240633965}}, "errors": ["PreArm: Hardware safety switch", "PreArm: Hardware safety switch", "ArduCopter V4.6.1 (57591cb8)", "ChibiOS: 88b84600", "fmuv3 00240032 33385119 36353030", "IOMCU: 420 1001 411FC231", "RCOut: PWM:1-14", "IMU0: fast sampling enabled 8.0kHz/1.0kHz", "Frame: QUAD/X", "PreArm: Hardware safety switch"]}
{"timestamp": "2025-12-27T08:05:36.813734Z", "telemetry": {"lat": 28.7530699, "lon": 77.1177258, "satellites": 5, "altitude_gps_m": 236.25, "groundspeed_mps": 0.08676223456859589}, "flight": {"mode": "STABILIZE", "armed": false}, "ekf": {"attitude": {"roll": 0.020648550242185593, "pitch": 0.030016034841537476, "yaw": 0.5141476392745972}, "local_position": {"x": null, "y": null, "z": null}, "status": {"flags": 135, "velocity_variance": 0.0, "pos_horiz_variance": 0.025586500763893127, "pos_vert_variance": 0.010470118373632431}}, "errors": ["PreArm: Hardware safety switch", "PreArm: Hardware safety switch", "ArduCopter V4.6.1 (57591cb8)", "ChibiOS: 88b84600", "fmuv3 00240032 33385119 36353030", "IOMCU: 420 1001 411FC231", "RCOut: PWM:1-14", "IMU0: fast sampling enabled 8.0kHz/1.0kHz", "Frame: QUAD/X", "PreArm: Hardware safety switch"]}
{"timestamp": "2025-12-27T08:05:37.813514Z", "telemetry": {"lat": 28.7530788, "lon": 77.1177256, "satellites": 5, "altitude_gps_m": 235.08999633789062, "groundspeed_mps": 0.08195296674966812}, "flight": {"mode": "STABILIZE", "armed": false}, "ekf": {"attitude": {"roll": 0.020807545632123947, "pitch": 0.03004814125597477, "yaw": 0.5144713521003723}, "local_position": {"x": null, "y": null, "z": null}, "status": {"flags": 135, "velocity_variance": 0.0, "pos_horiz_variance": 0.02437623031437397, "pos_vert_variance": 0.032710377126932144}}, "errors": ["PreArm: Hardware safety switch", "PreArm: Hardware safety switch", "ArduCopter V4.6.1 (57591cb8)", "ChibiOS: 88b84600", "fmuv3 00240032 33385119 36353030", "IOMCU: 420 1001 411FC231", "RCOut: PWM:1-14", "IMU0: fast sampling enabled 8.0kHz/1.0kHz", "Frame: QUAD/X", "PreArm: Hardware safety switch"]}
{"timestamp": "2025-12-27T08:05:38.813359Z", "telemetry": {"lat": 28.7530872, "lon": 77.1177248, "satellites": 5, "altitude_gps_m": 233.25999450683594, "groundspeed_mps": 0.08071579784154892}, "flight": {"mode": "STABILIZE", "armed": false}, "ekf": {"attitude": {"roll": 0.020878400653600693, "pitch": 0.030069129541516304, "yaw": 0.5149052143096924}, "local_position": {"x": null, "y": null, "z": null}, "status": {"flags": 135, "velocity_variance": 0.0, "pos_horiz_variance": 0.02370540425181389, "pos_vert_variance": 0.024860471487045288}}, "errors": ["PreArm: Hardware safety switch", "PreArm: Hardware safety switch", "ArduCopter V4.6.1 (57591cb8)", "ChibiOS: 88b84600", "fmuv3 00240032 33385119 36353030", "IOMCU: 420 1001 411FC231", "RCOut: PWM:1-14", "IMU0: fast sampling enabled 8.0kHz/1.0kHz", "Frame: QUAD/X", "PreArm: Hardware safety switch"]}
{"timestamp": "2025-12-27T08:05:39.813475Z", "telemetry": {"lat": 28.753097, "lon": 77.1177306, "satellites": 5, "altitude_gps_m": 230.6999969482422, "groundspeed_mps": 0.07936711609363556}, "flight": {"mode": "STABILIZE", "armed": false}, "ekf": {"attitude": {"roll": 0.020889800041913986, "pitch": 0.030018117278814316, "yaw": 0.5153056383132935}, "local_position": {"x": null, "y": null, "z": null}, "status": {"flags": 135, "velocity_variance": 0.0, "pos_horiz_variance": 0.023220257833600044, "pos_vert_variance": 0.04603179171681404}}, "errors": ["PreArm: Hardware safety switch", "PreArm: Hardware safety switch", "ArduCopter V4.6.1 (57591cb8)", "ChibiOS: 88b84600", "fmuv3 00240032 33385119 36353030", "IOMCU: 420 1001 411FC231", "RCOut: PWM:1-14", "IMU0: fast sampling enabled 8.0kHz/1.0kHz", "Frame: QUAD/X", "PreArm: Hardware safety switch"]}
{"timestamp": "2025-12-27T08:05:40.813255Z", "telemetry": {"lat": 28.7530959, "lon": 77.1177284, "satellites": 5, "altitude_gps_m": 230.92999267578125, "groundspeed_mps": 0.0821252316236496}, "flight": {"mode": "STABILIZE", "armed": false}, "ekf": {"attitude": {"roll": 0.02099086530506611, "pitch": 0.029869461432099342, "yaw": 0.5154121518135071}, "local_position": {"x": null, "y": null, "z": null}, "status": {"flags": 135, "velocity_variance": 0.0, "pos_horiz_variance": 0.02286028489470482, "pos_vert_variance": 0.015093467198312283}}, "errors": ["PreArm: Hardware safety switch", "PreArm: Hardware safety switch", "ArduCopter V4.6.1 (57591cb8)", "ChibiOS: 88b84600", "fmuv3 00240032 33385119 36353030", "IOMCU: 420 1001 411FC231", "RCOut: PWM:1-14", "IMU0: fast sampling enabled 8.0kHz/1.0kHz", "Frame: QUAD/X", "PreArm: Hardware safety switch"]}
{"timestamp": "2025-12-27T08:05:41.812967Z", "telemetry": {"lat": 28.7530915, "lon": 77.1177217, "satellites": 5, "altitude_gps_m": 232.1899871826172, "groundspeed_mps": 0.0845288410782814}, "flight": {"mode": "STABILIZE", "armed": false}, "ekf": {"attitude": {"roll": 0.02096887119114399, "pitch": 0.02971372753381729, "yaw": 0.5156998038291931}, "local_position": {"x": null, "y": null, "z": null}, "status": {"flags": 135, "velocity_variance": 0.0, "pos_horiz_variance": 0.023086369037628174, "pos_vert_variance": 0.037160325795412064}}, "errors": ["PreArm: Hardware safety switch", "PreArm: Hardware safety switch", "ArduCopter V4.6.1 (57591cb8)", "ChibiOS: 88b84600", "fmuv3 00240032 33385119 36353030", "IOMCU: 420 1001 411FC231", "RCOut: PWM:1-14", "IMU0: fast sampling enabled 8.0kHz/1.0kHz", "Frame: QUAD/X", "PreArm: Hardware safety switch"]}
{"timestamp": "2025-12-27T08:05:42.813174Z", "telemetry": {"lat": 28.7530851, "lon": 77.1177181, "satellites": 5, "altitude_gps_m": 233.97999572753906, "groundspeed_mps": 0.08831261843442917}, "flight": {"mode": "STABILIZE", "armed": false}, "ekf": {"attitude": {"roll": 0.020939409732818604, "pitch": 0.029591713100671768, "yaw": 0.516051709651947}, "local_position": {"x": null, "y": null, "z": null}, "status": {"flags": 135, "velocity_variance": 0.0, "pos_horiz_variance": 0.023782944306731224, "pos_vert_variance": 0.06922324001789093}}, "errors": ["PreArm: Hardware safety switch", "PreArm: Hardware safety switch", "ArduCopter V4.6.1 (57591cb8)", "ChibiOS: 88b84600", "fmuv3 00240032 33385119 36353030", "IOMCU: 420 1001 411FC231", "RCOut: PWM:1-14", "IMU0: fast sampling enabled 8.0kHz/1.0kHz", "Frame: QUAD/X", "PreArm: Hardware safety switch"]}
{"timestamp": "2025-12-27T08:05:43.813286Z", "telemetry": {"lat": 28.7530824, "lon": 77.117722, "satellites": 5, "altitude_gps_m": 234.00999450683594, "groundspeed_mps": 0.09259446710348129}, "flight": {"mode": "STABILIZE", "armed": false}, "ekf": {"attitude": {"roll": 0.02098540961742401, "pitch": 0.029489165171980858, "yaw": 0.5163106322288513}, "local_position": {"x": null, "y": null, "z": null}, "status": {"flags": 135, "velocity_variance": 0.0, "pos_horiz_variance": 0.024876076728105545, "pos_vert_variance": 0.03001517616212368}}, "errors": ["PreArm: Hardware safety switch", "PreArm: Hardware safety switch", "ArduCopter V4.6.1 (57591cb8)", "ChibiOS: 88b84600", "fmuv3 00240032 33385119 36353030", "IOMCU: 420 1001 411FC231", "RCOut: PWM:1-14", "IMU0: fast sampling enabled 8.0kHz/1.0kHz", "Frame: QUAD/X", "PreArm: Hardware safety switch"]}
{"timestamp": "2025-12-27T08:05:44.813290Z", "telemetry": {"lat": 28.7530775, "lon": 77.1177225, "satellites": 5, "altitude_gps_m": 235.6199951171875, "groundspeed_mps": 0.0951390340924263}, "flight": {"mode": "STABILIZE", "armed": false}, "ekf": {"attitude": {"roll": 0.020927775651216507, "pitch": 0.029423227533698082, "yaw": 0.5166738033294678}, "local_position": {"x": null, "y": null, "z": null}, "status": {"flags": 135, "velocity_variance": 0.0, "pos_horiz_variance": 0.025473246350884438, "pos_vert_variance": 0.00785836111754179}}, "errors": ["PreArm: Hardware safety switch", "PreArm: Hardware safety switch", "ArduCopter V4.6.1 (57591cb8)", "ChibiOS: 88b84600", "fmuv3 00240032 33385119 36353030", "IOMCU: 420 1001 411FC231", "RCOut: PWM:1-14", "IMU0: fast sampling enabled 8.0kHz/1.0kHz", "Frame: QUAD/X", "PreArm: Hardware safety switch"]}
{"timestamp": "2025-12-27T08:05:45.812668Z", "telemetry": {"lat": 28.7530705, "lon": 77.1177299, "satellites": 5, "altitude_gps_m": 234.4199981689453, "groundspeed_mps": 0.09601987153291702}, "flight": {"mode": "STABILIZE", "armed": false}, "ekf": {"attitude": {"roll": 0.02088727243244648, "pitch": 0.02933657169342041, "yaw": 0.5169839859008789}, "local_position": {"x": null, "y": null, "z": null}, "status": {"flags": 135, "velocity_variance": 0.0, "pos_horiz_variance": 0.026238782331347466, "pos_vert_variance": 0.019517403095960617}}, "errors": ["PreArm: Hardware safety switch", "PreArm: Hardware safety switch", "ArduCopter V4.6.1 (57591cb8)", "ChibiOS: 88b84600", "fmuv3 00240032 33385119 36353030", "IOMCU: 420 1001 411FC231", "RCOut: PWM:1-14", "IMU0: fast sampling enabled 8.0kHz/1.0kHz", "Frame: QUAD/X", "PreArm: Hardware safety switch"]}
