{"timestamp": "2025-12-28T08:34:41.400941Z", "telemetry": {"lat": 28.7532064, "lon": 77.1176742, "satellites": 7, "altitude_gps_m": 217.51998901367188, "groundspeed_mps": 0.2725677490234375}, "flight": {"mode": null, "armed": null}, "ekf": {"attitude": {"roll": 0.020209556445479393, "pitch": 0.02657354064285755, "yaw": 0.27586349844932556}, "local_position": {"x": 13.066637992858887, "y": -19.17485237121582, "z": -0.13782525062561035}, "status": {"flags": 33599, "velocity_variance": 0.43832507729530334, "pos_horiz_variance": 0.021328777074813843, "pos_vert_variance": 0.0030669893603771925}}, "errors": []}
{"timestamp": "2025-12-28T08:34:42.368056Z", "telemetry": {"lat": 28.7532026, "lon": 77.1176742, "satellites": 7, "altitude_gps_m": 217.5399932861328, "groundspeed_mps": 0.2016521841287613}, "flight": {"mode": "STABILIZE", "armed": false}, "ekf": {"attitude": {"roll": 0.018924182280898094, "pitch": 0.02599571831524372, "yaw": 0.2755948305130005}, "local_position": {"x": 12.589764595031738, "y": -18.981172561645508, "z": -0.15837597846984863}, "status": {"flags": 33599, "velocity_variance": 0.34801796078681946, "pos_horiz_variance": 0.02154511585831642, "pos_vert_variance": 0.01495638769119978}}, "errors": []}
{"timestamp": "2025-12-28T08:34:43.372710Z", "telemetry": {"lat": 28.7531894, "lon": 77.1176831, "satellites": 7, "altitude_gps_m": 217.36000061035156, "groundspeed_mps": 0.30237969756126404}, "flight": {"mode": "STABILIZE", "armed": false}, "ekf": {"attitude": {"roll": 0.02037929557263851, "pitch": 0.027344567701220512, "yaw": 0.27530428767204285}, "local_position": {"x": 11.542381286621094, "y": -18.461841583251953, "z": 0.02950855903327465}, "status": {"flags": 33599, "velocity_variance": 0.1837298423051834, "pos_horiz_variance": 0.02643398754298687, "pos_vert_variance": 0.028697989881038666}}, "errors": []}
{"timestamp": "2025-12-28T08:34:44.368537Z", "telemetry": {"lat": 28.7531917, "lon": 77.117683, "satellites": 7, "altitude_gps_m": 217.44000244140625, "groundspeed_mps": 0.22923347353935242}, "flight": {"mode": "STABILIZE", "armed": false}, "ekf": {"attitude": {"roll": 0.01923743449151516, "pitch": 0.02635011076927185, "yaw": 0.27516981959342957}, "local_position": {"x": 11.170071601867676, "y": -18.249006271362305, "z": -0.05723851919174194}, "status": {"flags": 33599, "velocity_variance": 0.19118210673332214, "pos_horiz_variance": 0.021024353802204132, "pos_vert_variance": 0.01918925903737545}}, "errors": []}
{"timestamp": "2025-12-28T08:34:45.368675Z", "telemetry": {"lat": 28.7531818, "lon": 77.117693, "satellites": 7, "altitude_gps_m": 217.5800018310547, "groundspeed_mps": 0.3060212731361389}, "flight": {"mode": "STABILIZE", "armed": false}, "ekf": {"attitude": {"roll": 0.020315779373049736, "pitch": 0.02694978378713131, "yaw": 0.2750384509563446}, "local_position": {"x": 10.3884859085083, "y": -17.645198822021484, "z": -0.19317829608917236}, "status": {"flags": 33599, "velocity_variance": 0.2541148364543915, "pos_horiz_variance": 0.025330763310194016, "pos_vert_variance": 0.01644386723637581}}, "errors": []}
{"timestamp": "2025-12-28T08:34:46.368805Z", "telemetry": {"lat": 28.7531783, "lon": 77.1176976, "satellites": 7, "altitude_gps_m": 217.61000061035156, "groundspeed_mps": 0.3802792727947235}, "flight": {"mode": "STABILIZE", "armed": false}, "ekf": {"attitude": {"roll": 0.021213464438915253, "pitch": 0.027243057265877724, "yaw": 0.27484700083732605}, "local_position": {"x": 9.628764152526855, "y": -16.95993423461914, "z": -0.22847890853881836}, "status": {"flags": 33599, "velocity_variance": 0.035336267203092575, "pos_horiz_variance": 0.02032308652997017, "pos_vert_variance": 0.053036879748106}}, "errors": []}
{"timestamp": "2025-12-28T08:34:47.368574Z", "telemetry": {"lat": 28.7531868, "lon": 77.1176903, "satellites": 7, "altitude_gps_m": 217.6999969482422, "groundspeed_mps": 0.3297921121120453}, "flight": {"mode": "STABILIZE", "armed": false}, "ekf": {"attitude": {"roll": 0.020361723378300667, "pitch": 0.026617243885993958, "yaw": 0.2746240496635437}, "local_position": {"x": 9.28253173828125, "y": -16.664875030517578, "z": -0.3180924654006958}, "status": {"flags": 33599, "velocity_variance": 0.6447441577911377, "pos_horiz_variance": 0.0046074483543634415, "pos_vert_variance": 0.09261585026979446}}, "errors": []}
{"timestamp": "2025-12-28T08:34:48.368431Z", "telemetry": {"lat": 28.7531739, "lon": 77.1177027, "satellites": 7, "altitude_gps_m": 217.75999450683594, "groundspeed_mps": 0.25034961104393005}, "flight": {"mode": "STABILIZE", "armed": false}, "ekf": {"attitude": {"roll": 0.02013270929455757, "pitch": 0.026308992877602577, "yaw": 0.274478018283844}, "local_position": {"x": 9.214531898498535, "y": -16.523483276367188, "z": -0.3701041340827942}, "status": {"flags": 33599, "velocity_variance": 0.28935176134109497, "pos_horiz_variance": 0.019862830638885498, "pos_vert_variance": 0.08488764613866806}}, "errors": []}
{"timestamp": "2025-12-28T08:34:49.368173Z", "telemetry": {"lat": 28.753172, "lon": 77.1177038, "satellites": 7, "altitude_gps_m": 217.64999389648438, "groundspeed_mps": 0.3077086806297302}, "flight": {"mode": "STABILIZE", "armed": false}, "ekf": {"attitude": {"roll": 0.02034306898713112, "pitch": 0.0265458133071661, "yaw": 0.2742595672607422}, "local_position": {"x": 8.5155668258667, "y": -15.953461647033691, "z": -0.26087599992752075}, "status": {"flags": 33599, "velocity_variance": 0.1773265153169632, "pos_horiz_variance": 0.013832010328769684, "pos_vert_variance": 0.08075954020023346}}, "errors": []}
{"timestamp": "2025-12-28T08:34:50.372915Z", "telemetry": {"lat": 28.7531681, "lon": 77.1177091, "satellites": 7, "altitude_gps_m": 217.5, "groundspeed_mps": 0.24684567749500275}, "flight": {"mode": "STABILIZE", "armed": false}, "ekf": {"attitude": {"roll": 0.02018025889992714, "pitch": 0.026284758001565933, "yaw": 0.27410492300987244}, "local_position": {"x": 8.338180541992188, "y": -15.78819751739502, "z": -0.11547654867172241}, "status": {"flags": 33599, "velocity_variance": 0.1831890344619751, "pos_horiz_variance": 0.01721351407468319, "pos_vert_variance": 0.042876675724983215}}, "errors": []}
{"timestamp": "2025-12-28T08:34:51.368747Z", "telemetry": {"lat": 28.753162, "lon": 77.1177149, "satellites": 7, "altitude_gps_m": 217.47999572753906, "groundspeed_mps": 0.27836766839027405}, "flight": {"mode": "STABILIZE", "armed": false}, "ekf": {"attitude": {"roll": 0.020492788404226303, "pitch": 0.02657373435795307, "yaw": 0.2740474343299866}, "local_position": {"x": 7.841666221618652, "y": -15.303539276123047, "z": -0.09045952558517456}, "status": {"flags": 33599, "velocity_variance": 0.1397174745798111, "pos_horiz_variance": 0.019682778045535088, "pos_vert_variance": 0.0074874586425721645}}, "errors": []}
{"timestamp": "2025-12-28T08:34:52.368768Z", "telemetry": {"lat": 28.7531505, "lon": 77.1177265, "satellites": 7, "altitude_gps_m": 217.52999877929688, "groundspeed_mps": 0.35497644543647766}, "flight": {"mode": "STABILIZE", "armed": false}, "ekf": {"attitude": {"roll": 0.021626053377985954, "pitch": 0.027164926752448082, "yaw": 0.27422142028808594}, "local_position": {"x": 7.112936019897461, "y": -14.601217269897461, "z": -0.14947479963302612}, "status": {"flags": 33599, "velocity_variance": 0.0885077491402626, "pos_horiz_variance": 0.026692518964409828, "pos_vert_variance": 0.04842154681682587}}, "errors": []}
{"timestamp": "2025-12-28T08:34:53.368457Z", "telemetry": {"lat": 28.753148, "lon": 77.1177312, "satellites": 7, "altitude_gps_m": 217.5, "groundspeed_mps": 0.37280768156051636}, "flight": {"mode": "STABILIZE", "armed": false}, "ekf": {"attitude": {"roll": 0.021583857014775276, "pitch": 0.0269783902913332, "yaw": 0.2742978632450104}, "local_position": {"x": 6.582400798797607, "y": -14.052099227905273, "z": -0.11740034818649292}, "status": {"flags": 33599, "velocity_variance": 0.46046894788742065, "pos_horiz_variance": 0.02468130551278591, "pos_vert_variance": 0.006788169499486685}}, "errors": []}
{"timestamp": "2025-12-28T08:34:54.368976Z", "telemetry": {"lat": 28.7531481, "lon": 77.1177323, "satellites": 7, "altitude_gps_m": 217.4499969482422, "groundspeed_mps": 0.2782459259033203}, "flight": {"mode": "STABILIZE", "armed": false}, "ekf": {"attitude": {"roll": 0.019683970138430595, "pitch": 0.025247979909181595, "yaw": 0.27411961555480957}, "local_position": {"x": 6.819046974182129, "y": -14.021146774291992, "z": -0.06741255521774292}, "status": {"flags": 33599, "velocity_variance": 0.21365641057491302, "pos_horiz_variance": 0.02741474285721779, "pos_vert_variance": 0.03070615977048874}}, "errors": []}
{"timestamp": "2025-12-28T08:34:55.368099Z", "telemetry": {"lat": 28.7531458, "lon": 77.1177351, "satellites": 7, "altitude_gps_m": 217.44000244140625, "groundspeed_mps": 0.2756161689758301}, "flight": {"mode": "STABILIZE", "armed": false}, "ekf": {"attitude": {"roll": 0.018919946625828743, "pitch": 0.02469874732196331, "yaw": 0.27399277687072754}, "local_position": {"x": 6.661145210266113, "y": -13.779670715332031, "z": -0.057579636573791504}, "status": {"flags": 33599, "velocity_variance": 0.35992664098739624, "pos_horiz_variance": 0.027472682297229767, "pos_vert_variance": 0.07005760818719864}}, "errors": []}
{"timestamp": "2025-12-28T08:34:56.368111Z", "telemetry": {"lat": 28.7531327, "lon": 77.1177461, "satellites": 7, "altitude_gps_m": 217.37998962402344, "groundspeed_mps": 0.27759596705436707}, "flight": {"mode": "STABILIZE", "armed": false}, "ekf": {"attitude": {"roll": 0.01958519034087658, "pitch": 0.025493448600172997, "yaw": 0.2738918662071228}, "local_position": {"x": 6.163453578948975, "y": -13.298685073852539, "z": -0.0007669348269701004}, "status": {"flags": 33599, "velocity_variance": 0.12012436985969543, "pos_horiz_variance": 0.03899829462170601, "pos_vert_variance": 0.09253145754337311}}, "errors": []}
{"timestamp": "2025-12-28T08:34:57.368659Z", "telemetry": {"lat": 28.7531194, "lon": 77.1177569, "satellites": 7, "altitude_gps_m": 217.47000122070312, "groundspeed_mps": 0.2802620530128479}, "flight": {"mode": "STABILIZE", "armed": false}, "ekf": {"attitude": {"roll": 0.02010698802769184, "pitch": 0.025992024689912796, "yaw": 0.2739655673503876}, "local_position": {"x": 5.326632022857666, "y": -12.6474027633667, "z": -0.08180791139602661}, "status": {"flags": 33599, "velocity_variance": 0.2913086414337158, "pos_horiz_variance": 0.048422642052173615, "pos_vert_variance": 0.04238920658826828}}, "errors": []}
{"timestamp": "2025-12-28T08:34:58.368025Z", "telemetry": {"lat": 28.7531024, "lon": 77.1177692, "satellites": 7, "altitude_gps_m": 217.489990234375, "groundspeed_mps": 0.37785881757736206}, "flight": {"mode": "STABILIZE", "armed": false}, "ekf": {"attitude": {"roll": 0.021700693294405937, "pitch": 0.027668118476867676, "yaw": 0.27392008900642395}, "local_position": {"x": 3.975982666015625, "y": -11.662726402282715, "z": -0.10599619150161743}, "status": {"flags": 33599, "velocity_variance": 0.26810312271118164, "pos_horiz_variance": 0.05549097806215286, "pos_vert_variance": 0.042597439140081406}}, "errors": []}
{"timestamp": "2025-12-28T08:34:59.368731Z", "telemetry": {"lat": 28.7530931, "lon": 77.1177745, "satellites": 7, "altitude_gps_m": 217.51998901367188, "groundspeed_mps": 0.5065415501594543}, "flight": {"mode": "STABILIZE", "armed": false}, "ekf": {"attitude": {"roll": 0.022440696135163307, "pitch": 0.028871020302176476, "yaw": 0.2738070785999298}, "local_position": {"x": 2.4870171546936035, "y": -10.705026626586914, "z": -0.1404176950454712}, "status": {"flags": 33599, "velocity_variance": 0.26897576451301575, "pos_horiz_variance": 0.0514233224093914, "pos_vert_variance": 0.04252539202570915}}, "errors": []}
{"timestamp": "2025-12-28T08:35:00.372499Z", "telemetry": {"lat": 28.7530934, "lon": 77.1177755, "satellites": 7, "altitude_gps_m": 217.6599884033203, "groundspeed_mps": 0.39583247900009155}, "flight": {"mode": "STABILIZE", "armed": false}, "ekf": {"attitude": {"roll": 0.02083134464919567, "pitch": 0.02769576758146286, "yaw": 0.27368414402008057}, "local_position": {"x": 2.0181679725646973, "y": -10.39114761352539, "z": -0.2797912359237671}, "status": {"flags": 33599, "velocity_variance": 0.2891075015068054, "pos_horiz_variance": 0.04662974923849106, "pos_vert_variance": 0.02872450277209282}}, "errors": []}
{"timestamp": "2025-12-28T08:35:01.373068Z", "telemetry": {"lat": 28.7530879, "lon": 77.1177812, "satellites": 7, "altitude_gps_m": 217.64999389648438, "groundspeed_mps": 0.30801787972450256}, "flight": {"mode": "STABILIZE", "armed": false}, "ekf": {"attitude": {"roll": 0.019884390756487846, "pitch": 0.027186980471014977, "yaw": 0.2736371159553528}, "local_position": {"x": 1.4943896532058716, "y": -10.06329345703125, "z": -0.2645142674446106}, "status": {"flags": 33599, "velocity_variance": 0.16082149744033813, "pos_horiz_variance": 0.04861677065491676, "pos_vert_variance": 0.06253164261579514}}, "errors": []}
{"timestamp": "2025-12-28T08:35:02.369476Z", "telemetry": {"lat": 28.7530854, "lon": 77.1177836, "satellites": 7, "altitude_gps_m": 217.70999145507812, "groundspeed_mps": 0.27491459250450134}, "flight": {"mode": "STABILIZE", "armed": false}, "ekf": {"attitude": {"roll": 0.019532782956957817, "pitch": 0.027302658185362816, "yaw": 0.2735331058502197}, "local_position": {"x": 0.9880189895629883, "y": -9.740403175354004, "z": -0.32054978609085083}, "status": {"flags": 33599, "velocity_variance": 0.04875626415014267, "pos_horiz_variance": 0.0478798933327198, "pos_vert_variance": 0.0171631071716547}}, "errors": []}
{"timestamp": "2025-12-28T08:35:03.368017Z", "telemetry": {"lat": 28.7530838, "lon": 77.1177881, "satellites": 7, "altitude_gps_m": 217.59999084472656, "groundspeed_mps": 0.2347770482301712}, "flight": {"mode": "STABILIZE", "armed": false}, "ekf": {"attitude": {"roll": 0.019132457673549652, "pitch": 0.026629595085978508, "yaw": 0.2732730209827423}, "local_position": {"x": 0.39687636494636536, "y": -9.175557136535645, "z": -0.2091914415359497}, "status": {"flags": 33599, "velocity_variance": 0.060161516070365906, "pos_horiz_variance": 0.04118756949901581, "pos_vert_variance": 0.06968013942241669}}, "errors": []}
{"timestamp": "2025-12-28T08:35:04.368576Z", "telemetry": {"lat": 28.7530742, "lon": 77.1177948, "satellites": 7, "altitude_gps_m": 217.489990234375, "groundspeed_mps": 0.2876087427139282}, "flight": {"mode": "STABILIZE", "armed": false}, "ekf": {"attitude": {"roll": 0.019955826923251152, "pitch": 0.027705354616045952, "yaw": 0.27323222160339355}, "local_position": {"x": -0.5678244233131409, "y": -8.502382278442383, "z": -0.10856282711029053}, "status": {"flags": 33599, "velocity_variance": 0.27306118607521057, "pos_horiz_variance": 0.04260110855102539, "pos_vert_variance": 0.04937269911170006}}, "errors": []}
{"timestamp": "2025-12-28T08:35:05.368529Z", "telemetry": {"lat": 28.7530706, "lon": 77.1177974, "satellites": 7, "altitude_gps_m": 217.489990234375, "groundspeed_mps": 0.3982992172241211}, "flight": {"mode": "STABILIZE", "armed": false}, "ekf": {"attitude": {"roll": 0.020830942317843437, "pitch": 0.028674932196736336, "yaw": 0.27316880226135254}, "local_position": {"x": -1.5047773122787476, "y": -7.891361713409424, "z": -0.1221933364868164}, "status": {"flags": 33599, "velocity_variance": 0.10842201113700867, "pos_horiz_variance": 0.038677167147397995, "pos_vert_variance": 0.057673316448926926}}, "errors": []}
{"timestamp": "2025-12-28T08:35:06.368198Z", "telemetry": {"lat": 28.7530667, "lon": 77.1178031, "satellites": 7, "altitude_gps_m": 217.5, "groundspeed_mps": 0.42769724130630493}, "flight": {"mode": "STABILIZE", "armed": false}, "ekf": {"attitude": {"roll": 0.021033313125371933, "pitch": 0.02867232821881771, "yaw": 0.27296921610832214}, "local_position": {"x": -2.4413342475891113, "y": -7.0753703117370605, "z": -0.11658328771591187}, "status": {"flags": 33599, "velocity_variance": 0.2069081813097, "pos_horiz_variance": 0.030396277084946632, "pos_vert_variance": 0.046476807445287704}}, "errors": []}
{"timestamp": "2025-12-28T08:35:07.368345Z", "telemetry": {"lat": 28.7530636, "lon": 77.1178074, "satellites": 7, "altitude_gps_m": 217.5699920654297, "groundspeed_mps": 0.405642032623291}, "flight": {"mode": "STABILIZE", "armed": false}, "ekf": {"attitude": {"roll": 0.02079932577908039, "pitch": 0.028458574786782265, "yaw": 0.27270862460136414}, "local_position": {"x": -3.011796474456787, "y": -6.594851016998291, "z": -0.18525999784469604}, "status": {"flags": 33599, "velocity_variance": 0.07918012142181396, "pos_horiz_variance": 0.027715852484107018, "pos_vert_variance": 0.04919153079390526}}, "errors": []}
{"timestamp": "2025-12-28T08:35:08.368697Z", "telemetry": {"lat": 28.753062, "lon": 77.117811, "satellites": 7, "altitude_gps_m": 217.62998962402344, "groundspeed_mps": 0.3289772868156433}, "flight": {"mode": "STABILIZE", "armed": false}, "ekf": {"attitude": {"roll": 0.019984807819128036, "pitch": 0.02760915271937847, "yaw": 0.2724798619747162}, "local_position": {"x": -3.277517557144165, "y": -6.236974239349365, "z": -0.2482263445854187}, "status": {"flags": 33599, "velocity_variance": 0.1929503232240677, "pos_horiz_variance": 0.02747245319187641, "pos_vert_variance": 0.014977369457483292}}, "errors": []}
{"timestamp": "2025-12-28T08:35:09.368639Z", "telemetry": {"lat": 28.753057, "lon": 77.1178165, "satellites": 7, "altitude_gps_m": 217.67999267578125, "groundspeed_mps": 0.2808155417442322}, "flight": {"mode": "STABILIZE", "armed": false}, "ekf": {"attitude": {"roll": 0.01970980502665043, "pitch": 0.027151450514793396, "yaw": 0.27231284976005554}, "local_position": {"x": -3.616701126098633, "y": -5.861873626708984, "z": -0.2948409914970398}, "status": {"flags": 33599, "velocity_variance": 0.1305316537618637, "pos_horiz_variance": 0.030690228566527367, "pos_vert_variance": 0.026327895000576973}}, "errors": []}
{"timestamp": "2025-12-28T08:35:10.368660Z", "telemetry": {"lat": 28.7530531, "lon": 77.1178196, "satellites": 7, "altitude_gps_m": 217.67999267578125, "groundspeed_mps": 0.22917884588241577}, "flight": {"mode": "STABILIZE", "armed": false}, "ekf": {"attitude": {"roll": 0.019068660214543343, "pitch": 0.02717752195894718, "yaw": 0.27219462394714355}, "local_position": {"x": -4.070245742797852, "y": -5.554916858673096, "z": -0.2911297678947449}, "status": {"flags": 33599, "velocity_variance": 0.2361285388469696, "pos_horiz_variance": 0.030523521825671196, "pos_vert_variance": 0.026852520182728767}}, "errors": []}
{"timestamp": "2025-12-28T08:35:11.368200Z", "telemetry": {"lat": 28.7530494, "lon": 77.1178222, "satellites": 7, "altitude_gps_m": 217.62998962402344, "groundspeed_mps": 0.18693791329860687}, "flight": {"mode": "STABILIZE", "armed": false}, "ekf": {"attitude": {"roll": 0.01874510571360588, "pitch": 0.027034366503357887, "yaw": 0.2719428241252899}, "local_position": {"x": -4.480321884155273, "y": -5.234646797180176, "z": -0.24424850940704346}, "status": {"flags": 33599, "velocity_variance": 0.14439401030540466, "pos_horiz_variance": 0.03041255474090576, "pos_vert_variance": 0.06228896602988243}}, "errors": ["PreArm: Hardware safety switch"]}
{"timestamp": "2025-12-28T08:35:12.374162Z", "telemetry": {"lat": 28.7530519, "lon": 77.1178223, "satellites": 7, "altitude_gps_m": 217.59999084472656, "groundspeed_mps": 0.15379133820533752}, "flight": {"mode": "STABILIZE", "armed": false}, "ekf": {"attitude": {"roll": 0.01833011955022812, "pitch": 0.026475857943296432, "yaw": 0.2717965543270111}, "local_position": {"x": -4.7066330909729, "y": -4.961561679840088, "z": -0.21096467971801758}, "status": {"flags": 33599, "velocity_variance": 0.10471124202013016, "pos_horiz_variance": 0.023025833070278168, "pos_vert_variance": 0.007772579789161682}}, "errors": ["PreArm: Hardware safety switch"]}
{"timestamp": "2025-12-28T08:35:13.369511Z", "telemetry": {"lat": 28.7530488, "lon": 77.117825, "satellites": 7, "altitude_gps_m": 217.59999084472656, "groundspeed_mps": 0.15212740004062653}, "flight": {"mode": "STABILIZE", "armed": false}, "ekf": {"attitude": {"roll": 0.018305659294128418, "pitch": 0.026525963097810745, "yaw": 0.27164143323898315}, "local_position": {"x": -4.964282989501953, "y": -4.670046329498291, "z": -0.21593081951141357}, "status": {"flags": 33599, "velocity_variance": 0.052058033645153046, "pos_horiz_variance": 0.023526471108198166, "pos_vert_variance": 0.07136306911706924}}, "errors": ["PreArm: Hardware safety switch"]}
{"timestamp": "2025-12-28T08:35:14.370318Z", "telemetry": {"lat": 28.7530457, "lon": 77.117829, "satellites": 7, "altitude_gps_m": 217.67999267578125, "groundspeed_mps": 0.1718745082616806}, "flight": {"mode": "STABILIZE", "armed": false}, "ekf": {"attitude": {"roll": 0.018050840124487877, "pitch": 0.026495929807424545, "yaw": 0.27140185236930847}, "local_position": {"x": -5.147206783294678, "y": -4.392477989196777, "z": -0.2984929084777832}, "status": {"flags": 33599, "velocity_variance": 0.176058828830719, "pos_horiz_variance": 0.027074994519352913, "pos_vert_variance": 0.07532557100057602}}, "errors": ["PreArm: Hardware safety switch"]}
{"timestamp": "2025-12-28T08:35:15.368736Z", "telemetry": {"lat": 28.753042, "lon": 77.1178308, "satellites": 7, "altitude_gps_m": 217.64999389648438, "groundspeed_mps": 0.14891546964645386}, "flight": {"mode": "STABILIZE", "armed": false}, "ekf": {"attitude": {"roll": 0.01827484555542469, "pitch": 0.026821613311767578, "yaw": 0.2712550461292267}, "local_position": {"x": -5.534498691558838, "y": -4.129591464996338, "z": -0.2601972222328186}, "status": {"flags": 33599, "velocity_variance": 0.1469029039144516, "pos_horiz_variance": 0.02643088810145855, "pos_vert_variance": 0.05179891735315323}}, "errors": ["PreArm: Hardware safety switch"]}
{"timestamp": "2025-12-28T08:35:16.368883Z", "telemetry": {"lat": 28.7530444, "lon": 77.1178307, "satellites": 7, "altitude_gps_m": 217.55999755859375, "groundspeed_mps": 0.16881200671195984}, "flight": {"mode": "STABILIZE", "armed": false}, "ekf": {"attitude": {"roll": 0.018539879471063614, "pitch": 0.02667805925011635, "yaw": 0.27097412943840027}, "local_position": {"x": -5.778019428253174, "y": -3.8004817962646484, "z": -0.17521792650222778}, "status": {"flags": 33599, "velocity_variance": 0.10666991770267487, "pos_horiz_variance": 0.018732987344264984, "pos_vert_variance": 0.038303762674331665}}, "errors": ["PreArm: Hardware safety switch"]}
{"timestamp": "2025-12-28T08:35:17.368550Z", "telemetry": {"lat": 28.7530445, "lon": 77.1178295, "satellites": 7, "altitude_gps_m": 217.47999572753906, "groundspeed_mps": 0.18638934195041656}, "flight": {"mode": "STABILIZE", "armed": false}, "ekf": {"attitude": {"roll": 0.018094239756464958, "pitch": 0.026746980845928192, "yaw": 0.27060914039611816}, "local_position": {"x": -5.866285800933838, "y": -3.7145583629608154, "z": -0.09603631496429443}, "status": {"flags": 33599, "velocity_variance": 0.11531592160463333, "pos_horiz_variance": 0.015807105228304863, "pos_vert_variance": 0.10301915556192398}}, "errors": ["PreArm: Hardware safety switch"]}
{"timestamp": "2025-12-28T08:35:18.368392Z", "telemetry": {"lat": 28.7530432, "lon": 77.1178322, "satellites": 7, "altitude_gps_m": 217.61000061035156, "groundspeed_mps": 0.21674343943595886}, "flight": {"mode": "STABILIZE", "armed": false}, "ekf": {"attitude": {"roll": 0.018057160079479218, "pitch": 0.026645038276910782, "yaw": 0.2704901397228241}, "local_position": {"x": -5.930305480957031, "y": -3.605440855026245, "z": -0.22270727157592773}, "status": {"flags": 33599, "velocity_variance": 0.1561334729194641, "pos_horiz_variance": 0.017853448167443275, "pos_vert_variance": 0.06451693177223206}}, "errors": ["PreArm: Hardware safety switch"]}
{"timestamp": "2025-12-28T08:35:19.368485Z", "telemetry": {"lat": 28.7530435, "lon": 77.1178325, "satellites": 7, "altitude_gps_m": 217.55999755859375, "groundspeed_mps": 0.21174928545951843}, "flight": {"mode": "STABILIZE", "armed": false}, "ekf": {"attitude": {"roll": 0.018037814646959305, "pitch": 0.027191974222660065, "yaw": 0.2704277038574219}, "local_position": {"x": -6.092462539672852, "y": -3.5162513256073, "z": -0.17807650566101074}, "status": {"flags": 33599, "velocity_variance": 0.16448231041431427, "pos_horiz_variance": 0.01491995994001627, "pos_vert_variance": 0.07127061486244202}}, "errors": ["PreArm: Hardware safety switch"]}
{"timestamp": "2025-12-28T08:35:20.368566Z", "telemetry": {"lat": 28.7530398, "lon": 77.1178329, "satellites": 7, "altitude_gps_m": 217.72999572753906, "groundspeed_mps": 0.2124471813440323}, "flight": {"mode": "STABILIZE", "armed": false}, "ekf": {"attitude": {"roll": 0.018108459189534187, "pitch": 0.028022995218634605, "yaw": 0.27029311656951904}, "local_position": {"x": -6.241979598999023, "y": -3.4220712184906006, "z": -0.3435368537902832}, "status": {"flags": 33599, "velocity_variance": 0.11913473904132843, "pos_horiz_variance": 0.017740249633789062, "pos_vert_variance": 0.009388663806021214}}, "errors": ["PreArm: Hardware safety switch"]}
{"timestamp": "2025-12-28T08:35:21.368450Z", "telemetry": {"lat": 28.753038, "lon": 77.1178309, "satellites": 7, "altitude_gps_m": 217.75999450683594, "groundspeed_mps": 0.16695114970207214}, "flight": {"mode": "STABILIZE", "armed": false}, "ekf": {"attitude": {"roll": 0.018100567162036896, "pitch": 0.028869574889540672, "yaw": 0.27002397179603577}, "local_position": {"x": -6.596906661987305, "y": -3.463686943054199, "z": -0.3771517276763916}, "status": {"flags": 33599, "velocity_variance": 0.1889744997024536, "pos_horiz_variance": 0.0147355105727911, "pos_vert_variance": 0.0041873701848089695}}, "errors": ["PreArm: Hardware safety switch"]}
{"timestamp": "2025-12-28T08:35:22.368226Z", "telemetry": {"lat": 28.7530371, "lon": 77.1178344, "satellites": 7, "altitude_gps_m": 217.6699981689453, "groundspeed_mps": 0.1779278814792633}, "flight": {"mode": "STABILIZE", "armed": false}, "ekf": {"attitude": {"roll": 0.018412025645375252, "pitch": 0.028753386810421944, "yaw": 0.26989394426345825}, "local_position": {"x": -6.705626487731934, "y": -3.345268964767456, "z": -0.2832767367362976}, "status": {"flags": 33599, "velocity_variance": 0.22305239737033844, "pos_horiz_variance": 0.016401607543230057, "pos_vert_variance": 0.02986009418964386}}, "errors": ["PreArm: Hardware safety switch"]}
