{"timestamp": "2026-01-15T12:47:48.820621Z", "telemetry": {"lat": 28.7530916, "lon": 77.1179092, "satellites": 9, "altitude_gps_m": 229.01998901367188, "groundspeed_mps": 0.02912960946559906}, "flight": {"mode": "STABILIZE", "armed": false}, "ekf": {"attitude": {"roll": 0.045448366552591324, "pitch": -0.004179687704890966, "yaw": -2.017636775970459}, "local_position": {"x": -0.33897122740745544, "y": 2.642355442047119, "z": -16.69624137878418}, "status": {"flags": 33599, "velocity_variance": 0.0777280256152153, "pos_horiz_variance": 0.015651000663638115, "pos_vert_variance": 0.014617319218814373}}, "errors": []}
{"timestamp": "2026-01-15T12:47:49.872703Z", "telemetry": {"lat": 28.7530939, "lon": 77.1179088, "satellites": 10, "altitude_gps_m": 228.92999267578125, "groundspeed_mps": 0.06310354918241501}, "flight": {"mode": "STABILIZE", "armed": false}, "ekf": {"attitude": {"roll": 0.04553926736116409, "pitch": -0.004659912083297968, "yaw": -2.017735242843628}, "local_position": {"x": -0.17320391535758972, "y": 2.397468090057373, "z": -16.621906280517578}, "status": {"flags": 33599, "velocity_variance": 0.15415552258491516, "pos_horiz_variance": 0.016082223504781723, "pos_vert_variance": 0.05539955943822861}}, "errors": ["PreArm: Hardware safety switch", "PreArm: Compasses inconsistent"]}
{"timestamp": "2026-01-15T12:47:50.956835Z", "telemetry": {"lat": 28.7530924, "lon": 77.1179082, "satellites": 9, "altitude_gps_m": 228.89999389648438, "groundspeed_mps": 0.1166996881365776}, "flight": {"mode": "STABILIZE", "armed": false}, "ekf": {"attitude": {"roll": 0.044842809438705444, "pitch": -0.0049193003214895725, "yaw": -2.017801284790039}, "local_position": {"x": -0.2161155641078949, "y": 2.365327835083008, "z": -16.572050094604492}, "status": {"flags": 33599, "velocity_variance": 0.12457872182130814, "pos_horiz_variance": 0.01291204895824194, "pos_vert_variance": 0.00794972013682127}}, "errors": ["PreArm: Hardware safety switch", "PreArm: Compasses inconsistent"]}
{"timestamp": "2026-01-15T12:47:51.998558Z", "telemetry": {"lat": 28.7530938, "lon": 77.1179073, "satellites": 9, "altitude_gps_m": 228.92999267578125, "groundspeed_mps": 0.10890891402959824}, "flight": {"mode": "STABILIZE", "armed": false}, "ekf": {"attitude": {"roll": 0.04594021290540695, "pitch": -0.005273232702165842, "yaw": -2.0179853439331055}, "local_position": {"x": -0.05926676094532013, "y": 2.152224063873291, "z": -16.6041316986084}, "status": {"flags": 33599, "velocity_variance": 0.09652866423130035, "pos_horiz_variance": 0.012927064672112465, "pos_vert_variance": 0.006292092148214579}}, "errors": ["PreArm: Hardware safety switch", "PreArm: Compasses inconsistent"]}
{"timestamp": "2026-01-15T12:47:53.000722Z", "telemetry": {"lat": 28.7530926, "lon": 77.1179061, "satellites": 9, "altitude_gps_m": 228.9099884033203, "groundspeed_mps": 0.1386030614376068}, "flight": {"mode": "STABILIZE", "armed": false}, "ekf": {"attitude": {"roll": 0.045629505068063736, "pitch": -0.005514385644346476, "yaw": -2.018098831176758}, "local_position": {"x": -0.07618512958288193, "y": 2.036635160446167, "z": -16.583162307739258}, "status": {"flags": 33599, "velocity_variance": 0.11405985802412033, "pos_horiz_variance": 0.009964019060134888, "pos_vert_variance": 0.033954720944166183}}, "errors": ["PreArm: Hardware safety switch", "PreArm: Compasses inconsistent"]}
{"timestamp": "2026-01-15T12:47:53.970813Z", "telemetry": {"lat": 28.7530923, "lon": 77.1179031, "satellites": 9, "altitude_gps_m": 228.86000061035156, "groundspeed_mps": 0.1746482402086258}, "flight": {"mode": "STABILIZE", "armed": false}, "ekf": {"attitude": {"roll": 0.04605460539460182, "pitch": -0.005920566152781248, "yaw": -2.01825213432312}, "local_position": {"x": -0.12365058064460754, "y": 1.8755853176116943, "z": -16.55055809020996}, "status": {"flags": 33599, "velocity_variance": 0.09035486727952957, "pos_horiz_variance": 0.011138404719531536, "pos_vert_variance": 0.01049804501235485}}, "errors": ["PreArm: Hardware safety switch", "PreArm: Compasses inconsistent"]}
{"timestamp": "2026-01-15T12:47:54.970667Z", "telemetry": {"lat": 28.7530939, "lon": 77.117906, "satellites": 9, "altitude_gps_m": 228.8300018310547, "groundspeed_mps": 0.1778634935617447}, "flight": {"mode": "STABILIZE", "armed": false}, "ekf": {"attitude": {"roll": 0.0464266762137413, "pitch": -0.005642226431518793, "yaw": -2.018348217010498}, "local_position": {"x": -0.12943126261234283, "y": 1.7853788137435913, "z": -16.505077362060547}, "status": {"flags": 33599, "velocity_variance": 0.15025663375854492, "pos_horiz_variance": 0.01468395721167326, "pos_vert_variance": 0.03770293667912483}}, "errors": ["PreArm: Hardware safety switch", "PreArm: Compasses inconsistent"]}
{"timestamp": "2026-01-15T12:47:55.995440Z", "telemetry": {"lat": 28.7530938, "lon": 77.1179073, "satellites": 9, "altitude_gps_m": 228.9099884033203, "groundspeed_mps": 0.1642695665359497}, "flight": {"mode": "STABILIZE", "armed": false}, "ekf": {"attitude": {"roll": 0.046332065016031265, "pitch": -0.005520822014659643, "yaw": -2.018404722213745}, "local_position": {"x": -0.07674174755811691, "y": 1.796962022781372, "z": -16.582664489746094}, "status": {"flags": 33599, "velocity_variance": 0.07518550753593445, "pos_horiz_variance": 0.014795704744756222, "pos_vert_variance": 0.00591856986284256}}, "errors": ["PreArm: Hardware safety switch", "PreArm: Compasses inconsistent"]}
{"timestamp": "2026-01-15T12:47:56.996006Z", "telemetry": {"lat": 28.7530937, "lon": 77.1179141, "satellites": 9, "altitude_gps_m": 228.89999389648438, "groundspeed_mps": 0.20054955780506134}, "flight": {"mode": "STABILIZE", "armed": false}, "ekf": {"attitude": {"roll": 0.04609577730298042, "pitch": -0.004611549433320761, "yaw": -2.018465757369995}, "local_position": {"x": -0.13889700174331665, "y": 2.064892053604126, "z": -16.587223052978516}, "status": {"flags": 33599, "velocity_variance": 0.10523905605077744, "pos_horiz_variance": 0.021051976829767227, "pos_vert_variance": 0.026695018634200096}}, "errors": ["PreArm: Hardware safety switch", "PreArm: Compasses inconsistent"]}
{"timestamp": "2026-01-15T12:47:57.995558Z", "telemetry": {"lat": 28.7530974, "lon": 77.1179137, "satellites": 9, "altitude_gps_m": 228.95999145507812, "groundspeed_mps": 0.15698853135108948}, "flight": {"mode": "STABILIZE", "armed": false}, "ekf": {"attitude": {"roll": 0.04724881798028946, "pitch": -0.004308579955250025, "yaw": -2.018498420715332}, "local_position": {"x": 0.0008409097790718079, "y": 2.274545907974243, "z": -16.60858154296875}, "status": {"flags": 33599, "velocity_variance": 0.08955448120832443, "pos_horiz_variance": 0.02328726276755333, "pos_vert_variance": 0.0204987321048975}}, "errors": ["PreArm: Hardware safety switch", "PreArm: Compasses inconsistent"]}
{"timestamp": "2026-01-15T12:47:59.000236Z", "telemetry": {"lat": 28.7530988, "lon": 77.1179168, "satellites": 9, "altitude_gps_m": 229.0800018310547, "groundspeed_mps": 0.16295017302036285}, "flight": {"mode": "STABILIZE", "armed": false}, "ekf": {"attitude": {"roll": 0.04762981832027435, "pitch": -0.003760125022381544, "yaw": -2.018587589263916}, "local_position": {"x": 0.21618425846099854, "y": 2.4924800395965576, "z": -16.751298904418945}, "status": {"flags": 33599, "velocity_variance": 0.07591108232736588, "pos_horiz_variance": 0.023792654275894165, "pos_vert_variance": 0.01620425656437874}}, "errors": ["PreArm: Hardware safety switch", "PreArm: Compasses inconsistent"]}
{"timestamp": "2026-01-15T12:47:59.999784Z", "telemetry": {"lat": 28.7531027, "lon": 77.1179169, "satellites": 9, "altitude_gps_m": 229.04998779296875, "groundspeed_mps": 0.17646999657154083}, "flight": {"mode": "STABILIZE", "armed": false}, "ekf": {"attitude": {"roll": 0.048785172402858734, "pitch": -0.002923478838056326, "yaw": -2.0186502933502197}, "local_position": {"x": 0.6205011606216431, "y": 2.6874070167541504, "z": -16.73825454711914}, "status": {"flags": 33599, "velocity_variance": 0.17791959643363953, "pos_horiz_variance": 0.02279595658183098, "pos_vert_variance": 0.024565793573856354}}, "errors": ["PreArm: Hardware safety switch", "PreArm: Compasses inconsistent"]}
{"timestamp": "2026-01-15T12:48:00.999671Z", "telemetry": {"lat": 28.7531011, "lon": 77.1179205, "satellites": 9, "altitude_gps_m": 229.08999633789062, "groundspeed_mps": 0.23301135003566742}, "flight": {"mode": "STABILIZE", "armed": false}, "ekf": {"attitude": {"roll": 0.04860908165574074, "pitch": -0.0027975947596132755, "yaw": -2.0187578201293945}, "local_position": {"x": 0.7206726670265198, "y": 3.0631766319274902, "z": -16.769134521484375}, "status": {"flags": 33599, "velocity_variance": 0.08021658658981323, "pos_horiz_variance": 0.01768086850643158, "pos_vert_variance": 0.06981715559959412}}, "errors": ["PreArm: Hardware safety switch", "PreArm: Compasses inconsistent"]}
{"timestamp": "2026-01-15T12:48:01.978534Z", "telemetry": {"lat": 28.7531004, "lon": 77.1179179, "satellites": 9, "altitude_gps_m": 229.1699981689453, "groundspeed_mps": 0.2180536985397339}, "flight": {"mode": "STABILIZE", "armed": false}, "ekf": {"attitude": {"roll": 0.0492919385433197, "pitch": -0.0031946268863976, "yaw": -2.018786907196045}, "local_position": {"x": 0.7985087037086487, "y": 3.241248607635498, "z": -16.832704544067383}, "status": {"flags": 33599, "velocity_variance": 0.1429673731327057, "pos_horiz_variance": 0.010567005723714828, "pos_vert_variance": 0.008837754838168621}}, "errors": ["PreArm: Hardware safety switch", "PreArm: Compasses inconsistent"]}
{"timestamp": "2026-01-15T12:48:03.003705Z", "telemetry": {"lat": 28.7531002, "lon": 77.1179152, "satellites": 9, "altitude_gps_m": 229.0800018310547, "groundspeed_mps": 0.18697614967823029}, "flight": {"mode": "STABILIZE", "armed": false}, "ekf": {"attitude": {"roll": 0.049742601811885834, "pitch": -0.0036977012641727924, "yaw": -2.018928289413452}, "local_position": {"x": 0.8984830975532532, "y": 3.283984899520874, "z": -16.75139808654785}, "status": {"flags": 33599, "velocity_variance": 0.19051167368888855, "pos_horiz_variance": 0.01132450345903635, "pos_vert_variance": 0.05690266937017441}}, "errors": ["PreArm: Hardware safety switch", "PreArm: Compasses inconsistent"]}
{"timestamp": "2026-01-15T12:48:04.004080Z", "telemetry": {"lat": 28.7530999, "lon": 77.1179108, "satellites": 9, "altitude_gps_m": 229.02999877929688, "groundspeed_mps": 0.05952714756131172}, "flight": {"mode": "STABILIZE", "armed": false}, "ekf": {"attitude": {"roll": 0.05015987530350685, "pitch": -0.005611530039459467, "yaw": -2.0189695358276367}, "local_position": {"x": 0.9471127986907959, "y": 2.9817826747894287, "z": -16.71516227722168}, "status": {"flags": 33599, "velocity_variance": 0.15638089179992676, "pos_horiz_variance": 0.012546581216156483, "pos_vert_variance": 0.0648476704955101}}, "errors": ["PreArm: Hardware safety switch", "PreArm: Compasses inconsistent"]}
{"timestamp": "2026-01-15T12:48:05.003820Z", "telemetry": {"lat": 28.7531009, "lon": 77.1179067, "satellites": 9, "altitude_gps_m": 229.04998779296875, "groundspeed_mps": 0.032005731016397476}, "flight": {"mode": "STABILIZE", "armed": false}, "ekf": {"attitude": {"roll": 0.050823524594306946, "pitch": -0.006583684589713812, "yaw": -2.019104480743408}, "local_position": {"x": 1.0523436069488525, "y": 2.6439552307128906, "z": -16.741165161132812}, "status": {"flags": 33599, "velocity_variance": 0.13172127306461334, "pos_horiz_variance": 0.013366462662816048, "pos_vert_variance": 0.08894695341587067}}, "errors": ["PreArm: Hardware safety switch", "PreArm: Compasses inconsistent"]}
{"timestamp": "2026-01-15T12:48:06.004123Z", "telemetry": {"lat": 28.7530994, "lon": 77.1179017, "satellites": 9, "altitude_gps_m": 229.01998901367188, "groundspeed_mps": 0.141357421875}, "flight": {"mode": "STABILIZE", "armed": false}, "ekf": {"attitude": {"roll": 0.05081186816096306, "pitch": -0.008184514939785004, "yaw": -2.0193209648132324}, "local_position": {"x": 0.9597299695014954, "y": 2.2675304412841797, "z": -16.712575912475586}, "status": {"flags": 33599, "velocity_variance": 0.17606084048748016, "pos_horiz_variance": 0.016963599249720573, "pos_vert_variance": 0.04557083174586296}}, "errors": ["PreArm: Hardware safety switch", "PreArm: Compasses inconsistent"]}
{"timestamp": "2026-01-15T12:48:07.008120Z", "telemetry": {"lat": 28.7531005, "lon": 77.1178994, "satellites": 9, "altitude_gps_m": 229.0, "groundspeed_mps": 0.20804637670516968}, "flight": {"mode": "STABILIZE", "armed": false}, "ekf": {"attitude": {"roll": 0.051713645458221436, "pitch": -0.00872788205742836, "yaw": -2.0194058418273926}, "local_position": {"x": 0.9109714031219482, "y": 1.9234699010849, "z": -16.68690299987793}, "status": {"flags": 33599, "velocity_variance": 0.25357457995414734, "pos_horiz_variance": 0.016502821817994118, "pos_vert_variance": 0.012437649071216583}}, "errors": ["PreArm: Hardware safety switch", "PreArm: Compasses inconsistent"]}
{"timestamp": "2026-01-15T12:48:08.007916Z", "telemetry": {"lat": 28.7530998, "lon": 77.1178926, "satellites": 9, "altitude_gps_m": 229.02999877929688, "groundspeed_mps": 0.32677504420280457}, "flight": {"mode": "STABILIZE", "armed": false}, "ekf": {"attitude": {"roll": 0.05136171728372574, "pitch": -0.010151509195566177, "yaw": -2.0196142196655273}, "local_position": {"x": 0.9971644878387451, "y": 1.3488794565200806, "z": -16.704267501831055}, "status": {"flags": 33599, "velocity_variance": 0.3152157664299011, "pos_horiz_variance": 0.01726146973669529, "pos_vert_variance": 0.03319621458649635}}, "errors": ["PreArm: Hardware safety switch", "PreArm: Compasses inconsistent"]}
{"timestamp": "2026-01-15T12:48:09.007541Z", "telemetry": {"lat": 28.7530965, "lon": 77.1178931, "satellites": 9, "altitude_gps_m": 228.989990234375, "groundspeed_mps": 0.3792288601398468}, "flight": {"mode": "STABILIZE", "armed": false}, "ekf": {"attitude": {"roll": 0.050805721431970596, "pitch": -0.01053076982498169, "yaw": -2.0199389457702637}, "local_position": {"x": 0.7146632671356201, "y": 0.9701462984085083, "z": -16.665122985839844}, "status": {"flags": 33599, "velocity_variance": 0.08651939779520035, "pos_horiz_variance": 0.00785525981336832, "pos_vert_variance": 0.036988429725170135}}, "errors": ["PreArm: Hardware safety switch", "PreArm: Compasses inconsistent"]}
{"timestamp": "2026-01-15T12:48:09.983283Z", "telemetry": {"lat": 28.7530949, "lon": 77.1178869, "satellites": 9, "altitude_gps_m": 228.9099884033203, "groundspeed_mps": 0.45073962211608887}, "flight": {"mode": "STABILIZE", "armed": false}, "ekf": {"attitude": {"roll": 0.05126168951392174, "pitch": -0.01087825745344162, "yaw": -2.0201151371002197}, "local_position": {"x": 0.6116546392440796, "y": 0.49278080463409424, "z": -16.59459686279297}, "status": {"flags": 33599, "velocity_variance": 0.1313830018043518, "pos_horiz_variance": 0.010036583058536053, "pos_vert_variance": 0.0483010858297348}}, "errors": ["PreArm: Hardware safety switch", "PreArm: Compasses inconsistent"]}
{"timestamp": "2026-01-15T12:48:10.986379Z", "telemetry": {"lat": 28.7530956, "lon": 77.1178766, "satellites": 9, "altitude_gps_m": 228.88999938964844, "groundspeed_mps": 0.602705180644989}, "flight": {"mode": "STABILIZE", "armed": false}, "ekf": {"attitude": {"roll": 0.053354982286691666, "pitch": -0.01205519400537014, "yaw": -2.0202369689941406}, "local_position": {"x": 0.7108597159385681, "y": -0.2861650288105011, "z": -16.57453155517578}, "status": {"flags": 33599, "velocity_variance": 0.20707157254219055, "pos_horiz_variance": 0.015515080653131008, "pos_vert_variance": 0.03587429225444794}}, "errors": ["PreArm: Hardware safety switch", "PreArm: Compasses inconsistent"]}
{"timestamp": "2026-01-15T12:48:11.989738Z", "telemetry": {"lat": 28.7530951, "lon": 77.1178758, "satellites": 9, "altitude_gps_m": 228.86000061035156, "groundspeed_mps": 0.6801429986953735}, "flight": {"mode": "STABILIZE", "armed": false}, "ekf": {"attitude": {"roll": 0.052971791476011276, "pitch": -0.011942006647586823, "yaw": -2.0205016136169434}, "local_position": {"x": 0.7643750309944153, "y": -1.1285994052886963, "z": -16.531761169433594}, "status": {"flags": 33599, "velocity_variance": 0.3956592381000519, "pos_horiz_variance": 0.003250490641221404, "pos_vert_variance": 0.09153299778699875}}, "errors": ["PreArm: Hardware safety switch", "PreArm: Compasses inconsistent"]}
{"timestamp": "2026-01-15T12:48:12.989747Z", "telemetry": {"lat": 28.7530927, "lon": 77.117876, "satellites": 9, "altitude_gps_m": 228.83999633789062, "groundspeed_mps": 0.6397647261619568}, "flight": {"mode": "STABILIZE", "armed": false}, "ekf": {"attitude": {"roll": 0.052018508315086365, "pitch": -0.011108102276921272, "yaw": -2.0206689834594727}, "local_position": {"x": 0.5562465190887451, "y": -1.4741263389587402, "z": -16.53474235534668}, "status": {"flags": 33599, "velocity_variance": 0.33122190833091736, "pos_horiz_variance": 0.011280138045549393, "pos_vert_variance": 0.024823229759931564}}, "errors": ["PreArm: Hardware safety switch", "PreArm: Compasses inconsistent"]}
{"timestamp": "2026-01-15T12:48:14.012866Z", "telemetry": {"lat": 28.7530925, "lon": 77.1178776, "satellites": 9, "altitude_gps_m": 228.88999938964844, "groundspeed_mps": 0.5968807935714722}, "flight": {"mode": "STABILIZE", "armed": false}, "ekf": {"attitude": {"roll": 0.051915328949689865, "pitch": -0.010104751214385033, "yaw": -2.020814895629883}, "local_position": {"x": 0.3338358998298645, "y": -1.65297532081604, "z": -16.56546974182129}, "status": {"flags": 33599, "velocity_variance": 0.22128047049045563, "pos_horiz_variance": 0.018930962309241295, "pos_vert_variance": 0.03794929385185242}}, "errors": ["PreArm: Hardware safety switch", "PreArm: Compasses inconsistent"]}
{"timestamp": "2026-01-15T12:48:15.016296Z", "telemetry": {"lat": 28.7530893, "lon": 77.1178767, "satellites": 9, "altitude_gps_m": 228.94000244140625, "groundspeed_mps": 0.5663281679153442}, "flight": {"mode": "STABILIZE", "armed": false}, "ekf": {"attitude": {"roll": 0.05094224959611893, "pitch": -0.009122353047132492, "yaw": -2.020934581756592}, "local_position": {"x": 0.22519434988498688, "y": -1.9011307954788208, "z": -16.616592407226562}, "status": {"flags": 33599, "velocity_variance": 0.2632743716239929, "pos_horiz_variance": 0.023549744859337807, "pos_vert_variance": 0.0030001166742295027}}, "errors": ["PreArm: Hardware safety switch", "PreArm: Compasses inconsistent"]}
{"timestamp": "2026-01-15T12:48:15.991828Z", "telemetry": {"lat": 28.7530893, "lon": 77.1178774, "satellites": 8, "altitude_gps_m": 229.0, "groundspeed_mps": 0.4833505153656006}, "flight": {"mode": "STABILIZE", "armed": false}, "ekf": {"attitude": {"roll": 0.05073383450508118, "pitch": -0.007940957322716713, "yaw": -2.0209250450134277}, "local_position": {"x": 0.06787247955799103, "y": -1.9796825647354126, "z": -16.66061019897461}, "status": {"flags": 33599, "velocity_variance": 0.14850401878356934, "pos_horiz_variance": 0.026715029031038284, "pos_vert_variance": 0.03789526969194412}}, "errors": ["PreArm: Hardware safety switch", "PreArm: Compasses inconsistent"]}
{"timestamp": "2026-01-15T12:48:16.992867Z", "telemetry": {"lat": 28.7530884, "lon": 77.1178781, "satellites": 8, "altitude_gps_m": 229.05999755859375, "groundspeed_mps": 0.4167707562446594}, "flight": {"mode": "STABILIZE", "armed": false}, "ekf": {"attitude": {"roll": 0.05074787139892578, "pitch": -0.0068297176621854305, "yaw": -2.020939826965332}, "local_position": {"x": -0.04645850881934166, "y": -1.9764381647109985, "z": -16.732866287231445}, "status": {"flags": 33599, "velocity_variance": 0.15387088060379028, "pos_horiz_variance": 0.027928419411182404, "pos_vert_variance": 0.038872621953487396}}, "errors": ["PreArm: Hardware safety switch", "PreArm: Compasses inconsistent"]}
{"timestamp": "2026-01-15T12:48:17.991616Z", "telemetry": {"lat": 28.7530907, "lon": 77.1178779, "satellites": 8, "altitude_gps_m": 229.0399932861328, "groundspeed_mps": 0.31815579533576965}, "flight": {"mode": "STABILIZE", "armed": false}, "ekf": {"attitude": {"roll": 0.050972335040569305, "pitch": -0.005535538773983717, "yaw": -2.0210065841674805}, "local_position": {"x": 0.002302836626768112, "y": -1.9079806804656982, "z": -16.715961456298828}, "status": {"flags": 33599, "velocity_variance": 0.23693124949932098, "pos_horiz_variance": 0.02575216256082058, "pos_vert_variance": 0.0008981841965578496}}, "errors": ["PreArm: Hardware safety switch", "PreArm: Compasses inconsistent"]}
{"timestamp": "2026-01-15T12:48:18.992672Z", "telemetry": {"lat": 28.7530861, "lon": 77.1178834, "satellites": 8, "altitude_gps_m": 229.14999389648438, "groundspeed_mps": 0.22115592658519745}, "flight": {"mode": "STABILIZE", "armed": false}, "ekf": {"attitude": {"roll": 0.04955126345157623, "pitch": -0.004208072554320097, "yaw": -2.021008014678955}, "local_position": {"x": -0.015090994536876678, "y": -1.8443137407302856, "z": -16.83824920654297}, "status": {"flags": 33599, "velocity_variance": 0.8246124386787415, "pos_horiz_variance": 0.036192409694194794, "pos_vert_variance": 0.011086651124060154}}, "errors": ["PreArm: Hardware safety switch", "PreArm: Compasses inconsistent", "PreArm: Hardware safety switch", "PreArm: Compasses inconsistent"]}
{"timestamp": "2026-01-15T12:48:19.996978Z", "telemetry": {"lat": 28.7530816, "lon": 77.1178932, "satellites": 9, "altitude_gps_m": 229.13999938964844, "groundspeed_mps": 0.19005057215690613}, "flight": {"mode": "STABILIZE", "armed": false}, "ekf": {"attitude": {"roll": 0.04840736463665962, "pitch": -0.002767599653452635, "yaw": -2.021012306213379}, "local_position": {"x": -0.4880968928337097, "y": -1.3775750398635864, "z": -16.82699203491211}, "status": {"flags": 33599, "velocity_variance": 0.23216134309768677, "pos_horiz_variance": 0.04627979174256325, "pos_vert_variance": 0.00035196446697227657}}, "errors": ["PreArm: Hardware safety switch", "PreArm: Compasses inconsistent", "PreArm: Hardware safety switch", "PreArm: Compasses inconsistent"]}
{"timestamp": "2026-01-15T12:48:20.996327Z", "telemetry": {"lat": 28.7530823, "lon": 77.1179063, "satellites": 9, "altitude_gps_m": 229.14999389648438, "groundspeed_mps": 0.2352849841117859}, "flight": {"mode": "STABILIZE", "armed": false}, "ekf": {"attitude": {"roll": 0.04750186949968338, "pitch": -9.788293391466141e-05, "yaw": -2.020998001098633}, "local_position": {"x": -0.6715751886367798, "y": -0.49244576692581177, "z": -16.822940826416016}, "status": {"flags": 33599, "velocity_variance": 0.1633276641368866, "pos_horiz_variance": 0.05403649061918259, "pos_vert_variance": 0.027193821966648102}}, "errors": ["PreArm: Hardware safety switch", "PreArm: Compasses inconsistent", "PreArm: Hardware safety switch", "PreArm: Compasses inconsistent"]}
{"timestamp": "2026-01-15T12:48:21.992912Z", "telemetry": {"lat": 28.7530815, "lon": 77.1179109, "satellites": 10, "altitude_gps_m": 229.22000122070312, "groundspeed_mps": 0.41431131958961487}, "flight": {"mode": "STABILIZE", "armed": false}, "ekf": {"attitude": {"roll": 0.04796717315912247, "pitch": 0.0009276000782847404, "yaw": -2.0209760665893555}, "local_position": {"x": -0.7951743602752686, "y": 0.5515265464782715, "z": -16.862442016601562}, "status": {"flags": 33599, "velocity_variance": 0.29191920161247253, "pos_horiz_variance": 0.04432617872953415, "pos_vert_variance": 0.1255667805671692}}, "errors": ["PreArm: Hardware safety switch", "PreArm: Compasses inconsistent", "PreArm: Hardware safety switch", "PreArm: Compasses inconsistent"]}
{"timestamp": "2026-01-15T12:48:23.025387Z", "telemetry": {"lat": 28.7530892, "lon": 77.1179082, "satellites": 10, "altitude_gps_m": 229.25, "groundspeed_mps": 0.3813819885253906}, "flight": {"mode": "STABILIZE", "armed": false}, "ekf": {"attitude": {"roll": 0.051118154078722, "pitch": 0.0011477740481495857, "yaw": -2.021109104156494}, "local_position": {"x": -0.35624590516090393, "y": 0.9634596109390259, "z": -16.9132137298584}, "status": {"flags": 33599, "velocity_variance": 0.6434517502784729, "pos_horiz_variance": 0.0313105583190918, "pos_vert_variance": 0.028629958629608154}}, "errors": ["PreArm: Hardware safety switch", "PreArm: Compasses inconsistent", "PreArm: Hardware safety switch", "PreArm: Compasses inconsistent"]}
