{"timestamp": "2026-01-07T16:09:22.061743Z", "telemetry": {"lat": 28.7530929, "lon": 77.1178285, "satellites": 6, "altitude_gps_m": 228.92999267578125, "groundspeed_mps": 0.017398936673998833}, "flight": {"mode": null, "armed": null}, "ekf": {"attitude": {"roll": 0.01733499951660633, "pitch": -0.03369320183992386, "yaw": -1.5809285640716553}, "local_position": {"x": null, "y": null, "z": null}, "status": {"flags": 135, "velocity_variance": 0.0, "pos_horiz_variance": 0.0053970590233802795, "pos_vert_variance": 0.0019305108580738306}}, "errors": []}
{"timestamp": "2026-01-07T16:09:23.011618Z", "telemetry": {"lat": 28.753106, "lon": 77.1178226, "satellites": 6, "altitude_gps_m": 224.83999633789062, "groundspeed_mps": 0.013057610020041466}, "flight": {"mode": "STABILIZE", "armed": false}, "ekf": {"attitude": {"roll": 0.0174796711653471, "pitch": -0.033745359629392624, "yaw": -1.5809603929519653}, "local_position": {"x": null, "y": null, "z": null}, "status": {"flags": 135, "velocity_variance": 0.0, "pos_horiz_variance": 0.004853937309235334, "pos_vert_variance": 0.08794698864221573}}, "errors": []}
{"timestamp": "2026-01-07T16:09:23.961189Z", "telemetry": {"lat": 28.7531312, "lon": 77.1178217, "satellites": 6, "altitude_gps_m": 220.47000122070312, "groundspeed_mps": 0.01138396468013525}, "flight": {"mode": "STABILIZE", "armed": false}, "ekf": {"attitude": {"roll": 0.01740357093513012, "pitch": -0.033811166882514954, "yaw": -1.5812292098999023}, "local_position": {"x": null, "y": null, "z": null}, "status": {"flags": 135, "velocity_variance": 0.0, "pos_horiz_variance": 0.003981215413659811, "pos_vert_variance": 0.06591851264238358}}, "errors": []}
{"timestamp": "2026-01-07T16:09:24.911744Z", "telemetry": {"lat": 28.7531485, "lon": 77.117823, "satellites": 6, "altitude_gps_m": 216.8699951171875, "groundspeed_mps": 0.012059789150953293}, "flight": {"mode": "STABILIZE", "armed": false}, "ekf": {"attitude": {"roll": 0.017422223463654518, "pitch": -0.03383056819438934, "yaw": -1.5810896158218384}, "local_position": {"x": null, "y": null, "z": null}, "status": {"flags": 135, "velocity_variance": 0.0, "pos_horiz_variance": 0.0035886059049516916, "pos_vert_variance": 0.01475298311561346}}, "errors": ["PreArm: Hardware safety switch"]}
{"timestamp": "2026-01-07T16:09:25.897447Z", "telemetry": {"lat": 28.753162, "lon": 77.1178119, "satellites": 6, "altitude_gps_m": 212.29998779296875, "groundspeed_mps": 0.011903279460966587}, "flight": {"mode": "STABILIZE", "armed": false}, "ekf": {"attitude": {"roll": 0.017540080472826958, "pitch": -0.0338631235063076, "yaw": -1.5807225704193115}, "local_position": {"x": null, "y": null, "z": null}, "status": {"flags": 135, "velocity_variance": 0.0, "pos_horiz_variance": 0.0035020115319639444, "pos_vert_variance": 0.011204635724425316}}, "errors": ["PreArm: Hardware safety switch"]}
{"timestamp": "2026-01-07T16:09:26.897737Z", "telemetry": {"lat": 28.7531712, "lon": 77.1178142, "satellites": 6, "altitude_gps_m": 207.59999084472656, "groundspeed_mps": 0.012661298736929893}, "flight": {"mode": "STABILIZE", "armed": false}, "ekf": {"attitude": {"roll": 0.017523914575576782, "pitch": -0.03398603945970535, "yaw": -1.580625057220459}, "local_position": {"x": null, "y": null, "z": null}, "status": {"flags": 135, "velocity_variance": 0.0, "pos_horiz_variance": 0.0034977670293301344, "pos_vert_variance": 0.009696128778159618}}, "errors": ["PreArm: Hardware safety switch"]}
{"timestamp": "2026-01-07T16:09:27.896876Z", "telemetry": {"lat": 28.7531871, "lon": 77.1178123, "satellites": 5, "altitude_gps_m": 204.239990234375, "groundspeed_mps": 0.014706000685691833}, "flight": {"mode": "STABILIZE", "armed": false}, "ekf": {"attitude": {"roll": 0.016824159771203995, "pitch": -0.03507286310195923, "yaw": -1.5812695026397705}, "local_position": {"x": null, "y": null, "z": null}, "status": {"flags": 135, "velocity_variance": 0.0, "pos_horiz_variance": 0.003621588461101055, "pos_vert_variance": 0.014616002328693867}}, "errors": ["PreArm: Hardware safety switch"]}
{"timestamp": "2026-01-07T16:09:28.897713Z", "telemetry": {"lat": 28.7532022, "lon": 77.1178025, "satellites": 5, "altitude_gps_m": 200.22000122070312, "groundspeed_mps": 0.011031038127839565}, "flight": {"mode": "STABILIZE", "armed": false}, "ekf": {"attitude": {"roll": 0.017095018178224564, "pitch": -0.03482947498559952, "yaw": -1.5807267427444458}, "local_position": {"x": null, "y": null, "z": null}, "status": {"flags": 135, "velocity_variance": 0.0, "pos_horiz_variance": 0.0035077822394669056, "pos_vert_variance": 0.011307899840176105}}, "errors": ["PreArm: Hardware safety switch"]}
{"timestamp": "2026-01-07T16:09:29.897442Z", "telemetry": {"lat": 28.7532146, "lon": 77.1177972, "satellites": 5, "altitude_gps_m": 197.42999267578125, "groundspeed_mps": 0.009209057316184044}, "flight": {"mode": "STABILIZE", "armed": false}, "ekf": {"attitude": {"roll": 0.017851319164037704, "pitch": -0.03391830623149872, "yaw": -1.58065927028656}, "local_position": {"x": null, "y": null, "z": null}, "status": {"flags": 135, "velocity_variance": 0.0, "pos_horiz_variance": 0.0028613817412406206, "pos_vert_variance": 0.061588846147060394}}, "errors": ["PreArm: Hardware safety switch"]}
{"timestamp": "2026-01-07T16:09:30.896929Z", "telemetry": {"lat": 28.7532158, "lon": 77.1177937, "satellites": 6, "altitude_gps_m": 197.0800018310547, "groundspeed_mps": 0.007912009954452515}, "flight": {"mode": "STABILIZE", "armed": false}, "ekf": {"attitude": {"roll": 0.017892049625515938, "pitch": -0.03403453156352043, "yaw": -1.5808953046798706}, "local_position": {"x": null, "y": null, "z": null}, "status": {"flags": 135, "velocity_variance": 0.0, "pos_horiz_variance": 0.002532591810449958, "pos_vert_variance": 0.015087699517607689}}, "errors": ["PreArm: Hardware safety switch"]}
{"timestamp": "2026-01-07T16:09:31.897361Z", "telemetry": {"lat": 28.7532268, "lon": 77.1177993, "satellites": 6, "altitude_gps_m": 195.0500030517578, "groundspeed_mps": 0.009841601364314556}, "flight": {"mode": "STABILIZE", "armed": false}, "ekf": {"attitude": {"roll": 0.018002886325120926, "pitch": -0.03401629999279976, "yaw": -1.5807065963745117}, "local_position": {"x": null, "y": null, "z": null}, "status": {"flags": 135, "velocity_variance": 0.0, "pos_horiz_variance": 0.0024853560607880354, "pos_vert_variance": 0.04215753450989723}}, "errors": ["PreArm: Hardware safety switch"]}
{"timestamp": "2026-01-07T16:09:32.896977Z", "telemetry": {"lat": 28.7532332, "lon": 77.117798, "satellites": 6, "altitude_gps_m": 194.0800018310547, "groundspeed_mps": 0.006910066585987806}, "flight": {"mode": "STABILIZE", "armed": false}, "ekf": {"attitude": {"roll": 0.01799427531659603, "pitch": -0.03392855077981949, "yaw": -1.5808340311050415}, "local_position": {"x": null, "y": null, "z": null}, "status": {"flags": 135, "velocity_variance": 0.0, "pos_horiz_variance": 0.0023566277232021093, "pos_vert_variance": 0.04229797422885895}}, "errors": ["PreArm: Hardware safety switch"]}
{"timestamp": "2026-01-07T16:09:33.897553Z", "telemetry": {"lat": 28.7532411, "lon": 77.1178035, "satellites": 7, "altitude_gps_m": 192.11000061035156, "groundspeed_mps": 0.007249296177178621}, "flight": {"mode": "STABILIZE", "armed": false}, "ekf": {"attitude": {"roll": 0.018167633563280106, "pitch": -0.0338725820183754, "yaw": -1.5808378458023071}, "local_position": {"x": null, "y": null, "z": null}, "status": {"flags": 135, "velocity_variance": 0.0, "pos_horiz_variance": 0.0020590173080563545, "pos_vert_variance": 0.052845392376184464}}, "errors": ["PreArm: Hardware safety switch"]}
{"timestamp": "2026-01-07T16:09:34.896970Z", "telemetry": {"lat": 28.7532406, "lon": 77.1178105, "satellites": 7, "altitude_gps_m": 192.75999450683594, "groundspeed_mps": 0.004678018391132355}, "flight": {"mode": "STABILIZE", "armed": false}, "ekf": {"attitude": {"roll": 0.018246177583932877, "pitch": -0.033747658133506775, "yaw": -1.580649971961975}, "local_position": {"x": null, "y": null, "z": null}, "status": {"flags": 135, "velocity_variance": 0.0, "pos_horiz_variance": 0.0018131802789866924, "pos_vert_variance": 0.00831453688442707}}, "errors": ["PreArm: Hardware safety switch"]}
{"timestamp": "2026-01-07T16:09:35.897378Z", "telemetry": {"lat": 28.7532477, "lon": 77.117819, "satellites": 7, "altitude_gps_m": 191.05999755859375, "groundspeed_mps": 0.0047079091891646385}, "flight": {"mode": "STABILIZE", "armed": false}, "ekf": {"attitude": {"roll": 0.018172718584537506, "pitch": -0.033838000148534775, "yaw": -1.5806574821472168}, "local_position": {"x": null, "y": null, "z": null}, "status": {"flags": 135, "velocity_variance": 0.0, "pos_horiz_variance": 0.001628229976631701, "pos_vert_variance": 0.029615454375743866}}, "errors": ["PreArm: Hardware safety switch"]}
{"timestamp": "2026-01-07T16:09:36.897406Z", "telemetry": {"lat": 28.7532369, "lon": 77.1178213, "satellites": 6, "altitude_gps_m": 192.59999084472656, "groundspeed_mps": 0.006093963049352169}, "flight": {"mode": "STABILIZE", "armed": false}, "ekf": {"attitude": {"roll": 0.018175378441810608, "pitch": -0.03376824036240578, "yaw": -1.580574870109558}, "local_position": {"x": null, "y": null, "z": null}, "status": {"flags": 135, "velocity_variance": 0.0, "pos_horiz_variance": 0.0014723355416208506, "pos_vert_variance": 0.01397076528519392}}, "errors": ["PreArm: Hardware safety switch"]}
{"timestamp": "2026-01-07T16:09:37.897568Z", "telemetry": {"lat": 28.7532237, "lon": 77.1178197, "satellites": 6, "altitude_gps_m": 194.20999145507812, "groundspeed_mps": 0.0070466347970068455}, "flight": {"mode": "STABILIZE", "armed": false}, "ekf": {"attitude": {"roll": 0.018202418461441994, "pitch": -0.03380529209971428, "yaw": -1.5805445909500122}, "local_position": {"x": null, "y": null, "z": null}, "status": {"flags": 135, "velocity_variance": 0.0, "pos_horiz_variance": 0.0015709358267486095, "pos_vert_variance": 0.010756387375295162}}, "errors": ["PreArm: Hardware safety switch"]}
{"timestamp": "2026-01-07T16:09:38.896748Z", "telemetry": {"lat": 28.7532194, "lon": 77.1178227, "satellites": 6, "altitude_gps_m": 194.55999755859375, "groundspeed_mps": 0.007222956512123346}, "flight": {"mode": "STABILIZE", "armed": false}, "ekf": {"attitude": {"roll": 0.018237730488181114, "pitch": -0.033697742968797684, "yaw": -1.5806020498275757}, "local_position": {"x": null, "y": null, "z": null}, "status": {"flags": 135, "velocity_variance": 0.0, "pos_horiz_variance": 0.0017775726737454534, "pos_vert_variance": 0.028251562267541885}}, "errors": ["PreArm: Hardware safety switch"]}
{"timestamp": "2026-01-07T16:09:39.897503Z", "telemetry": {"lat": 28.753214, "lon": 77.1178214, "satellites": 6, "altitude_gps_m": 196.2899932861328, "groundspeed_mps": 0.007502138148993254}, "flight": {"mode": "STABILIZE", "armed": false}, "ekf": {"attitude": {"roll": 0.018240323290228844, "pitch": -0.033654093742370605, "yaw": -1.5806405544281006}, "local_position": {"x": null, "y": null, "z": null}, "status": {"flags": 135, "velocity_variance": 0.0, "pos_horiz_variance": 0.0019756341353058815, "pos_vert_variance": 0.0775868222117424}}, "errors": ["PreArm: Hardware safety switch"]}
{"timestamp": "2026-01-07T16:09:40.897212Z", "telemetry": {"lat": 28.753208, "lon": 77.1178137, "satellites": 6, "altitude_gps_m": 196.09999084472656, "groundspeed_mps": 0.00574959022924304}, "flight": {"mode": "STABILIZE", "armed": false}, "ekf": {"attitude": {"roll": 0.018109440803527832, "pitch": -0.033598706126213074, "yaw": -1.5807617902755737}, "local_position": {"x": null, "y": null, "z": null}, "status": {"flags": 135, "velocity_variance": 0.0, "pos_horiz_variance": 0.0018531244713813066, "pos_vert_variance": 0.0051634302362799644}}, "errors": ["PreArm: Hardware safety switch"]}
{"timestamp": "2026-01-07T16:09:41.897203Z", "telemetry": {"lat": 28.753199, "lon": 77.1177983, "satellites": 6, "altitude_gps_m": 197.5500030517578, "groundspeed_mps": 0.006896929815411568}, "flight": {"mode": "STABILIZE", "armed": false}, "ekf": {"attitude": {"roll": 0.018143052235245705, "pitch": -0.03369881585240364, "yaw": -1.580634593963623}, "local_position": {"x": null, "y": null, "z": null}, "status": {"flags": 135, "velocity_variance": 0.0, "pos_horiz_variance": 0.001784331165254116, "pos_vert_variance": 0.04926328733563423}}, "errors": ["PreArm: Hardware safety switch"]}
{"timestamp": "2026-01-07T16:09:42.897202Z", "telemetry": {"lat": 28.7531999, "lon": 77.1177981, "satellites": 6, "altitude_gps_m": 196.84999084472656, "groundspeed_mps": 0.0063660768792033195}, "flight": {"mode": "STABILIZE", "armed": false}, "ekf": {"attitude": {"roll": 0.018293950706720352, "pitch": -0.033738959580659866, "yaw": -1.580539584159851}, "local_position": {"x": null, "y": null, "z": null}, "status": {"flags": 135, "velocity_variance": 0.0, "pos_horiz_variance": 0.0017924231942743063, "pos_vert_variance": 0.015615157783031464}}, "errors": ["PreArm: Hardware safety switch"]}
{"timestamp": "2026-01-07T16:09:43.897634Z", "telemetry": {"lat": 28.7531948, "lon": 77.1177942, "satellites": 6, "altitude_gps_m": 197.1699981689453, "groundspeed_mps": 0.006009254604578018}, "flight": {"mode": "STABILIZE", "armed": false}, "ekf": {"attitude": {"roll": 0.0182010717689991, "pitch": -0.03373995050787926, "yaw": -1.5806037187576294}, "local_position": {"x": null, "y": null, "z": null}, "status": {"flags": 135, "velocity_variance": 0.0, "pos_horiz_variance": 0.0018231418216601014, "pos_vert_variance": 0.03800453990697861}}, "errors": ["PreArm: Hardware safety switch"]}
{"timestamp": "2026-01-07T16:09:44.897440Z", "telemetry": {"lat": 28.7531858, "lon": 77.1178013, "satellites": 6, "altitude_gps_m": 199.33999633789062, "groundspeed_mps": 0.005875484552234411}, "flight": {"mode": "STABILIZE", "armed": false}, "ekf": {"attitude": {"roll": 0.01820523850619793, "pitch": -0.03372097387909889, "yaw": -1.5806539058685303}, "local_position": {"x": null, "y": null, "z": null}, "status": {"flags": 135, "velocity_variance": 0.0, "pos_horiz_variance": 0.0017234634142369032, "pos_vert_variance": 0.005861747544258833}}, "errors": ["PreArm: Hardware safety switch"]}
{"timestamp": "2026-01-07T16:09:45.897412Z", "telemetry": {"lat": 28.753182, "lon": 77.1178028, "satellites": 5, "altitude_gps_m": 200.05999755859375, "groundspeed_mps": 0.004380338359624147}, "flight": {"mode": "STABILIZE", "armed": false}, "ekf": {"attitude": {"roll": 0.01803864911198616, "pitch": -0.03367497771978378, "yaw": -1.5810028314590454}, "local_position": {"x": null, "y": null, "z": null}, "status": {"flags": 135, "velocity_variance": 0.0, "pos_horiz_variance": 0.0015888740308582783, "pos_vert_variance": 0.0007047730032354593}}, "errors": ["PreArm: Hardware safety switch"]}
{"timestamp": "2026-01-07T16:09:46.897312Z", "telemetry": {"lat": 28.7531784, "lon": 77.1178159, "satellites": 5, "altitude_gps_m": 200.08999633789062, "groundspeed_mps": 0.0016913821455091238}, "flight": {"mode": "STABILIZE", "armed": false}, "ekf": {"attitude": {"roll": 0.018066702410578728, "pitch": -0.033576469868421555, "yaw": -1.58094322681427}, "local_position": {"x": null, "y": null, "z": null}, "status": {"flags": 135, "velocity_variance": 0.0, "pos_horiz_variance": 0.0010812104446813464, "pos_vert_variance": 0.05869262292981148}}, "errors": ["PreArm: Hardware safety switch"]}
{"timestamp": "2026-01-07T16:09:47.897093Z", "telemetry": {"lat": 28.7531723, "lon": 77.1178218, "satellites": 5, "altitude_gps_m": 200.4099884033203, "groundspeed_mps": 0.00424405699595809}, "flight": {"mode": "STABILIZE", "armed": false}, "ekf": {"attitude": {"roll": 0.017994511872529984, "pitch": -0.03351536765694618, "yaw": -1.5807757377624512}, "local_position": {"x": null, "y": null, "z": null}, "status": {"flags": 135, "velocity_variance": 0.0, "pos_horiz_variance": 0.0009334638016298413, "pos_vert_variance": 0.08325814455747604}}, "errors": ["PreArm: Hardware safety switch"]}
{"timestamp": "2026-01-07T16:09:48.897697Z", "telemetry": {"lat": 28.7531769, "lon": 77.1178175, "satellites": 5, "altitude_gps_m": 200.94000244140625, "groundspeed_mps": 0.005601869430392981}, "flight": {"mode": "STABILIZE", "armed": false}, "ekf": {"attitude": {"roll": 0.017980225384235382, "pitch": -0.03339848667383194, "yaw": -1.5808193683624268}, "local_position": {"x": null, "y": null, "z": null}, "status": {"flags": 135, "velocity_variance": 0.0, "pos_horiz_variance": 0.0010033085709437728, "pos_vert_variance": 0.008081710897386074}}, "errors": ["PreArm: Hardware safety switch"]}
{"timestamp": "2026-01-07T16:09:49.897670Z", "telemetry": {"lat": 28.7531659, "lon": 77.1178129, "satellites": 6, "altitude_gps_m": 202.4099884033203, "groundspeed_mps": 0.005241129547357559}, "flight": {"mode": "STABILIZE", "armed": false}, "ekf": {"attitude": {"roll": 0.018088802695274353, "pitch": -0.03338855504989624, "yaw": -1.5806301832199097}, "local_position": {"x": null, "y": null, "z": null}, "status": {"flags": 135, "velocity_variance": 0.0, "pos_horiz_variance": 0.00142095354385674, "pos_vert_variance": 0.022938109934329987}}, "errors": ["PreArm: Hardware safety switch"]}
{"timestamp": "2026-01-07T16:09:50.897394Z", "telemetry": {"lat": 28.7531625, "lon": 77.1178032, "satellites": 6, "altitude_gps_m": 203.77999877929688, "groundspeed_mps": 0.006266769953072071}, "flight": {"mode": "STABILIZE", "armed": false}, "ekf": {"attitude": {"roll": 0.018165625631809235, "pitch": -0.0333511084318161, "yaw": -1.5805641412734985}, "local_position": {"x": null, "y": null, "z": null}, "status": {"flags": 135, "velocity_variance": 0.0, "pos_horiz_variance": 0.00125812366604805, "pos_vert_variance": 0.0367007851600647}}, "errors": ["PreArm: Hardware safety switch"]}
{"timestamp": "2026-01-07T16:09:51.897701Z", "telemetry": {"lat": 28.7531628, "lon": 77.1178, "satellites": 6, "altitude_gps_m": 203.13999938964844, "groundspeed_mps": 0.006279250141233206}, "flight": {"mode": "STABILIZE", "armed": false}, "ekf": {"attitude": {"roll": 0.01817832514643669, "pitch": -0.03330443054437637, "yaw": -1.5804067850112915}, "local_position": {"x": null, "y": null, "z": null}, "status": {"flags": 135, "velocity_variance": 0.0, "pos_horiz_variance": 0.0014161242870613933, "pos_vert_variance": 0.026040734723210335}}, "errors": ["PreArm: Hardware safety switch"]}
{"timestamp": "2026-01-07T16:09:52.897523Z", "telemetry": {"lat": 28.7531604, "lon": 77.1177933, "satellites": 6, "altitude_gps_m": 202.67999267578125, "groundspeed_mps": 0.006178895477205515}, "flight": {"mode": "STABILIZE", "armed": false}, "ekf": {"attitude": {"roll": 0.018156763166189194, "pitch": -0.03338606283068657, "yaw": -1.5804712772369385}, "local_position": {"x": null, "y": null, "z": null}, "status": {"flags": 135, "velocity_variance": 0.0, "pos_horiz_variance": 0.0015450998907908797, "pos_vert_variance": 0.0245534498244524}}, "errors": ["PreArm: Hardware safety switch"]}
{"timestamp": "2026-01-07T16:09:53.896885Z", "telemetry": {"lat": 28.7531595, "lon": 77.1177855, "satellites": 6, "altitude_gps_m": 203.38999938964844, "groundspeed_mps": 0.002368929563090205}, "flight": {"mode": "STABILIZE", "armed": false}, "ekf": {"attitude": {"roll": 0.018148593604564667, "pitch": -0.03349033370614052, "yaw": -1.5805994272232056}, "local_position": {"x": null, "y": null, "z": null}, "status": {"flags": 135, "velocity_variance": 0.0, "pos_horiz_variance": 0.0015721393283456564, "pos_vert_variance": 0.003020957577973604}}, "errors": ["PreArm: Hardware safety switch"]}
{"timestamp": "2026-01-07T16:09:54.896809Z", "telemetry": {"lat": 28.7531545, "lon": 77.1177887, "satellites": 6, "altitude_gps_m": 203.50999450683594, "groundspeed_mps": 0.0011206000344827771}, "flight": {"mode": "STABILIZE", "armed": false}, "ekf": {"attitude": {"roll": 0.018105968832969666, "pitch": -0.03345383703708649, "yaw": -1.5806779861450195}, "local_position": {"x": null, "y": null, "z": null}, "status": {"flags": 135, "velocity_variance": 0.0, "pos_horiz_variance": 0.0009618635522201657, "pos_vert_variance": 0.011549488641321659}}, "errors": ["PreArm: Hardware safety switch"]}
{"timestamp": "2026-01-07T16:09:55.896862Z", "telemetry": {"lat": 28.7531452, "lon": 77.1177846, "satellites": 6, "altitude_gps_m": 204.20999145507812, "groundspeed_mps": 0.0018456012476235628}, "flight": {"mode": "STABILIZE", "armed": false}, "ekf": {"attitude": {"roll": 0.018148940056562424, "pitch": -0.03341623395681381, "yaw": -1.5803686380386353}, "local_position": {"x": null, "y": null, "z": null}, "status": {"flags": 135, "velocity_variance": 0.0, "pos_horiz_variance": 0.000405507831601426, "pos_vert_variance": 0.010621708817780018}}, "errors": ["PreArm: Hardware safety switch", "PreArm: Hardware safety switch"]}
{"timestamp": "2026-01-07T16:09:56.897480Z", "telemetry": {"lat": 28.7531415, "lon": 77.11778, "satellites": 6, "altitude_gps_m": 203.70999145507812, "groundspeed_mps": 0.0017381508368998766}, "flight": {"mode": "STABILIZE", "armed": false}, "ekf": {"attitude": {"roll": 0.018148301169276237, "pitch": -0.033324070274829865, "yaw": -1.5801726579666138}, "local_position": {"x": null, "y": null, "z": null}, "status": {"flags": 135, "velocity_variance": 0.0, "pos_horiz_variance": 9.221498476108536e-05, "pos_vert_variance": 0.06170697510242462}}, "errors": ["PreArm: Hardware safety switch", "PreArm: Hardware safety switch"]}
{"timestamp": "2026-01-07T16:09:57.897088Z", "telemetry": {"lat": 28.7531379, "lon": 77.1177795, "satellites": 6, "altitude_gps_m": 206.00999450683594, "groundspeed_mps": 0.0016516379546374083}, "flight": {"mode": "STABILIZE", "armed": false}, "ekf": {"attitude": {"roll": 0.017631549388170242, "pitch": -0.03421246260404587, "yaw": -1.5803240537643433}, "local_position": {"x": null, "y": null, "z": null}, "status": {"flags": 135, "velocity_variance": 0.0, "pos_horiz_variance": 0.00020097683591302484, "pos_vert_variance": 0.019804349169135094}}, "errors": ["PreArm: Hardware safety switch", "PreArm: Hardware safety switch"]}
