{"timestamp": "2026-01-07T16:30:08.310085Z", "telemetry": {"lat": 28.753221, "lon": 77.1176969, "satellites": 7, "altitude_gps_m": 202.25999450683594, "groundspeed_mps": 0.0026417153421789408}, "flight": {"mode": "STABILIZE", "armed": false}, "ekf": {"attitude": {"roll": 0.015420908108353615, "pitch": -0.035640373826026917, "yaw": -1.5854500532150269}, "local_position": {"x": null, "y": null, "z": null}, "status": {"flags": 135, "velocity_variance": 0.0, "pos_horiz_variance": 0.0015501477755606174, "pos_vert_variance": 0.053559333086013794}}, "errors": []}
{"timestamp": "2026-01-07T16:30:09.346297Z", "telemetry": {"lat": 28.7532392, "lon": 77.1176821, "satellites": 7, "altitude_gps_m": 196.45999145507812, "groundspeed_mps": 0.0016476701712235808}, "flight": {"mode": "STABILIZE", "armed": false}, "ekf": {"attitude": {"roll": 0.015641851350665092, "pitch": -0.035582538694143295, "yaw": -1.58553147315979}, "local_position": {"x": null, "y": null, "z": null}, "status": {"flags": 135, "velocity_variance": 0.0, "pos_horiz_variance": 0.0008173339883796871, "pos_vert_variance": 0.08907441794872284}}, "errors": []}
{"timestamp": "2026-01-07T16:30:10.415821Z", "telemetry": {"lat": 28.7532368, "lon": 77.1176855, "satellites": 6, "altitude_gps_m": 196.1999969482422, "groundspeed_mps": 0.0018082974711433053}, "flight": {"mode": "STABILIZE", "armed": false}, "ekf": {"attitude": {"roll": 0.015669051557779312, "pitch": -0.03560272976756096, "yaw": -1.585662841796875}, "local_position": {"x": null, "y": null, "z": null}, "status": {"flags": 135, "velocity_variance": 0.0, "pos_horiz_variance": 0.000362157792551443, "pos_vert_variance": 0.019920166581869125}}, "errors": []}
{"timestamp": "2026-01-07T16:30:11.416593Z", "telemetry": {"lat": 28.7532413, "lon": 77.1176876, "satellites": 6, "altitude_gps_m": 195.3000030517578, "groundspeed_mps": 0.0037894058041274548}, "flight": {"mode": "STABILIZE", "armed": false}, "ekf": {"attitude": {"roll": 0.015602624043822289, "pitch": -0.035704270005226135, "yaw": -1.5855997800827026}, "local_position": {"x": null, "y": null, "z": null}, "status": {"flags": 135, "velocity_variance": 0.0, "pos_horiz_variance": 0.0006079989834688604, "pos_vert_variance": 0.01819062978029251}}, "errors": []}
{"timestamp": "2026-01-07T16:30:12.416150Z", "telemetry": {"lat": 28.7532406, "lon": 77.1176916, "satellites": 6, "altitude_gps_m": 195.3199920654297, "groundspeed_mps": 0.0023773431312292814}, "flight": {"mode": "STABILIZE", "armed": false}, "ekf": {"attitude": {"roll": 0.015565594658255577, "pitch": -0.035720307379961014, "yaw": -1.585598111152649}, "local_position": {"x": null, "y": null, "z": null}, "status": {"flags": 135, "velocity_variance": 0.0, "pos_horiz_variance": 0.0007916701724752784, "pos_vert_variance": 0.10502463579177856}}, "errors": []}
{"timestamp": "2026-01-07T16:30:13.449586Z", "telemetry": {"lat": 28.7532349, "lon": 77.1176895, "satellites": 6, "altitude_gps_m": 195.9499969482422, "groundspeed_mps": 0.004824770148843527}, "flight": {"mode": "STABILIZE", "armed": false}, "ekf": {"attitude": {"roll": 0.015577584505081177, "pitch": -0.035612042993307114, "yaw": -1.5857335329055786}, "local_position": {"x": null, "y": null, "z": null}, "status": {"flags": 135, "velocity_variance": 0.0, "pos_horiz_variance": 0.0009141542250290513, "pos_vert_variance": 0.07816264033317566}}, "errors": []}
{"timestamp": "2026-01-07T16:30:14.449761Z", "telemetry": {"lat": 28.7532295, "lon": 77.1176866, "satellites": 6, "altitude_gps_m": 197.0800018310547, "groundspeed_mps": 0.006188118830323219}, "flight": {"mode": "STABILIZE", "armed": false}, "ekf": {"attitude": {"roll": 0.015431514009833336, "pitch": -0.035639338195323944, "yaw": -1.585619330406189}, "local_position": {"x": null, "y": null, "z": null}, "status": {"flags": 135, "velocity_variance": 0.0, "pos_horiz_variance": 0.0013617599615827203, "pos_vert_variance": 0.03543919324874878}}, "errors": []}
{"timestamp": "2026-01-07T16:30:15.451085Z", "telemetry": {"lat": 28.7532194, "lon": 77.1176865, "satellites": 6, "altitude_gps_m": 198.77999877929688, "groundspeed_mps": 0.0025760713033378124}, "flight": {"mode": "STABILIZE", "armed": false}, "ekf": {"attitude": {"roll": 0.015479734167456627, "pitch": -0.03534945845603943, "yaw": -1.5859116315841675}, "local_position": {"x": null, "y": null, "z": null}, "status": {"flags": 135, "velocity_variance": 0.0, "pos_horiz_variance": 0.0014853328466415405, "pos_vert_variance": 0.023428501561284065}}, "errors": []}
{"timestamp": "2026-01-07T16:30:16.420578Z", "telemetry": {"lat": 28.7532195, "lon": 77.1176848, "satellites": 6, "altitude_gps_m": 198.97999572753906, "groundspeed_mps": 0.008740203455090523}, "flight": {"mode": "STABILIZE", "armed": false}, "ekf": {"attitude": {"roll": 0.015520807355642319, "pitch": -0.035474736243486404, "yaw": -1.585670828819275}, "local_position": {"x": null, "y": null, "z": null}, "status": {"flags": 135, "velocity_variance": 0.0, "pos_horiz_variance": 0.00174701027572155, "pos_vert_variance": 0.003441047156229615}}, "errors": []}
{"timestamp": "2026-01-07T16:30:17.420715Z", "telemetry": {"lat": 28.753213, "lon": 77.117686, "satellites": 6, "altitude_gps_m": 199.1199951171875, "groundspeed_mps": 0.006569599732756615}, "flight": {"mode": "STABILIZE", "armed": false}, "ekf": {"attitude": {"roll": 0.01581428572535515, "pitch": -0.03496784344315529, "yaw": -1.5858826637268066}, "local_position": {"x": null, "y": null, "z": null}, "status": {"flags": 135, "velocity_variance": 0.0, "pos_horiz_variance": 0.0018538468284532428, "pos_vert_variance": 0.018116474151611328}}, "errors": []}
{"timestamp": "2026-01-07T16:30:18.425386Z", "telemetry": {"lat": 28.753208, "lon": 77.1176869, "satellites": 6, "altitude_gps_m": 199.4499969482422, "groundspeed_mps": 0.012587850913405418}, "flight": {"mode": "STABILIZE", "armed": false}, "ekf": {"attitude": {"roll": 0.01678440533578396, "pitch": -0.03416013717651367, "yaw": -1.5865479707717896}, "local_position": {"x": null, "y": null, "z": null}, "status": {"flags": 135, "velocity_variance": 0.0, "pos_horiz_variance": 0.001278513576835394, "pos_vert_variance": 0.021460872143507004}}, "errors": []}
{"timestamp": "2026-01-07T16:30:19.427583Z", "telemetry": {"lat": 28.7532072, "lon": 77.1176919, "satellites": 6, "altitude_gps_m": 200.02999877929688, "groundspeed_mps": 0.007583672646433115}, "flight": {"mode": "STABILIZE", "armed": false}, "ekf": {"attitude": {"roll": 0.016849596053361893, "pitch": -0.034321513026952744, "yaw": -1.5864557027816772}, "local_position": {"x": null, "y": null, "z": null}, "status": {"flags": 135, "velocity_variance": 0.0, "pos_horiz_variance": 0.0012758447555825114, "pos_vert_variance": 0.04485289007425308}}, "errors": []}
{"timestamp": "2026-01-07T16:30:20.426379Z", "telemetry": {"lat": 28.7532074, "lon": 77.1176992, "satellites": 6, "altitude_gps_m": 200.22999572753906, "groundspeed_mps": 0.00597098795697093}, "flight": {"mode": "STABILIZE", "armed": false}, "ekf": {"attitude": {"roll": 0.017016349360346794, "pitch": -0.03425070643424988, "yaw": -1.5864036083221436}, "local_position": {"x": null, "y": null, "z": null}, "status": {"flags": 135, "velocity_variance": 0.0, "pos_horiz_variance": 0.0013422508491203189, "pos_vert_variance": 0.04163353517651558}}, "errors": []}
{"timestamp": "2026-01-07T16:30:21.425687Z", "telemetry": {"lat": 28.7532047, "lon": 77.1177074, "satellites": 6, "altitude_gps_m": 201.00999450683594, "groundspeed_mps": 0.006839119363576174}, "flight": {"mode": "STABILIZE", "armed": false}, "ekf": {"attitude": {"roll": 0.016887448728084564, "pitch": -0.03483779355883598, "yaw": -1.5862888097763062}, "local_position": {"x": null, "y": null, "z": null}, "status": {"flags": 135, "velocity_variance": 0.0, "pos_horiz_variance": 0.0013710343046113849, "pos_vert_variance": 0.06709779053926468}}, "errors": []}
{"timestamp": "2026-01-07T16:30:22.459430Z", "telemetry": {"lat": 28.7532089, "lon": 77.1177177, "satellites": 5, "altitude_gps_m": 200.47999572753906, "groundspeed_mps": 0.006652476266026497}, "flight": {"mode": "STABILIZE", "armed": false}, "ekf": {"attitude": {"roll": 0.01712852716445923, "pitch": -0.03450346738100052, "yaw": -1.586226463317871}, "local_position": {"x": null, "y": null, "z": null}, "status": {"flags": 135, "velocity_variance": 0.0, "pos_horiz_variance": 0.0012749951565638185, "pos_vert_variance": 0.06451785564422607}}, "errors": []}
{"timestamp": "2026-01-07T16:30:23.429293Z", "telemetry": {"lat": 28.7532129, "lon": 77.1177294, "satellites": 5, "altitude_gps_m": 199.86000061035156, "groundspeed_mps": 0.001293802633881569}, "flight": {"mode": "STABILIZE", "armed": false}, "ekf": {"attitude": {"roll": 0.017176011577248573, "pitch": -0.03480098024010658, "yaw": -1.5862998962402344}, "local_position": {"x": null, "y": null, "z": null}, "status": {"flags": 135, "velocity_variance": 0.0, "pos_horiz_variance": 0.0009056946146301925, "pos_vert_variance": 0.0043512615375220776}}, "errors": []}
{"timestamp": "2026-01-07T16:30:24.427678Z", "telemetry": {"lat": 28.7532134, "lon": 77.1177416, "satellites": 5, "altitude_gps_m": 199.37998962402344, "groundspeed_mps": 0.007320415694266558}, "flight": {"mode": "STABILIZE", "armed": false}, "ekf": {"attitude": {"roll": 0.017161225900053978, "pitch": -0.03488415107131004, "yaw": -1.5863654613494873}, "local_position": {"x": null, "y": null, "z": null}, "status": {"flags": 135, "velocity_variance": 0.0, "pos_horiz_variance": 0.0010196592193096876, "pos_vert_variance": 0.05850781500339508}}, "errors": []}
{"timestamp": "2026-01-07T16:30:25.427986Z", "telemetry": {"lat": 28.7532156, "lon": 77.1177538, "satellites": 5, "altitude_gps_m": 197.63999938964844, "groundspeed_mps": 0.011841457337141037}, "flight": {"mode": "STABILIZE", "armed": false}, "ekf": {"attitude": {"roll": 0.017195891588926315, "pitch": -0.03479529544711113, "yaw": -1.5857317447662354}, "local_position": {"x": null, "y": null, "z": null}, "status": {"flags": 135, "velocity_variance": 0.0, "pos_horiz_variance": 0.0017749809194356203, "pos_vert_variance": 0.006257691886276007}}, "errors": ["PreArm: Hardware safety switch"]}
{"timestamp": "2026-01-07T16:30:26.432333Z", "telemetry": {"lat": 28.7532245, "lon": 77.1177633, "satellites": 6, "altitude_gps_m": 195.22000122070312, "groundspeed_mps": 0.011457905173301697}, "flight": {"mode": "STABILIZE", "armed": false}, "ekf": {"attitude": {"roll": 0.016011202707886696, "pitch": -0.03542625531554222, "yaw": -1.5857884883880615}, "local_position": {"x": null, "y": null, "z": null}, "status": {"flags": 135, "velocity_variance": 0.0, "pos_horiz_variance": 0.0029991143383085728, "pos_vert_variance": 0.010634517297148705}}, "errors": ["PreArm: Hardware safety switch"]}
{"timestamp": "2026-01-07T16:30:27.432359Z", "telemetry": {"lat": 28.7532214, "lon": 77.1177662, "satellites": 6, "altitude_gps_m": 194.2899932861328, "groundspeed_mps": 0.011512275785207748}, "flight": {"mode": "STABILIZE", "armed": false}, "ekf": {"attitude": {"roll": 0.015957890078425407, "pitch": -0.03532296419143677, "yaw": -1.5861575603485107}, "local_position": {"x": null, "y": null, "z": null}, "status": {"flags": 135, "velocity_variance": 0.0, "pos_horiz_variance": 0.0031880245078355074, "pos_vert_variance": 0.0009645710233598948}}, "errors": ["PreArm: Hardware safety switch"]}
{"timestamp": "2026-01-07T16:30:28.402742Z", "telemetry": {"lat": 28.7532145, "lon": 77.1177611, "satellites": 6, "altitude_gps_m": 194.37998962402344, "groundspeed_mps": 0.009438693523406982}, "flight": {"mode": "STABILIZE", "armed": false}, "ekf": {"attitude": {"roll": 0.015893660485744476, "pitch": -0.03532204031944275, "yaw": -1.5860222578048706}, "local_position": {"x": null, "y": null, "z": null}, "status": {"flags": 135, "velocity_variance": 0.0, "pos_horiz_variance": 0.0029689616058021784, "pos_vert_variance": 0.09064063429832458}}, "errors": ["PreArm: Hardware safety switch"]}
{"timestamp": "2026-01-07T16:30:29.403400Z", "telemetry": {"lat": 28.7532067, "lon": 77.1177625, "satellites": 6, "altitude_gps_m": 194.14999389648438, "groundspeed_mps": 0.006869185250252485}, "flight": {"mode": "STABILIZE", "armed": false}, "ekf": {"attitude": {"roll": 0.015775956213474274, "pitch": -0.03540376201272011, "yaw": -1.585874319076538}, "local_position": {"x": null, "y": null, "z": null}, "status": {"flags": 135, "velocity_variance": 0.0, "pos_horiz_variance": 0.0023841841612011194, "pos_vert_variance": 0.021542903035879135}}, "errors": ["PreArm: Hardware safety switch"]}
{"timestamp": "2026-01-07T16:30:30.432817Z", "telemetry": {"lat": 28.7532069, "lon": 77.1177631, "satellites": 6, "altitude_gps_m": 193.22000122070312, "groundspeed_mps": 0.0045516155660152435}, "flight": {"mode": "STABILIZE", "armed": false}, "ekf": {"attitude": {"roll": 0.015817299485206604, "pitch": -0.035264432430267334, "yaw": -1.585891604423523}, "local_position": {"x": null, "y": null, "z": null}, "status": {"flags": 135, "velocity_variance": 0.0, "pos_horiz_variance": 0.00193091481924057, "pos_vert_variance": 0.01676962524652481}}, "errors": ["PreArm: Hardware safety switch"]}
{"timestamp": "2026-01-07T16:30:31.437151Z", "telemetry": {"lat": 28.7532023, "lon": 77.1177586, "satellites": 6, "altitude_gps_m": 192.5699920654297, "groundspeed_mps": 0.005684108007699251}, "flight": {"mode": "STABILIZE", "armed": false}, "ekf": {"attitude": {"roll": 0.015627801418304443, "pitch": -0.035351626574993134, "yaw": -1.5857584476470947}, "local_position": {"x": null, "y": null, "z": null}, "status": {"flags": 135, "velocity_variance": 0.0, "pos_horiz_variance": 0.0017110046464949846, "pos_vert_variance": 0.0009656285983510315}}, "errors": ["PreArm: Hardware safety switch"]}
{"timestamp": "2026-01-07T16:30:32.437454Z", "telemetry": {"lat": 28.7531954, "lon": 77.1177631, "satellites": 7, "altitude_gps_m": 191.67999267578125, "groundspeed_mps": 0.005367326084524393}, "flight": {"mode": "STABILIZE", "armed": false}, "ekf": {"attitude": {"roll": 0.015601234510540962, "pitch": -0.03530324995517731, "yaw": -1.5859538316726685}, "local_position": {"x": null, "y": null, "z": null}, "status": {"flags": 135, "velocity_variance": 0.0, "pos_horiz_variance": 0.0012818648247048259, "pos_vert_variance": 0.0702306255698204}}, "errors": ["PreArm: Hardware safety switch"]}
{"timestamp": "2026-01-07T16:30:33.437486Z", "telemetry": {"lat": 28.7531869, "lon": 77.1177614, "satellites": 7, "altitude_gps_m": 191.739990234375, "groundspeed_mps": 0.0048241824842989445}, "flight": {"mode": "STABILIZE", "armed": false}, "ekf": {"attitude": {"roll": 0.015664219856262207, "pitch": -0.03519969806075096, "yaw": -1.5858688354492188}, "local_position": {"x": null, "y": null, "z": null}, "status": {"flags": 135, "velocity_variance": 0.0, "pos_horiz_variance": 0.001244185259565711, "pos_vert_variance": 0.0063437120988965034}}, "errors": ["PreArm: Hardware safety switch"]}
{"timestamp": "2026-01-07T16:30:34.438543Z", "telemetry": {"lat": 28.7531837, "lon": 77.1177621, "satellites": 6, "altitude_gps_m": 191.17999267578125, "groundspeed_mps": 0.005651387386023998}, "flight": {"mode": "STABILIZE", "armed": false}, "ekf": {"attitude": {"roll": 0.01574120856821537, "pitch": -0.03533080220222473, "yaw": -1.5859458446502686}, "local_position": {"x": null, "y": null, "z": null}, "status": {"flags": 135, "velocity_variance": 0.0, "pos_horiz_variance": 0.0013538588536903262, "pos_vert_variance": 0.030948247760534286}}, "errors": ["PreArm: Hardware safety switch"]}
{"timestamp": "2026-01-07T16:30:35.408485Z", "telemetry": {"lat": 28.7531838, "lon": 77.1177596, "satellites": 6, "altitude_gps_m": 190.0399932861328, "groundspeed_mps": 0.0051776994951069355}, "flight": {"mode": "STABILIZE", "armed": false}, "ekf": {"attitude": {"roll": 0.015707392245531082, "pitch": -0.0352942980825901, "yaw": -1.586024522781372}, "local_position": {"x": null, "y": null, "z": null}, "status": {"flags": 135, "velocity_variance": 0.0, "pos_horiz_variance": 0.001438132137991488, "pos_vert_variance": 0.04593070223927498}}, "errors": ["PreArm: Hardware safety switch"]}
{"timestamp": "2026-01-07T16:30:36.413056Z", "telemetry": {"lat": 28.7531822, "lon": 77.1177598, "satellites": 6, "altitude_gps_m": 189.47000122070312, "groundspeed_mps": 0.006083926185965538}, "flight": {"mode": "STABILIZE", "armed": false}, "ekf": {"attitude": {"roll": 0.015845805406570435, "pitch": -0.03512321412563324, "yaw": -1.5859352350234985}, "local_position": {"x": null, "y": null, "z": null}, "status": {"flags": 135, "velocity_variance": 0.0, "pos_horiz_variance": 0.0014123523142188787, "pos_vert_variance": 0.0650726854801178}}, "errors": ["PreArm: Hardware safety switch"]}
{"timestamp": "2026-01-07T16:30:37.413150Z", "telemetry": {"lat": 28.7531809, "lon": 77.1177611, "satellites": 6, "altitude_gps_m": 188.6999969482422, "groundspeed_mps": 0.006472375709563494}, "flight": {"mode": "STABILIZE", "armed": false}, "ekf": {"attitude": {"roll": 0.015868913382291794, "pitch": -0.03514440730214119, "yaw": -1.5859147310256958}, "local_position": {"x": null, "y": null, "z": null}, "status": {"flags": 135, "velocity_variance": 0.0, "pos_horiz_variance": 0.001547579769976437, "pos_vert_variance": 0.011103535071015358}}, "errors": ["PreArm: Hardware safety switch"]}
{"timestamp": "2026-01-07T16:30:38.413743Z", "telemetry": {"lat": 28.7531894, "lon": 77.1177658, "satellites": 6, "altitude_gps_m": 187.72000122070312, "groundspeed_mps": 0.009057885967195034}, "flight": {"mode": "STABILIZE", "armed": false}, "ekf": {"attitude": {"roll": 0.015857137739658356, "pitch": -0.03510059043765068, "yaw": -1.585911750793457}, "local_position": {"x": null, "y": null, "z": null}, "status": {"flags": 135, "velocity_variance": 0.0, "pos_horiz_variance": 0.0018886481411755085, "pos_vert_variance": 0.004110035020858049}}, "errors": ["PreArm: Hardware safety switch"]}
{"timestamp": "2026-01-07T16:30:39.446748Z", "telemetry": {"lat": 28.7531923, "lon": 77.1177649, "satellites": 6, "altitude_gps_m": 186.489990234375, "groundspeed_mps": 0.005885303486138582}, "flight": {"mode": "STABILIZE", "armed": false}, "ekf": {"attitude": {"roll": 0.01582637056708336, "pitch": -0.035177238285541534, "yaw": -1.5857839584350586}, "local_position": {"x": null, "y": null, "z": null}, "status": {"flags": 135, "velocity_variance": 0.0, "pos_horiz_variance": 0.0021065082401037216, "pos_vert_variance": 0.019667917862534523}}, "errors": ["PreArm: Hardware safety switch"]}
{"timestamp": "2026-01-07T16:30:40.446807Z", "telemetry": {"lat": 28.7531997, "lon": 77.1177684, "satellites": 6, "altitude_gps_m": 185.989990234375, "groundspeed_mps": 0.002639835700392723}, "flight": {"mode": "STABILIZE", "armed": false}, "ekf": {"attitude": {"roll": 0.01594005897641182, "pitch": -0.035231322050094604, "yaw": -1.5858594179153442}, "local_position": {"x": null, "y": null, "z": null}, "status": {"flags": 135, "velocity_variance": 0.0, "pos_horiz_variance": 0.0015649518463760614, "pos_vert_variance": 0.01323804259300232}}, "errors": ["PreArm: Hardware safety switch"]}
{"timestamp": "2026-01-07T16:30:41.447140Z", "telemetry": {"lat": 28.7531954, "lon": 77.1177739, "satellites": 6, "altitude_gps_m": 186.0699920654297, "groundspeed_mps": 0.0018457859987393022}, "flight": {"mode": "STABILIZE", "armed": false}, "ekf": {"attitude": {"roll": 0.01589200273156166, "pitch": -0.03525247052311897, "yaw": -1.5859163999557495}, "local_position": {"x": null, "y": null, "z": null}, "status": {"flags": 135, "velocity_variance": 0.0, "pos_horiz_variance": 0.0007957901689223945, "pos_vert_variance": 0.019200948998332024}}, "errors": ["PreArm: Hardware safety switch"]}
{"timestamp": "2026-01-07T16:30:42.417304Z", "telemetry": {"lat": 28.7531997, "lon": 77.1177841, "satellites": 6, "altitude_gps_m": 185.5399932861328, "groundspeed_mps": 0.0013091114815324545}, "flight": {"mode": "STABILIZE", "armed": false}, "ekf": {"attitude": {"roll": 0.015960942953824997, "pitch": -0.03525705635547638, "yaw": -1.5859547853469849}, "local_position": {"x": null, "y": null, "z": null}, "status": {"flags": 135, "velocity_variance": 0.0, "pos_horiz_variance": 0.00025662517873570323, "pos_vert_variance": 0.03948349133133888}}, "errors": ["PreArm: Hardware safety switch"]}
{"timestamp": "2026-01-07T16:30:43.418566Z", "telemetry": {"lat": 28.7531986, "lon": 77.1177909, "satellites": 7, "altitude_gps_m": 186.8199920654297, "groundspeed_mps": 0.003127264091745019}, "flight": {"mode": "STABILIZE", "armed": false}, "ekf": {"attitude": {"roll": 0.015943270176649094, "pitch": -0.035297781229019165, "yaw": -1.5858594179153442}, "local_position": {"x": null, "y": null, "z": null}, "status": {"flags": 135, "velocity_variance": 0.0, "pos_horiz_variance": 0.00017534290964249521, "pos_vert_variance": 0.07276846468448639}}, "errors": ["PreArm: Hardware safety switch"]}
{"timestamp": "2026-01-07T16:30:44.422462Z", "telemetry": {"lat": 28.753189, "lon": 77.1177912, "satellites": 7, "altitude_gps_m": 190.75, "groundspeed_mps": 0.0009950652020052075}, "flight": {"mode": "STABILIZE", "armed": false}, "ekf": {"attitude": {"roll": 0.01600857824087143, "pitch": -0.035255901515483856, "yaw": -1.5858744382858276}, "local_position": {"x": null, "y": null, "z": null}, "status": {"flags": 135, "velocity_variance": 0.0, "pos_horiz_variance": 0.00042759510688483715, "pos_vert_variance": 0.012998130172491074}}, "errors": ["PreArm: Hardware safety switch"]}
{"timestamp": "2026-01-07T16:30:45.421761Z", "telemetry": {"lat": 28.7531809, "lon": 77.1177788, "satellites": 7, "altitude_gps_m": 194.30999755859375, "groundspeed_mps": 0.0031018261797726154}, "flight": {"mode": "STABILIZE", "armed": false}, "ekf": {"attitude": {"roll": 0.015853621065616608, "pitch": -0.03537869080901146, "yaw": -1.5857033729553223}, "local_position": {"x": null, "y": null, "z": null}, "status": {"flags": 135, "velocity_variance": 0.0, "pos_horiz_variance": 0.00023579061962664127, "pos_vert_variance": 0.017715130001306534}}, "errors": ["PreArm: Hardware safety switch"]}
{"timestamp": "2026-01-07T16:30:46.422027Z", "telemetry": {"lat": 28.7531784, "lon": 77.1177796, "satellites": 7, "altitude_gps_m": 196.36000061035156, "groundspeed_mps": 0.0021112074609845877}, "flight": {"mode": "STABILIZE", "armed": false}, "ekf": {"attitude": {"roll": 0.01590917818248272, "pitch": -0.03528576344251633, "yaw": -1.585660696029663}, "local_position": {"x": null, "y": null, "z": null}, "status": {"flags": 135, "velocity_variance": 0.0, "pos_horiz_variance": 0.0001461983483750373, "pos_vert_variance": 0.03246704116463661}}, "errors": ["PreArm: Hardware safety switch"]}
{"timestamp": "2026-01-07T16:30:47.422747Z", "telemetry": {"lat": 28.7531757, "lon": 77.1177824, "satellites": 7, "altitude_gps_m": 198.14999389648438, "groundspeed_mps": 0.003275421215221286}, "flight": {"mode": "STABILIZE", "armed": false}, "ekf": {"attitude": {"roll": 0.015849454328417778, "pitch": -0.03515538573265076, "yaw": -1.58566153049469}, "local_position": {"x": null, "y": null, "z": null}, "status": {"flags": 135, "velocity_variance": 0.0, "pos_horiz_variance": 8.254333806689829e-05, "pos_vert_variance": 0.026434997096657753}}, "errors": ["PreArm: Hardware safety switch"]}
{"timestamp": "2026-01-07T16:30:48.426773Z", "telemetry": {"lat": 28.7531714, "lon": 77.1177834, "satellites": 7, "altitude_gps_m": 200.6699981689453, "groundspeed_mps": 0.0035024855751544237}, "flight": {"mode": "STABILIZE", "armed": false}, "ekf": {"attitude": {"roll": 0.01579701341688633, "pitch": -0.035339027643203735, "yaw": -1.58579683303833}, "local_position": {"x": null, "y": null, "z": null}, "status": {"flags": 135, "velocity_variance": 0.0, "pos_horiz_variance": 0.0001030404819175601, "pos_vert_variance": 0.03699401021003723}}, "errors": ["PreArm: Hardware safety switch"]}
{"timestamp": "2026-01-07T16:30:49.426645Z", "telemetry": {"lat": 28.753164, "lon": 77.1177772, "satellites": 7, "altitude_gps_m": 201.62998962402344, "groundspeed_mps": 0.002467286540195346}, "flight": {"mode": "STABILIZE", "armed": false}, "ekf": {"attitude": {"roll": 0.015827437862753868, "pitch": -0.035238947719335556, "yaw": -1.5858255624771118}, "local_position": {"x": null, "y": null, "z": null}, "status": {"flags": 135, "velocity_variance": 0.0, "pos_horiz_variance": 0.0004074221069458872, "pos_vert_variance": 0.019221628084778786}}, "errors": ["PreArm: Hardware safety switch"]}
{"timestamp": "2026-01-07T16:30:50.425639Z", "telemetry": {"lat": 28.7531531, "lon": 77.1177757, "satellites": 7, "altitude_gps_m": 202.64999389648438, "groundspeed_mps": 0.00197903485968709}, "flight": {"mode": "STABILIZE", "armed": false}, "ekf": {"attitude": {"roll": 0.016077768057584763, "pitch": -0.03511481732130051, "yaw": -1.585757851600647}, "local_position": {"x": null, "y": null, "z": null}, "status": {"flags": 135, "velocity_variance": 0.0, "pos_horiz_variance": 0.0005178576684556901, "pos_vert_variance": 0.0005714290891773999}}, "errors": ["PreArm: Hardware safety switch"]}
{"timestamp": "2026-01-07T16:30:51.427200Z", "telemetry": {"lat": 28.7531419, "lon": 77.1177739, "satellites": 7, "altitude_gps_m": 204.01998901367188, "groundspeed_mps": 0.002894921926781535}, "flight": {"mode": "STABILIZE", "armed": false}, "ekf": {"attitude": {"roll": 0.016085252165794373, "pitch": -0.03505202755331993, "yaw": -1.5859308242797852}, "local_position": {"x": null, "y": null, "z": null}, "status": {"flags": 135, "velocity_variance": 0.0, "pos_horiz_variance": 0.0004711489309556782, "pos_vert_variance": 0.04344756156206131}}, "errors": ["PreArm: Hardware safety switch"]}
{"timestamp": "2026-01-07T16:30:52.431289Z", "telemetry": {"lat": 28.7531364, "lon": 77.1177721, "satellites": 7, "altitude_gps_m": 204.1999969482422, "groundspeed_mps": 0.0062212226912379265}, "flight": {"mode": "STABILIZE", "armed": false}, "ekf": {"attitude": {"roll": 0.016223927959799767, "pitch": -0.0351131297647953, "yaw": -1.5858064889907837}, "local_position": {"x": null, "y": null, "z": null}, "status": {"flags": 135, "velocity_variance": 0.0, "pos_horiz_variance": 0.0006858175620436668, "pos_vert_variance": 0.05290818586945534}}, "errors": ["PreArm: Hardware safety switch"]}
{"timestamp": "2026-01-07T16:30:53.429125Z", "telemetry": {"lat": 28.7531391, "lon": 77.1177725, "satellites": 7, "altitude_gps_m": 203.4099884033203, "groundspeed_mps": 0.007845238782465458}, "flight": {"mode": "STABILIZE", "armed": false}, "ekf": {"attitude": {"roll": 0.016280392184853554, "pitch": -0.03494523465633392, "yaw": -1.5858250856399536}, "local_position": {"x": null, "y": null, "z": null}, "status": {"flags": 135, "velocity_variance": 0.0, "pos_horiz_variance": 0.0013707076432183385, "pos_vert_variance": 0.032085634768009186}}, "errors": ["PreArm: Hardware safety switch"]}
{"timestamp": "2026-01-07T16:30:54.429504Z", "telemetry": {"lat": 28.7531302, "lon": 77.1177676, "satellites": 7, "altitude_gps_m": 204.1999969482422, "groundspeed_mps": 0.010013909079134464}, "flight": {"mode": "STABILIZE", "armed": false}, "ekf": {"attitude": {"roll": 0.01623678207397461, "pitch": -0.03498438000679016, "yaw": -1.5858203172683716}, "local_position": {"x": null, "y": null, "z": null}, "status": {"flags": 135, "velocity_variance": 0.0, "pos_horiz_variance": 0.001687420648522675, "pos_vert_variance": 0.0287433210760355}}, "errors": ["PreArm: Hardware safety switch"]}
{"timestamp": "2026-01-07T16:30:55.429483Z", "telemetry": {"lat": 28.7531194, "lon": 77.1177585, "satellites": 7, "altitude_gps_m": 204.89999389648438, "groundspeed_mps": 0.011149570345878601}, "flight": {"mode": "STABILIZE", "armed": false}, "ekf": {"attitude": {"roll": 0.016200534999370575, "pitch": -0.03500842675566673, "yaw": -1.5856781005859375}, "local_position": {"x": null, "y": null, "z": null}, "status": {"flags": 135, "velocity_variance": 0.0, "pos_horiz_variance": 0.002112876856699586, "pos_vert_variance": 0.034273240715265274}}, "errors": ["PreArm: Hardware safety switch"]}
{"timestamp": "2026-01-07T16:30:56.435352Z", "telemetry": {"lat": 28.7531169, "lon": 77.1177592, "satellites": 7, "altitude_gps_m": 204.47999572753906, "groundspeed_mps": 0.013958897441625595}, "flight": {"mode": "STABILIZE", "armed": false}, "ekf": {"attitude": {"roll": 0.01631098799407482, "pitch": -0.035122573375701904, "yaw": -1.5856374502182007}, "local_position": {"x": null, "y": null, "z": null}, "status": {"flags": 135, "velocity_variance": 0.0, "pos_horiz_variance": 0.002719911513850093, "pos_vert_variance": 0.015147916972637177}}, "errors": ["PreArm: Hardware safety switch", "PreArm: Hardware safety switch"]}
{"timestamp": "2026-01-07T16:30:57.400514Z", "telemetry": {"lat": 28.7531163, "lon": 77.1177574, "satellites": 7, "altitude_gps_m": 204.00999450683594, "groundspeed_mps": 0.010397583246231079}, "flight": {"mode": "STABILIZE", "armed": false}, "ekf": {"attitude": {"roll": 0.016894979402422905, "pitch": -0.03478198125958443, "yaw": -1.5855354070663452}, "local_position": {"x": null, "y": null, "z": null}, "status": {"flags": 135, "velocity_variance": 0.0, "pos_horiz_variance": 0.0034466120414435863, "pos_vert_variance": 0.09171035885810852}}, "errors": ["PreArm: Hardware safety switch", "PreArm: Hardware safety switch"]}
{"timestamp": "2026-01-07T16:30:58.404876Z", "telemetry": {"lat": 28.7531087, "lon": 77.1177559, "satellites": 7, "altitude_gps_m": 205.08999633789062, "groundspeed_mps": 0.011415377259254456}, "flight": {"mode": "STABILIZE", "armed": false}, "ekf": {"attitude": {"roll": 0.016714755445718765, "pitch": -0.03519356995820999, "yaw": -1.5856322050094604}, "local_position": {"x": null, "y": null, "z": null}, "status": {"flags": 135, "velocity_variance": 0.0, "pos_horiz_variance": 0.003593041794374585, "pos_vert_variance": 0.049808863550424576}}, "errors": ["PreArm: Hardware safety switch", "PreArm: Hardware safety switch"]}
{"timestamp": "2026-01-07T16:30:59.434290Z", "telemetry": {"lat": 28.7531034, "lon": 77.1177552, "satellites": 7, "altitude_gps_m": 204.86000061035156, "groundspeed_mps": 0.007021842058748007}, "flight": {"mode": "STABILIZE", "armed": false}, "ekf": {"attitude": {"roll": 0.016844378784298897, "pitch": -0.0349557064473629, "yaw": -1.5856777429580688}, "local_position": {"x": null, "y": null, "z": null}, "status": {"flags": 135, "velocity_variance": 0.0, "pos_horiz_variance": 0.0030562570318579674, "pos_vert_variance": 0.06518476456403732}}, "errors": ["PreArm: Hardware safety switch", "PreArm: Hardware safety switch"]}
{"timestamp": "2026-01-07T16:31:00.438456Z", "telemetry": {"lat": 28.7531005, "lon": 77.1177608, "satellites": 7, "altitude_gps_m": 203.08999633789062, "groundspeed_mps": 0.004034153651446104}, "flight": {"mode": "STABILIZE", "armed": false}, "ekf": {"attitude": {"roll": 0.01679025962948799, "pitch": -0.03511481359601021, "yaw": -1.5856654644012451}, "local_position": {"x": null, "y": null, "z": null}, "status": {"flags": 135, "velocity_variance": 0.0, "pos_horiz_variance": 0.0022060920018702745, "pos_vert_variance": 0.03086930699646473}}, "errors": ["PreArm: Hardware safety switch", "PreArm: Hardware safety switch"]}
{"timestamp": "2026-01-07T16:31:01.438571Z", "telemetry": {"lat": 28.753097, "lon": 77.1177608, "satellites": 7, "altitude_gps_m": 202.9499969482422, "groundspeed_mps": 0.006560951936990023}, "flight": {"mode": "STABILIZE", "armed": false}, "ekf": {"attitude": {"roll": 0.016611579805612564, "pitch": -0.035264384001493454, "yaw": -1.585661768913269}, "local_position": {"x": null, "y": null, "z": null}, "status": {"flags": 135, "velocity_variance": 0.0, "pos_horiz_variance": 0.0015155733563005924, "pos_vert_variance": 0.005815592128783464}}, "errors": ["PreArm: Hardware safety switch", "PreArm: Hardware safety switch"]}
{"timestamp": "2026-01-07T16:31:02.438686Z", "telemetry": {"lat": 28.7530972, "lon": 77.1177604, "satellites": 7, "altitude_gps_m": 202.02999877929688, "groundspeed_mps": 0.008021795190870762}, "flight": {"mode": "STABILIZE", "armed": false}, "ekf": {"attitude": {"roll": 0.0166938379406929, "pitch": -0.03503028303384781, "yaw": -1.5856167078018188}, "local_position": {"x": null, "y": null, "z": null}, "status": {"flags": 135, "velocity_variance": 0.0, "pos_horiz_variance": 0.0016290937783196568, "pos_vert_variance": 0.024936923757195473}}, "errors": ["PreArm: Hardware safety switch", "PreArm: Hardware safety switch"]}
{"timestamp": "2026-01-07T16:31:03.438972Z", "telemetry": {"lat": 28.7531006, "lon": 77.1177615, "satellites": 7, "altitude_gps_m": 200.22000122070312, "groundspeed_mps": 0.0065325223840773106}, "flight": {"mode": "STABILIZE", "armed": false}, "ekf": {"attitude": {"roll": 0.016650184988975525, "pitch": -0.03503786027431488, "yaw": -1.5859012603759766}, "local_position": {"x": null, "y": null, "z": null}, "status": {"flags": 135, "velocity_variance": 0.0, "pos_horiz_variance": 0.0019678918179124594, "pos_vert_variance": 0.033308252692222595}}, "errors": ["PreArm: Hardware safety switch", "PreArm: Hardware safety switch"]}
{"timestamp": "2026-01-07T16:31:04.409610Z", "telemetry": {"lat": 28.7531143, "lon": 77.1177738, "satellites": 7, "altitude_gps_m": 198.3199920654297, "groundspeed_mps": 0.004315161611884832}, "flight": {"mode": "STABILIZE", "armed": false}, "ekf": {"attitude": {"roll": 0.017536748200654984, "pitch": -0.03390251845121384, "yaw": -1.5858138799667358}, "local_position": {"x": null, "y": null, "z": null}, "status": {"flags": 135, "velocity_variance": 0.0, "pos_horiz_variance": 0.001965573290362954, "pos_vert_variance": 0.04202873632311821}}, "errors": ["PreArm: Hardware safety switch", "PreArm: Hardware safety switch"]}
{"timestamp": "2026-01-07T16:31:05.410526Z", "telemetry": {"lat": 28.7531163, "lon": 77.1177722, "satellites": 7, "altitude_gps_m": 197.0800018310547, "groundspeed_mps": 0.009460055269300938}, "flight": {"mode": "STABILIZE", "armed": false}, "ekf": {"attitude": {"roll": 0.01615874469280243, "pitch": -0.03521139919757843, "yaw": -1.5856512784957886}, "local_position": {"x": null, "y": null, "z": null}, "status": {"flags": 135, "velocity_variance": 0.0, "pos_horiz_variance": 0.0019764790777117014, "pos_vert_variance": 0.01994672231376171}}, "errors": ["PreArm: Hardware safety switch", "PreArm: Hardware safety switch"]}
{"timestamp": "2026-01-07T16:31:06.414577Z", "telemetry": {"lat": 28.7531221, "lon": 77.1177736, "satellites": 7, "altitude_gps_m": 196.51998901367188, "groundspeed_mps": 0.0051604509353637695}, "flight": {"mode": "STABILIZE", "armed": false}, "ekf": {"attitude": {"roll": 0.01575016789138317, "pitch": -0.035208068788051605, "yaw": -1.5857748985290527}, "local_position": {"x": null, "y": null, "z": null}, "status": {"flags": 135, "velocity_variance": 0.0, "pos_horiz_variance": 0.0016359022120013833, "pos_vert_variance": 0.0771646499633789}}, "errors": ["PreArm: Hardware safety switch", "PreArm: Hardware safety switch"]}
{"timestamp": "2026-01-07T16:31:07.414459Z", "telemetry": {"lat": 28.7531317, "lon": 77.117776, "satellites": 7, "altitude_gps_m": 197.58999633789062, "groundspeed_mps": 0.003029479179531336}, "flight": {"mode": "STABILIZE", "armed": false}, "ekf": {"attitude": {"roll": 0.015875058248639107, "pitch": -0.035397984087467194, "yaw": -1.586033821105957}, "local_position": {"x": null, "y": null, "z": null}, "status": {"flags": 135, "velocity_variance": 0.0, "pos_horiz_variance": 0.0012590496335178614, "pos_vert_variance": 0.00908847339451313}}, "errors": ["PreArm: Hardware safety switch", "PreArm: Hardware safety switch"]}
{"timestamp": "2026-01-07T16:31:08.447601Z", "telemetry": {"lat": 28.753137, "lon": 77.1177751, "satellites": 7, "altitude_gps_m": 198.30999755859375, "groundspeed_mps": 0.0028315444942563772}, "flight": {"mode": "STABILIZE", "armed": false}, "ekf": {"attitude": {"roll": 0.015614612028002739, "pitch": -0.035534411668777466, "yaw": -1.5860795974731445}, "local_position": {"x": null, "y": null, "z": null}, "status": {"flags": 135, "velocity_variance": 0.0, "pos_horiz_variance": 0.0009247786947526038, "pos_vert_variance": 0.01799904927611351}}, "errors": ["PreArm: Hardware safety switch", "PreArm: Hardware safety switch"]}
{"timestamp": "2026-01-07T16:31:09.447761Z", "telemetry": {"lat": 28.7531428, "lon": 77.117773, "satellites": 7, "altitude_gps_m": 199.39999389648438, "groundspeed_mps": 0.0019651742186397314}, "flight": {"mode": "STABILIZE", "armed": false}, "ekf": {"attitude": {"roll": 0.01680673100054264, "pitch": -0.03449919819831848, "yaw": -1.5861930847167969}, "local_position": {"x": null, "y": null, "z": null}, "status": {"flags": 135, "velocity_variance": 0.0, "pos_horiz_variance": 0.0006086910725571215, "pos_vert_variance": 0.05329473689198494}}, "errors": ["PreArm: Hardware safety switch", "PreArm: Hardware safety switch"]}
{"timestamp": "2026-01-07T16:31:10.447810Z", "telemetry": {"lat": 28.7531461, "lon": 77.1177659, "satellites": 7, "altitude_gps_m": 199.6699981689453, "groundspeed_mps": 0.007647459860891104}, "flight": {"mode": "STABILIZE", "armed": false}, "ekf": {"attitude": {"roll": 0.0172427985817194, "pitch": -0.03429974243044853, "yaw": -1.5859463214874268}, "local_position": {"x": null, "y": null, "z": null}, "status": {"flags": 135, "velocity_variance": 0.0, "pos_horiz_variance": 0.0008927132003009319, "pos_vert_variance": 0.004684485495090485}}, "errors": ["PreArm: Hardware safety switch", "PreArm: Hardware safety switch"]}
{"timestamp": "2026-01-07T16:31:11.419337Z", "telemetry": {"lat": 28.7531442, "lon": 77.1177608, "satellites": 7, "altitude_gps_m": 200.739990234375, "groundspeed_mps": 0.012544753961265087}, "flight": {"mode": "STABILIZE", "armed": false}, "ekf": {"attitude": {"roll": 0.016500091180205345, "pitch": -0.03476516529917717, "yaw": -1.5860605239868164}, "local_position": {"x": null, "y": null, "z": null}, "status": {"flags": 135, "velocity_variance": 0.0, "pos_horiz_variance": 0.0016756117111071944, "pos_vert_variance": 0.06330355256795883}}, "errors": ["PreArm: Hardware safety switch", "PreArm: Hardware safety switch"]}
{"timestamp": "2026-01-07T16:31:12.418473Z", "telemetry": {"lat": 28.7531414, "lon": 77.1177609, "satellites": 7, "altitude_gps_m": 200.87998962402344, "groundspeed_mps": 0.004291735123842955}, "flight": {"mode": "STABILIZE", "armed": false}, "ekf": {"attitude": {"roll": 0.015864362940192223, "pitch": -0.035446539521217346, "yaw": -1.5861215591430664}, "local_position": {"x": null, "y": null, "z": null}, "status": {"flags": 135, "velocity_variance": 0.0, "pos_horiz_variance": 0.0019253018544986844, "pos_vert_variance": 0.04584910720586777}}, "errors": ["PreArm: Hardware safety switch", "PreArm: Hardware safety switch"]}
{"timestamp": "2026-01-07T16:31:13.419491Z", "telemetry": {"lat": 28.7531571, "lon": 77.1177637, "satellites": 7, "altitude_gps_m": 199.8000030517578, "groundspeed_mps": 0.01066493894904852}, "flight": {"mode": "STABILIZE", "armed": false}, "ekf": {"attitude": {"roll": 0.01589624211192131, "pitch": -0.03528185933828354, "yaw": -1.5864274501800537}, "local_position": {"x": null, "y": null, "z": null}, "status": {"flags": 135, "velocity_variance": 0.0, "pos_horiz_variance": 0.0015920319128781557, "pos_vert_variance": 0.06657761335372925}}, "errors": ["PreArm: Hardware safety switch", "PreArm: Hardware safety switch"]}
{"timestamp": "2026-01-07T16:31:14.423073Z", "telemetry": {"lat": 28.753162, "lon": 77.1177571, "satellites": 7, "altitude_gps_m": 200.0500030517578, "groundspeed_mps": 0.00976407341659069}, "flight": {"mode": "STABILIZE", "armed": false}, "ekf": {"attitude": {"roll": 0.016503063961863518, "pitch": -0.035549845546483994, "yaw": -1.5858359336853027}, "local_position": {"x": null, "y": null, "z": null}, "status": {"flags": 135, "velocity_variance": 0.0, "pos_horiz_variance": 0.0009397952817380428, "pos_vert_variance": 0.045919112861156464}}, "errors": ["PreArm: Hardware safety switch", "PreArm: Hardware safety switch"]}
{"timestamp": "2026-01-07T16:31:15.423039Z", "telemetry": {"lat": 28.7531685, "lon": 77.1177534, "satellites": 7, "altitude_gps_m": 202.19000244140625, "groundspeed_mps": 0.009737123735249043}, "flight": {"mode": "STABILIZE", "armed": false}, "ekf": {"attitude": {"roll": 0.016911987215280533, "pitch": -0.034317318350076675, "yaw": -1.586746335029602}, "local_position": {"x": null, "y": null, "z": null}, "status": {"flags": 135, "velocity_variance": 0.0, "pos_horiz_variance": 0.00066234270343557, "pos_vert_variance": 0.010896453633904457}}, "errors": ["PreArm: Hardware safety switch", "PreArm: Hardware safety switch"]}
{"timestamp": "2026-01-07T16:31:16.423549Z", "telemetry": {"lat": 28.7531681, "lon": 77.1177553, "satellites": 7, "altitude_gps_m": 203.5800018310547, "groundspeed_mps": 0.0044659776613116264}, "flight": {"mode": "STABILIZE", "armed": false}, "ekf": {"attitude": {"roll": 0.016715452075004578, "pitch": -0.03456906974315643, "yaw": -1.586116909980774}, "local_position": {"x": null, "y": null, "z": null}, "status": {"flags": 135, "velocity_variance": 0.0, "pos_horiz_variance": 0.0011213188990950584, "pos_vert_variance": 0.0012428394984453917}}, "errors": ["PreArm: Hardware safety switch", "PreArm: Hardware safety switch"]}
{"timestamp": "2026-01-07T16:31:17.423731Z", "telemetry": {"lat": 28.7531679, "lon": 77.1177494, "satellites": 7, "altitude_gps_m": 204.1999969482422, "groundspeed_mps": 0.01242750883102417}, "flight": {"mode": "STABILIZE", "armed": false}, "ekf": {"attitude": {"roll": 0.016260143369436264, "pitch": -0.03491710126399994, "yaw": -1.5862326622009277}, "local_position": {"x": null, "y": null, "z": null}, "status": {"flags": 135, "velocity_variance": 0.0, "pos_horiz_variance": 0.0017865737900137901, "pos_vert_variance": 0.04686843231320381}}, "errors": ["PreArm: Hardware safety switch", "PreArm: Hardware safety switch"]}
{"timestamp": "2026-01-07T16:31:18.428496Z", "telemetry": {"lat": 28.7531653, "lon": 77.1177477, "satellites": 7, "altitude_gps_m": 204.3699951171875, "groundspeed_mps": 0.010752814821898937}, "flight": {"mode": "STABILIZE", "armed": false}, "ekf": {"attitude": {"roll": 0.01620565541088581, "pitch": -0.03502963110804558, "yaw": -1.5861560106277466}, "local_position": {"x": null, "y": null, "z": null}, "status": {"flags": 135, "velocity_variance": 0.0, "pos_horiz_variance": 0.002513656159862876, "pos_vert_variance": 0.011870297603309155}}, "errors": ["PreArm: Hardware safety switch", "PreArm: Hardware safety switch"]}
{"timestamp": "2026-01-07T16:31:19.427380Z", "telemetry": {"lat": 28.7531701, "lon": 77.1177488, "satellites": 7, "altitude_gps_m": 204.25999450683594, "groundspeed_mps": 0.009825104847550392}, "flight": {"mode": "STABILIZE", "armed": false}, "ekf": {"attitude": {"roll": 0.01645791158080101, "pitch": -0.0352432057261467, "yaw": -1.586226463317871}, "local_position": {"x": null, "y": null, "z": null}, "status": {"flags": 135, "velocity_variance": 0.0, "pos_horiz_variance": 0.0026724962517619133, "pos_vert_variance": 0.045665442943573}}, "errors": ["PreArm: Hardware safety switch", "PreArm: Hardware safety switch"]}
{"timestamp": "2026-01-07T16:31:20.427207Z", "telemetry": {"lat": 28.7531796, "lon": 77.1177503, "satellites": 7, "altitude_gps_m": 203.42999267578125, "groundspeed_mps": 0.010319417342543602}, "flight": {"mode": "STABILIZE", "armed": false}, "ekf": {"attitude": {"roll": 0.016503967344760895, "pitch": -0.035403378307819366, "yaw": -1.586200475692749}, "local_position": {"x": null, "y": null, "z": null}, "status": {"flags": 135, "velocity_variance": 0.0, "pos_horiz_variance": 0.0025892744306474924, "pos_vert_variance": 0.032722704112529755}}, "errors": ["PreArm: Hardware safety switch", "PreArm: Hardware safety switch"]}
{"timestamp": "2026-01-07T16:31:21.428211Z", "telemetry": {"lat": 28.7531845, "lon": 77.1177536, "satellites": 7, "altitude_gps_m": 202.36000061035156, "groundspeed_mps": 0.006434618029743433}, "flight": {"mode": "STABILIZE", "armed": false}, "ekf": {"attitude": {"roll": 0.016538389027118683, "pitch": -0.03544725850224495, "yaw": -1.5861787796020508}, "local_position": {"x": null, "y": null, "z": null}, "status": {"flags": 135, "velocity_variance": 0.0, "pos_horiz_variance": 0.0021948593202978373, "pos_vert_variance": 0.06009618565440178}}, "errors": ["PreArm: Hardware safety switch", "PreArm: Hardware safety switch"]}
{"timestamp": "2026-01-07T16:31:22.431978Z", "telemetry": {"lat": 28.7531874, "lon": 77.1177526, "satellites": 7, "altitude_gps_m": 201.34999084472656, "groundspeed_mps": 0.007396704982966185}, "flight": {"mode": "STABILIZE", "armed": false}, "ekf": {"attitude": {"roll": 0.016303837299346924, "pitch": -0.035816170275211334, "yaw": -1.5861551761627197}, "local_position": {"x": null, "y": null, "z": null}, "status": {"flags": 135, "velocity_variance": 0.0, "pos_horiz_variance": 0.0016508828848600388, "pos_vert_variance": 0.012381292879581451}}, "errors": ["PreArm: Hardware safety switch", "PreArm: Hardware safety switch"]}
{"timestamp": "2026-01-07T16:31:23.429865Z", "telemetry": {"lat": 28.7531915, "lon": 77.1177517, "satellites": 7, "altitude_gps_m": 201.95999145507812, "groundspeed_mps": 0.011171230114996433}, "flight": {"mode": "STABILIZE", "armed": false}, "ekf": {"attitude": {"roll": 0.016246112063527107, "pitch": -0.03591039776802063, "yaw": -1.5862168073654175}, "local_position": {"x": null, "y": null, "z": null}, "status": {"flags": 135, "velocity_variance": 0.0, "pos_horiz_variance": 0.0018403175054118037, "pos_vert_variance": 0.02752220258116722}}, "errors": ["PreArm: Hardware safety switch", "PreArm: Hardware safety switch"]}
{"timestamp": "2026-01-07T16:31:24.430012Z", "telemetry": {"lat": 28.7531943, "lon": 77.1177528, "satellites": 7, "altitude_gps_m": 203.50999450683594, "groundspeed_mps": 0.013701279647648335}, "flight": {"mode": "STABILIZE", "armed": false}, "ekf": {"attitude": {"roll": 0.01645251177251339, "pitch": -0.03590863570570946, "yaw": -1.5861841440200806}, "local_position": {"x": null, "y": null, "z": null}, "status": {"flags": 135, "velocity_variance": 0.0, "pos_horiz_variance": 0.0026505356654524803, "pos_vert_variance": 0.03516142815351486}}, "errors": ["PreArm: Hardware safety switch", "PreArm: Hardware safety switch"]}
{"timestamp": "2026-01-07T16:31:25.430297Z", "telemetry": {"lat": 28.7531954, "lon": 77.1177573, "satellites": 7, "altitude_gps_m": 203.1999969482422, "groundspeed_mps": 0.0179329514503479}, "flight": {"mode": "STABILIZE", "armed": false}, "ekf": {"attitude": {"roll": 0.01633813977241516, "pitch": -0.03589481860399246, "yaw": -1.5859909057617188}, "local_position": {"x": null, "y": null, "z": null}, "status": {"flags": 135, "velocity_variance": 0.0, "pos_horiz_variance": 0.0036154501140117645, "pos_vert_variance": 0.010324041359126568}}, "errors": ["PreArm: Hardware safety switch", "PreArm: Hardware safety switch"]}
{"timestamp": "2026-01-07T16:31:26.434323Z", "telemetry": {"lat": 28.7531994, "lon": 77.1177595, "satellites": 7, "altitude_gps_m": 203.86000061035156, "groundspeed_mps": 0.01733558066189289}, "flight": {"mode": "STABILIZE", "armed": false}, "ekf": {"attitude": {"roll": 0.016223464161157608, "pitch": -0.036032784730196, "yaw": -1.586026668548584}, "local_position": {"x": null, "y": null, "z": null}, "status": {"flags": 135, "velocity_variance": 0.0, "pos_horiz_variance": 0.004343927372246981, "pos_vert_variance": 0.003186676651239395}}, "errors": ["PreArm: Hardware safety switch", "PreArm: Hardware safety switch", "PreArm: Hardware safety switch"]}
{"timestamp": "2026-01-07T16:31:27.434422Z", "telemetry": {"lat": 28.7532013, "lon": 77.1177597, "satellites": 7, "altitude_gps_m": 204.37998962402344, "groundspeed_mps": 0.016880441457033157}, "flight": {"mode": "STABILIZE", "armed": false}, "ekf": {"attitude": {"roll": 0.016244813799858093, "pitch": -0.03603992983698845, "yaw": -1.5859192609786987}, "local_position": {"x": null, "y": null, "z": null}, "status": {"flags": 135, "velocity_variance": 0.0, "pos_horiz_variance": 0.004494995344430208, "pos_vert_variance": 0.07298661023378372}}, "errors": ["PreArm: Hardware safety switch", "PreArm: Hardware safety switch", "PreArm: Hardware safety switch"]}
{"timestamp": "2026-01-07T16:31:28.405608Z", "telemetry": {"lat": 28.7532038, "lon": 77.1177605, "satellites": 7, "altitude_gps_m": 203.5699920654297, "groundspeed_mps": 0.014848215505480766}, "flight": {"mode": "STABILIZE", "armed": false}, "ekf": {"attitude": {"roll": 0.016252310946583748, "pitch": -0.03588611260056496, "yaw": -1.58596670627594}, "local_position": {"x": null, "y": null, "z": null}, "status": {"flags": 135, "velocity_variance": 0.0, "pos_horiz_variance": 0.004236884880810976, "pos_vert_variance": 0.04489124193787575}}, "errors": ["PreArm: Hardware safety switch", "PreArm: Hardware safety switch", "PreArm: Hardware safety switch"]}
{"timestamp": "2026-01-07T16:31:29.406415Z", "telemetry": {"lat": 28.7532046, "lon": 77.1177596, "satellites": 7, "altitude_gps_m": 203.11000061035156, "groundspeed_mps": 0.013453613966703415}, "flight": {"mode": "STABILIZE", "armed": false}, "ekf": {"attitude": {"roll": 0.01622386835515499, "pitch": -0.0358441025018692, "yaw": -1.586000680923462}, "local_position": {"x": null, "y": null, "z": null}, "status": {"flags": 135, "velocity_variance": 0.0, "pos_horiz_variance": 0.004113589413464069, "pos_vert_variance": 0.06142895296216011}}, "errors": ["PreArm: Hardware safety switch", "PreArm: Hardware safety switch", "PreArm: Hardware safety switch"]}
{"timestamp": "2026-01-07T16:31:30.438750Z", "telemetry": {"lat": 28.7531993, "lon": 77.1177586, "satellites": 7, "altitude_gps_m": 202.58999633789062, "groundspeed_mps": 0.010886281728744507}, "flight": {"mode": "STABILIZE", "armed": false}, "ekf": {"attitude": {"roll": 0.01913229003548622, "pitch": -0.03312128037214279, "yaw": -1.5865061283111572}, "local_position": {"x": null, "y": null, "z": null}, "status": {"flags": 135, "velocity_variance": 0.0, "pos_horiz_variance": 0.004163635894656181, "pos_vert_variance": 0.000795779109466821}}, "errors": ["PreArm: Hardware safety switch", "PreArm: Hardware safety switch", "PreArm: Hardware safety switch"]}
{"timestamp": "2026-01-07T16:31:31.439130Z", "telemetry": {"lat": 28.753192, "lon": 77.117761, "satellites": 7, "altitude_gps_m": 201.61000061035156, "groundspeed_mps": 0.019666919484734535}, "flight": {"mode": "STABILIZE", "armed": false}, "ekf": {"attitude": {"roll": 0.018251808360219002, "pitch": -0.03471288084983826, "yaw": -1.586046814918518}, "local_position": {"x": null, "y": null, "z": null}, "status": {"flags": 135, "velocity_variance": 0.0, "pos_horiz_variance": 0.0038697533309459686, "pos_vert_variance": 0.011797068640589714}}, "errors": ["PreArm: Hardware safety switch", "PreArm: Hardware safety switch", "PreArm: Hardware safety switch"]}
{"timestamp": "2026-01-07T16:31:32.439235Z", "telemetry": {"lat": 28.7531803, "lon": 77.1177642, "satellites": 7, "altitude_gps_m": 201.0399932861328, "groundspeed_mps": 0.016126852482557297}, "flight": {"mode": "STABILIZE", "armed": false}, "ekf": {"attitude": {"roll": 0.01792079769074917, "pitch": -0.034901537001132965, "yaw": -1.5860008001327515}, "local_position": {"x": null, "y": null, "z": null}, "status": {"flags": 135, "velocity_variance": 0.0, "pos_horiz_variance": 0.00401959428563714, "pos_vert_variance": 0.016020331531763077}}, "errors": ["PreArm: Hardware safety switch", "PreArm: Hardware safety switch", "PreArm: Hardware safety switch"]}
{"timestamp": "2026-01-07T16:31:33.439376Z", "telemetry": {"lat": 28.7531732, "lon": 77.1177695, "satellites": 7, "altitude_gps_m": 197.34999084472656, "groundspeed_mps": 0.015522990375757217}, "flight": {"mode": "STABILIZE", "armed": false}, "ekf": {"attitude": {"roll": 0.017582306638360023, "pitch": -0.03481767326593399, "yaw": -1.5858522653579712}, "local_position": {"x": null, "y": null, "z": null}, "status": {"flags": 135, "velocity_variance": 0.0, "pos_horiz_variance": 0.004668848589062691, "pos_vert_variance": 0.008272318169474602}}, "errors": ["PreArm: Hardware safety switch", "PreArm: Hardware safety switch", "PreArm: Hardware safety switch"]}
{"timestamp": "2026-01-07T16:31:34.444416Z", "telemetry": {"lat": 28.7531737, "lon": 77.1177701, "satellites": 6, "altitude_gps_m": 196.27999877929688, "groundspeed_mps": 0.015648450702428818}, "flight": {"mode": "STABILIZE", "armed": false}, "ekf": {"attitude": {"roll": 0.01723126694560051, "pitch": -0.0352964773774147, "yaw": -1.5859968662261963}, "local_position": {"x": null, "y": null, "z": null}, "status": {"flags": 135, "velocity_variance": 0.0, "pos_horiz_variance": 0.004704505670815706, "pos_vert_variance": 0.004643233958631754}}, "errors": ["PreArm: Hardware safety switch", "PreArm: Hardware safety switch", "PreArm: Hardware safety switch"]}
{"timestamp": "2026-01-07T16:31:35.413557Z", "telemetry": {"lat": 28.7531748, "lon": 77.1177741, "satellites": 6, "altitude_gps_m": 196.6199951171875, "groundspeed_mps": 0.013713088817894459}, "flight": {"mode": "STABILIZE", "armed": false}, "ekf": {"attitude": {"roll": 0.01794540509581566, "pitch": -0.03431667014956474, "yaw": -1.5857166051864624}, "local_position": {"x": null, "y": null, "z": null}, "status": {"flags": 135, "velocity_variance": 0.0, "pos_horiz_variance": 0.004658984951674938, "pos_vert_variance": 0.00990211684256792}}, "errors": ["PreArm: Hardware safety switch", "PreArm: Hardware safety switch", "PreArm: Hardware safety switch"]}
{"timestamp": "2026-01-07T16:31:36.414747Z", "telemetry": {"lat": 28.7531746, "lon": 77.1177756, "satellites": 6, "altitude_gps_m": 195.8699951171875, "groundspeed_mps": 0.015182418748736382}, "flight": {"mode": "STABILIZE", "armed": false}, "ekf": {"attitude": {"roll": 0.01655629090964794, "pitch": -0.035477522760629654, "yaw": -1.585721731185913}, "local_position": {"x": null, "y": null, "z": null}, "status": {"flags": 135, "velocity_variance": 0.0, "pos_horiz_variance": 0.0041661448776721954, "pos_vert_variance": 0.002821395406499505}}, "errors": ["PreArm: Hardware safety switch", "PreArm: Hardware safety switch", "PreArm: Hardware safety switch"]}
{"timestamp": "2026-01-07T16:31:37.414605Z", "telemetry": {"lat": 28.7531718, "lon": 77.1177813, "satellites": 6, "altitude_gps_m": 197.02999877929688, "groundspeed_mps": 0.009984401054680347}, "flight": {"mode": "STABILIZE", "armed": false}, "ekf": {"attitude": {"roll": 0.016416747123003006, "pitch": -0.03529869765043259, "yaw": -1.5854531526565552}, "local_position": {"x": null, "y": null, "z": null}, "status": {"flags": 135, "velocity_variance": 0.0, "pos_horiz_variance": 0.004007257986813784, "pos_vert_variance": 0.027671486139297485}}, "errors": ["PreArm: Hardware safety switch", "PreArm: Hardware safety switch", "PreArm: Hardware safety switch"]}
{"timestamp": "2026-01-07T16:31:38.414135Z", "telemetry": {"lat": 28.7531672, "lon": 77.1177868, "satellites": 6, "altitude_gps_m": 198.239990234375, "groundspeed_mps": 0.018896538764238358}, "flight": {"mode": "STABILIZE", "armed": false}, "ekf": {"attitude": {"roll": 0.016582785174250603, "pitch": -0.03524653613567352, "yaw": -1.585682988166809}, "local_position": {"x": null, "y": null, "z": null}, "status": {"flags": 135, "velocity_variance": 0.0, "pos_horiz_variance": 0.0041429465636610985, "pos_vert_variance": 0.0013518345076590776}}, "errors": ["PreArm: Hardware safety switch", "PreArm: Hardware safety switch", "PreArm: Hardware safety switch"]}
{"timestamp": "2026-01-07T16:31:39.448204Z", "telemetry": {"lat": 28.7531615, "lon": 77.1177873, "satellites": 6, "altitude_gps_m": 198.8300018310547, "groundspeed_mps": 0.020901279523968697}, "flight": {"mode": "STABILIZE", "armed": false}, "ekf": {"attitude": {"roll": 0.01742919348180294, "pitch": -0.03433385491371155, "yaw": -1.5861001014709473}, "local_position": {"x": null, "y": null, "z": null}, "status": {"flags": 135, "velocity_variance": 0.0, "pos_horiz_variance": 0.0039074840024113655, "pos_vert_variance": 0.015775591135025024}}, "errors": ["PreArm: Hardware safety switch", "PreArm: Hardware safety switch", "PreArm: Hardware safety switch"]}
{"timestamp": "2026-01-07T16:31:40.448148Z", "telemetry": {"lat": 28.753165, "lon": 77.1177884, "satellites": 6, "altitude_gps_m": 198.83999633789062, "groundspeed_mps": 0.017776787281036377}, "flight": {"mode": "STABILIZE", "armed": false}, "ekf": {"attitude": {"roll": 0.016361042857170105, "pitch": -0.03548678010702133, "yaw": -1.5856457948684692}, "local_position": {"x": null, "y": null, "z": null}, "status": {"flags": 135, "velocity_variance": 0.0, "pos_horiz_variance": 0.004097327124327421, "pos_vert_variance": 0.029096562415361404}}, "errors": ["PreArm: Hardware safety switch", "PreArm: Hardware safety switch", "PreArm: Hardware safety switch"]}
{"timestamp": "2026-01-07T16:31:41.418702Z", "telemetry": {"lat": 28.7531683, "lon": 77.1177884, "satellites": 6, "altitude_gps_m": 199.0800018310547, "groundspeed_mps": 0.013344463892281055}, "flight": {"mode": "STABILIZE", "armed": false}, "ekf": {"attitude": {"roll": 0.01703975722193718, "pitch": -0.03479854017496109, "yaw": -1.5858409404754639}, "local_position": {"x": null, "y": null, "z": null}, "status": {"flags": 135, "velocity_variance": 0.0, "pos_horiz_variance": 0.004153165966272354, "pos_vert_variance": 0.05981391295790672}}, "errors": ["PreArm: Hardware safety switch", "PreArm: Hardware safety switch", "PreArm: Hardware safety switch"]}
{"timestamp": "2026-01-07T16:31:42.419530Z", "telemetry": {"lat": 28.7531712, "lon": 77.1177889, "satellites": 6, "altitude_gps_m": 198.94000244140625, "groundspeed_mps": 0.011577961035072803}, "flight": {"mode": "STABILIZE", "armed": false}, "ekf": {"attitude": {"roll": 0.016889765858650208, "pitch": -0.03491777554154396, "yaw": -1.5857452154159546}, "local_position": {"x": null, "y": null, "z": null}, "status": {"flags": 135, "velocity_variance": 0.0, "pos_horiz_variance": 0.004033077973872423, "pos_vert_variance": 0.05390113964676857}}, "errors": ["PreArm: Hardware safety switch", "PreArm: Hardware safety switch", "PreArm: Hardware safety switch"]}
{"timestamp": "2026-01-07T16:31:43.422953Z", "telemetry": {"lat": 28.7531783, "lon": 77.1177906, "satellites": 6, "altitude_gps_m": 198.11000061035156, "groundspeed_mps": 0.012759779579937458}, "flight": {"mode": "STABILIZE", "armed": false}, "ekf": {"attitude": {"roll": 0.016956133767962456, "pitch": -0.03491269797086716, "yaw": -1.5858992338180542}, "local_position": {"x": null, "y": null, "z": null}, "status": {"flags": 135, "velocity_variance": 0.0, "pos_horiz_variance": 0.0036938113626092672, "pos_vert_variance": 0.015704605728387833}}, "errors": ["PreArm: Hardware safety switch", "PreArm: Hardware safety switch", "PreArm: Hardware safety switch"]}
{"timestamp": "2026-01-07T16:31:44.422948Z", "telemetry": {"lat": 28.7531836, "lon": 77.1177948, "satellites": 6, "altitude_gps_m": 198.6599884033203, "groundspeed_mps": 0.014241461642086506}, "flight": {"mode": "STABILIZE", "armed": false}, "ekf": {"attitude": {"roll": 0.01715746521949768, "pitch": -0.034892190247774124, "yaw": -1.5858782529830933}, "local_position": {"x": null, "y": null, "z": null}, "status": {"flags": 135, "velocity_variance": 0.0, "pos_horiz_variance": 0.0032877575140446424, "pos_vert_variance": 0.034029584378004074}}, "errors": ["PreArm: Hardware safety switch", "PreArm: Hardware safety switch", "PreArm: Hardware safety switch"]}
{"timestamp": "2026-01-07T16:31:45.425182Z", "telemetry": {"lat": 28.7531898, "lon": 77.1177958, "satellites": 6, "altitude_gps_m": 199.97999572753906, "groundspeed_mps": 0.016936197876930237}, "flight": {"mode": "STABILIZE", "armed": false}, "ekf": {"attitude": {"roll": 0.01689157448709011, "pitch": -0.03498554974794388, "yaw": -1.5860016345977783}, "local_position": {"x": null, "y": null, "z": null}, "status": {"flags": 135, "velocity_variance": 0.0, "pos_horiz_variance": 0.0035812638234347105, "pos_vert_variance": 0.01887228898704052}}, "errors": ["PreArm: Hardware safety switch", "PreArm: Hardware safety switch", "PreArm: Hardware safety switch"]}
