{"timestamp": "2025-12-16T06:23:56.176286Z", "telemetry": {"lat": 0.0, "lon": 0.0, "satellites": 0, "altitude_gps_m": 0.5199999809265137, "groundspeed_mps": 0.1049731969833374}, "flight": {"mode": "STABILIZE", "armed": false}, "ekf": {"attitude": {"roll": -0.013918510638177395, "pitch": -0.0677400529384613, "yaw": -2.6785545349121094}, "local_position": {"x": null, "y": null, "z": null}, "status": {"flags": 135, "velocity_variance": 0.0, "pos_horiz_variance": 0.024763822555541992, "pos_vert_variance": 0.09699130058288574}}, "errors": []}
{"timestamp": "2025-12-16T06:23:57.218443Z", "telemetry": {"lat": 0.0, "lon": 0.0, "satellites": 0, "altitude_gps_m": 0.5199999809265137, "groundspeed_mps": 0.10435303300619125}, "flight": {"mode": "STABILIZE", "armed": false}, "ekf": {"attitude": {"roll": -0.013021131046116352, "pitch": -0.06936392933130264, "yaw": -2.678384780883789}, "local_position": {"x": null, "y": null, "z": null}, "status": {"flags": 135, "velocity_variance": 0.0, "pos_horiz_variance": 0.025174766778945923, "pos_vert_variance": 0.008502459153532982}}, "errors": []}
{"timestamp": "2025-12-16T06:23:58.219103Z", "telemetry": {"lat": 0.0, "lon": 0.0, "satellites": 0, "altitude_gps_m": 0.5199999809265137, "groundspeed_mps": 0.101752370595932}, "flight": {"mode": "STABILIZE", "armed": false}, "ekf": {"attitude": {"roll": -0.012927516363561153, "pitch": -0.06961935758590698, "yaw": -2.6785871982574463}, "local_position": {"x": null, "y": null, "z": null}, "status": {"flags": 135, "velocity_variance": 0.0, "pos_horiz_variance": 0.025262346491217613, "pos_vert_variance": 0.004456062335520983}}, "errors": []}
{"timestamp": "2025-12-16T06:23:59.218497Z", "telemetry": {"lat": 0.0, "lon": 0.0, "satellites": 0, "altitude_gps_m": 0.5199999809265137, "groundspeed_mps": 0.10170576721429825}, "flight": {"mode": "STABILIZE", "armed": false}, "ekf": {"attitude": {"roll": -0.012854049913585186, "pitch": -0.06949416548013687, "yaw": -2.6784238815307617}, "local_position": {"x": null, "y": null, "z": null}, "status": {"flags": 135, "velocity_variance": 0.0, "pos_horiz_variance": 0.024994350969791412, "pos_vert_variance": 0.03404022380709648}}, "errors": []}
{"timestamp": "2025-12-16T06:24:00.236976Z", "telemetry": {"lat": 0.0, "lon": 0.0, "satellites": 0, "altitude_gps_m": 0.5199999809265137, "groundspeed_mps": 0.09940981864929199}, "flight": {"mode": "STABILIZE", "armed": false}, "ekf": {"attitude": {"roll": -0.012921935878694057, "pitch": -0.06909889727830887, "yaw": -2.6777753829956055}, "local_position": {"x": null, "y": null, "z": null}, "status": {"flags": 135, "velocity_variance": 0.0, "pos_horiz_variance": 0.024757808074355125, "pos_vert_variance": 0.005073831882327795}}, "errors": []}
{"timestamp": "2025-12-16T06:24:01.228330Z", "telemetry": {"lat": 0.0, "lon": 0.0, "satellites": 0, "altitude_gps_m": 0.5199999809265137, "groundspeed_mps": 0.10118802636861801}, "flight": {"mode": "STABILIZE", "armed": false}, "ekf": {"attitude": {"roll": -0.012575955130159855, "pitch": -0.07037012279033661, "yaw": -2.678513288497925}, "local_position": {"x": null, "y": null, "z": null}, "status": {"flags": 135, "velocity_variance": 0.0, "pos_horiz_variance": 0.025059809908270836, "pos_vert_variance": 0.06534730643033981}}, "errors": []}
{"timestamp": "2025-12-16T06:24:02.218577Z", "telemetry": {"lat": 0.0, "lon": 0.0, "satellites": 0, "altitude_gps_m": 0.5199999809265137, "groundspeed_mps": 0.10057113319635391}, "flight": {"mode": "STABILIZE", "armed": false}, "ekf": {"attitude": {"roll": -0.012891878373920918, "pitch": -0.06948438286781311, "yaw": -2.678049325942993}, "local_position": {"x": null, "y": null, "z": null}, "status": {"flags": 135, "velocity_variance": 0.0, "pos_horiz_variance": 0.024752477183938026, "pos_vert_variance": 0.01857995055615902}}, "errors": []}
{"timestamp": "2025-12-16T06:24:03.218491Z", "telemetry": {"lat": 0.0, "lon": 0.0, "satellites": 0, "altitude_gps_m": 0.5199999809265137, "groundspeed_mps": 0.1027255430817604}, "flight": {"mode": "STABILIZE", "armed": false}, "ekf": {"attitude": {"roll": -0.013079189695417881, "pitch": -0.06941281259059906, "yaw": -2.6780009269714355}, "local_position": {"x": null, "y": null, "z": null}, "status": {"flags": 135, "velocity_variance": 0.0, "pos_horiz_variance": 0.02481156773865223, "pos_vert_variance": 0.08068365603685379}}, "errors": []}
{"timestamp": "2025-12-16T06:24:04.219198Z", "telemetry": {"lat": 0.0, "lon": 0.0, "satellites": 0, "altitude_gps_m": 0.5199999809265137, "groundspeed_mps": 0.1021886095404625}, "flight": {"mode": "STABILIZE", "armed": false}, "ekf": {"attitude": {"roll": -0.013113676570355892, "pitch": -0.06916144490242004, "yaw": -2.677748680114746}, "local_position": {"x": null, "y": null, "z": null}, "status": {"flags": 135, "velocity_variance": 0.0, "pos_horiz_variance": 0.02487003058195114, "pos_vert_variance": 0.01715966686606407}}, "errors": []}
{"timestamp": "2025-12-16T06:24:05.218540Z", "telemetry": {"lat": 0.0, "lon": 0.0, "satellites": 0, "altitude_gps_m": 0.5199999809265137, "groundspeed_mps": 0.10442847013473511}, "flight": {"mode": "STABILIZE", "armed": false}, "ekf": {"attitude": {"roll": -0.013202848844230175, "pitch": -0.06862198561429977, "yaw": -2.67755389213562}, "local_position": {"x": null, "y": null, "z": null}, "status": {"flags": 135, "velocity_variance": 0.0, "pos_horiz_variance": 0.02506767027080059, "pos_vert_variance": 0.006578327156603336}}, "errors": []}
{"timestamp": "2025-12-16T06:24:06.218829Z", "telemetry": {"lat": 0.0, "lon": 0.0, "satellites": 0, "altitude_gps_m": 0.5199999809265137, "groundspeed_mps": 0.10493206977844238}, "flight": {"mode": "STABILIZE", "armed": false}, "ekf": {"attitude": {"roll": -0.013958032242953777, "pitch": -0.06706494092941284, "yaw": -2.6770076751708984}, "local_position": {"x": null, "y": null, "z": null}, "status": {"flags": 135, "velocity_variance": 0.0, "pos_horiz_variance": 0.025354396551847458, "pos_vert_variance": 0.01195008959621191}}, "errors": []}
{"timestamp": "2025-12-16T06:24:07.232663Z", "telemetry": {"lat": 0.0, "lon": 0.0, "satellites": 0, "altitude_gps_m": 0.5199999809265137, "groundspeed_mps": 0.10057298839092255}, "flight": {"mode": "STABILIZE", "armed": false}, "ekf": {"attitude": {"roll": -0.014140884391963482, "pitch": -0.06711479276418686, "yaw": -2.6766738891601562}, "local_position": {"x": null, "y": null, "z": null}, "status": {"flags": 135, "velocity_variance": 0.0, "pos_horiz_variance": 0.024976041167974472, "pos_vert_variance": 0.040700897574424744}}, "errors": []}
{"timestamp": "2025-12-16T06:24:08.225383Z", "telemetry": {"lat": 0.0, "lon": 0.0, "satellites": 0, "altitude_gps_m": 0.5199999809265137, "groundspeed_mps": 0.09808047860860825}, "flight": {"mode": "STABILIZE", "armed": false}, "ekf": {"attitude": {"roll": -0.01426746603101492, "pitch": -0.06687959283590317, "yaw": -2.6770613193511963}, "local_position": {"x": null, "y": null, "z": null}, "status": {"flags": 135, "velocity_variance": 0.0, "pos_horiz_variance": 0.024679530411958694, "pos_vert_variance": 0.03995417803525925}}, "errors": []}
{"timestamp": "2025-12-16T06:24:09.222524Z", "telemetry": {"lat": 0.0, "lon": 0.0, "satellites": 0, "altitude_gps_m": 0.5199999809265137, "groundspeed_mps": 0.1545569896697998}, "flight": {"mode": "STABILIZE", "armed": false}, "ekf": {"attitude": {"roll": -0.0358712263405323, "pitch": -0.05333199352025986, "yaw": -2.9589176177978516}, "local_position": {"x": null, "y": null, "z": null}, "status": {"flags": 135, "velocity_variance": 0.0, "pos_horiz_variance": 0.025615284219384193, "pos_vert_variance": 0.004400560166686773}}, "errors": []}
{"timestamp": "2025-12-16T06:24:10.222474Z", "telemetry": {"lat": 0.0, "lon": 0.0, "satellites": 0, "altitude_gps_m": 0.5199999809265137, "groundspeed_mps": 1.20891273021698}, "flight": {"mode": "STABILIZE", "armed": false}, "ekf": {"attitude": {"roll": 0.06142900884151459, "pitch": -0.1076217070221901, "yaw": -2.422339677810669}, "local_position": {"x": null, "y": null, "z": null}, "status": {"flags": 135, "velocity_variance": 0.0, "pos_horiz_variance": 0.09594836831092834, "pos_vert_variance": 0.013774522580206394}}, "errors": []}
{"timestamp": "2025-12-16T06:24:11.221797Z", "telemetry": {"lat": 0.0, "lon": 0.0, "satellites": 0, "altitude_gps_m": 0.5199999809265137, "groundspeed_mps": 0.7651925086975098}, "flight": {"mode": "STABILIZE", "armed": false}, "ekf": {"attitude": {"roll": 0.09668853133916855, "pitch": -0.020966853946447372, "yaw": -2.050929546356201}, "local_position": {"x": null, "y": null, "z": null}, "status": {"flags": 135, "velocity_variance": 0.0, "pos_horiz_variance": 0.16870765388011932, "pos_vert_variance": 0.009909327141940594}}, "errors": []}
{"timestamp": "2025-12-16T06:24:12.218356Z", "telemetry": {"lat": 0.0, "lon": 0.0, "satellites": 0, "altitude_gps_m": 0.5199999809265137, "groundspeed_mps": 0.7475261688232422}, "flight": {"mode": "STABILIZE", "armed": false}, "ekf": {"attitude": {"roll": 0.05714788660407066, "pitch": -0.06339512765407562, "yaw": -1.7231534719467163}, "local_position": {"x": null, "y": null, "z": null}, "status": {"flags": 135, "velocity_variance": 0.0, "pos_horiz_variance": 0.16645656526088715, "pos_vert_variance": 0.01173288095742464}}, "errors": []}
{"timestamp": "2025-12-16T06:24:13.218935Z", "telemetry": {"lat": 0.0, "lon": 0.0, "satellites": 0, "altitude_gps_m": 0.5199999809265137, "groundspeed_mps": 0.20971542596817017}, "flight": {"mode": "STABILIZE", "armed": false}, "ekf": {"attitude": {"roll": -0.07841916382312775, "pitch": 0.08674707263708115, "yaw": -1.203471064567566}, "local_position": {"x": null, "y": null, "z": null}, "status": {"flags": 135, "velocity_variance": 0.0, "pos_horiz_variance": 0.10232900828123093, "pos_vert_variance": 0.019164931029081345}}, "errors": ["PreArm: Hardware safety switch"]}
{"timestamp": "2025-12-16T06:24:14.218711Z", "telemetry": {"lat": 0.0, "lon": 0.0, "satellites": 0, "altitude_gps_m": 0.5199999809265137, "groundspeed_mps": 0.8495288491249084}, "flight": {"mode": "STABILIZE", "armed": false}, "ekf": {"attitude": {"roll": -0.15814729034900665, "pitch": 0.10339917987585068, "yaw": -0.8142610788345337}, "local_position": {"x": null, "y": null, "z": null}, "status": {"flags": 135, "velocity_variance": 0.0, "pos_horiz_variance": 0.038366422057151794, "pos_vert_variance": 0.08556286990642548}}, "errors": ["PreArm: Hardware safety switch"]}
{"timestamp": "2025-12-16T06:24:15.219088Z", "telemetry": {"lat": 0.0, "lon": 0.0, "satellites": 0, "altitude_gps_m": 0.5199999809265137, "groundspeed_mps": 1.2025303840637207}, "flight": {"mode": "STABILIZE", "armed": false}, "ekf": {"attitude": {"roll": -0.0731208324432373, "pitch": -0.014447342604398727, "yaw": 0.0057146488688886166}, "local_position": {"x": null, "y": null, "z": null}, "status": {"flags": 135, "velocity_variance": 0.0, "pos_horiz_variance": 0.14356401562690735, "pos_vert_variance": 0.01645713672041893}}, "errors": ["PreArm: Hardware safety switch"]}
{"timestamp": "2025-12-16T06:24:16.218873Z", "telemetry": {"lat": 0.0, "lon": 0.0, "satellites": 0, "altitude_gps_m": 0.5199999809265137, "groundspeed_mps": 1.595278024673462}, "flight": {"mode": "STABILIZE", "armed": false}, "ekf": {"attitude": {"roll": 0.008017381653189659, "pitch": 0.06029258668422699, "yaw": 0.7648701667785645}, "local_position": {"x": null, "y": null, "z": null}, "status": {"flags": 135, "velocity_variance": 0.0, "pos_horiz_variance": 0.24961423873901367, "pos_vert_variance": 0.029586786404252052}}, "errors": ["PreArm: Hardware safety switch"]}
{"timestamp": "2025-12-16T06:24:17.230293Z", "telemetry": {"lat": 0.0, "lon": 0.0, "satellites": 0, "altitude_gps_m": 0.5199999809265137, "groundspeed_mps": 1.2434563636779785}, "flight": {"mode": "STABILIZE", "armed": false}, "ekf": {"attitude": {"roll": 0.07180774211883545, "pitch": 0.1911032348871231, "yaw": 1.1712806224822998}, "local_position": {"x": null, "y": null, "z": null}, "status": {"flags": 1024, "velocity_variance": 0.0, "pos_horiz_variance": 0.2824617326259613, "pos_vert_variance": 0.04894823208451271}}, "errors": ["PreArm: Hardware safety switch"]}
{"timestamp": "2025-12-16T06:24:18.234569Z", "telemetry": {"lat": 0.0, "lon": 0.0, "satellites": 0, "altitude_gps_m": 0.5199999809265137, "groundspeed_mps": 0.5460166931152344}, "flight": {"mode": "STABILIZE", "armed": false}, "ekf": {"attitude": {"roll": 0.16726931929588318, "pitch": 0.21033714711666107, "yaw": 0.7984327673912048}, "local_position": {"x": null, "y": null, "z": null}, "status": {"flags": 135, "velocity_variance": 0.0, "pos_horiz_variance": 0.1898466795682907, "pos_vert_variance": 0.013507016003131866}}, "errors": ["PreArm: Hardware safety switch"]}
{"timestamp": "2025-12-16T06:24:19.233622Z", "telemetry": {"lat": 0.0, "lon": 0.0, "satellites": 0, "altitude_gps_m": 0.5199999809265137, "groundspeed_mps": 0.7346757650375366}, "flight": {"mode": "STABILIZE", "armed": false}, "ekf": {"attitude": {"roll": 0.04706751927733421, "pitch": 0.0799143835902214, "yaw": 0.3431985378265381}, "local_position": {"x": null, "y": null, "z": null}, "status": {"flags": 135, "velocity_variance": 0.0, "pos_horiz_variance": 0.08038463443517685, "pos_vert_variance": 0.03729524835944176}}, "errors": ["PreArm: Hardware safety switch"]}
{"timestamp": "2025-12-16T06:24:20.233237Z", "telemetry": {"lat": 0.0, "lon": 0.0, "satellites": 0, "altitude_gps_m": 0.5199999809265137, "groundspeed_mps": 0.498575896024704}, "flight": {"mode": "STABILIZE", "armed": false}, "ekf": {"attitude": {"roll": -0.00672162976115942, "pitch": 0.07799755036830902, "yaw": 0.665992021560669}, "local_position": {"x": null, "y": null, "z": null}, "status": {"flags": 135, "velocity_variance": 0.0, "pos_horiz_variance": 0.10133975744247437, "pos_vert_variance": 0.035376500338315964}}, "errors": ["PreArm: Hardware safety switch"]}
{"timestamp": "2025-12-16T06:24:21.221242Z", "telemetry": {"lat": 0.0, "lon": 0.0, "satellites": 0, "altitude_gps_m": 0.5199999809265137, "groundspeed_mps": 0.33916977047920227}, "flight": {"mode": "STABILIZE", "armed": false}, "ekf": {"attitude": {"roll": -0.10777033865451813, "pitch": 0.05493934452533722, "yaw": 1.1658371686935425}, "local_position": {"x": null, "y": null, "z": null}, "status": {"flags": 135, "velocity_variance": 0.0, "pos_horiz_variance": 0.05507032573223114, "pos_vert_variance": 0.041698820888996124}}, "errors": ["PreArm: Hardware safety switch"]}
{"timestamp": "2025-12-16T06:24:22.219063Z", "telemetry": {"lat": 0.0, "lon": 0.0, "satellites": 0, "altitude_gps_m": 0.5199999809265137, "groundspeed_mps": 1.156203269958496}, "flight": {"mode": "STABILIZE", "armed": false}, "ekf": {"attitude": {"roll": -0.013177507556974888, "pitch": 0.0996801033616066, "yaw": 2.499850273132324}, "local_position": {"x": null, "y": null, "z": null}, "status": {"flags": 135, "velocity_variance": 0.0, "pos_horiz_variance": 0.08027278631925583, "pos_vert_variance": 0.07598016411066055}}, "errors": ["PreArm: Hardware safety switch"]}
{"timestamp": "2025-12-16T06:24:23.221278Z", "telemetry": {"lat": 0.0, "lon": 0.0, "satellites": 0, "altitude_gps_m": 0.5199999809265137, "groundspeed_mps": 0.4773510992527008}, "flight": {"mode": "STABILIZE", "armed": false}, "ekf": {"attitude": {"roll": -0.007057393901050091, "pitch": 0.14469210803508759, "yaw": 2.9052395820617676}, "local_position": {"x": null, "y": null, "z": null}, "status": {"flags": 135, "velocity_variance": 0.0, "pos_horiz_variance": 0.18552955985069275, "pos_vert_variance": 0.02063986100256443}}, "errors": ["PreArm: Hardware safety switch"]}
{"timestamp": "2025-12-16T06:24:24.219134Z", "telemetry": {"lat": 0.0, "lon": 0.0, "satellites": 0, "altitude_gps_m": 0.5199999809265137, "groundspeed_mps": 0.28334957361221313}, "flight": {"mode": "STABILIZE", "armed": false}, "ekf": {"attitude": {"roll": -0.05006428435444832, "pitch": 0.15479354560375214, "yaw": 2.912365674972534}, "local_position": {"x": null, "y": null, "z": null}, "status": {"flags": 135, "velocity_variance": 0.0, "pos_horiz_variance": 0.0639037936925888, "pos_vert_variance": 0.03249046206474304}}, "errors": ["PreArm: Hardware safety switch"]}
{"timestamp": "2025-12-16T06:24:25.218449Z", "telemetry": {"lat": 0.0, "lon": 0.0, "satellites": 0, "altitude_gps_m": 0.5199999809265137, "groundspeed_mps": 0.6585854291915894}, "flight": {"mode": "STABILIZE", "armed": false}, "ekf": {"attitude": {"roll": -0.010964483954012394, "pitch": 0.1424054056406021, "yaw": 2.862910509109497}, "local_position": {"x": null, "y": null, "z": null}, "status": {"flags": 135, "velocity_variance": 0.0, "pos_horiz_variance": 0.06576969474554062, "pos_vert_variance": 0.009111016988754272}}, "errors": ["PreArm: Hardware safety switch"]}
{"timestamp": "2025-12-16T06:24:26.218356Z", "telemetry": {"lat": 0.0, "lon": 0.0, "satellites": 0, "altitude_gps_m": 0.5199999809265137, "groundspeed_mps": 0.40392205119132996}, "flight": {"mode": "STABILIZE", "armed": false}, "ekf": {"attitude": {"roll": -0.049516234546899796, "pitch": 0.10207583755254745, "yaw": 2.922508716583252}, "local_position": {"x": null, "y": null, "z": null}, "status": {"flags": 135, "velocity_variance": 0.0, "pos_horiz_variance": 0.0857737585902214, "pos_vert_variance": 0.029781725257635117}}, "errors": ["PreArm: Hardware safety switch"]}
{"timestamp": "2025-12-16T06:24:27.219062Z", "telemetry": {"lat": 0.0, "lon": 0.0, "satellites": 0, "altitude_gps_m": 0.5199999809265137, "groundspeed_mps": 0.5830819010734558}, "flight": {"mode": "STABILIZE", "armed": false}, "ekf": {"attitude": {"roll": -0.09092701226472855, "pitch": 0.09840324521064758, "yaw": 2.656320571899414}, "local_position": {"x": null, "y": null, "z": null}, "status": {"flags": 135, "velocity_variance": 0.0, "pos_horiz_variance": 0.08799377828836441, "pos_vert_variance": 0.10927771031856537}}, "errors": ["PreArm: Hardware safety switch"]}
{"timestamp": "2025-12-16T06:24:28.230732Z", "telemetry": {"lat": 0.0, "lon": 0.0, "satellites": 0, "altitude_gps_m": 0.5199999809265137, "groundspeed_mps": 0.3488576114177704}, "flight": {"mode": "STABILIZE", "armed": false}, "ekf": {"attitude": {"roll": -0.11821257323026657, "pitch": 0.09296640008687973, "yaw": 2.785893678665161}, "local_position": {"x": null, "y": null, "z": null}, "status": {"flags": 135, "velocity_variance": 0.0, "pos_horiz_variance": 0.09795182198286057, "pos_vert_variance": 0.0009986134245991707}}, "errors": ["PreArm: Hardware safety switch"]}
{"timestamp": "2025-12-16T06:24:29.226719Z", "telemetry": {"lat": 0.0, "lon": 0.0, "satellites": 0, "altitude_gps_m": 0.5199999809265137, "groundspeed_mps": 0.27460360527038574}, "flight": {"mode": "STABILIZE", "armed": false}, "ekf": {"attitude": {"roll": -0.1157614216208458, "pitch": 0.07431208342313766, "yaw": 2.772768020629883}, "local_position": {"x": null, "y": null, "z": null}, "status": {"flags": 135, "velocity_variance": 0.0, "pos_horiz_variance": 0.07934891432523727, "pos_vert_variance": 0.01890508085489273}}, "errors": ["PreArm: Hardware safety switch"]}
{"timestamp": "2025-12-16T06:24:30.222968Z", "telemetry": {"lat": 0.0, "lon": 0.0, "satellites": 0, "altitude_gps_m": 0.5199999809265137, "groundspeed_mps": 0.2522604465484619}, "flight": {"mode": "STABILIZE", "armed": false}, "ekf": {"attitude": {"roll": -0.10675063729286194, "pitch": 0.07348905503749847, "yaw": 2.863269805908203}, "local_position": {"x": null, "y": null, "z": null}, "status": {"flags": 135, "velocity_variance": 0.0, "pos_horiz_variance": 0.06512167304754257, "pos_vert_variance": 0.005516027566045523}}, "errors": ["PreArm: Hardware safety switch"]}
{"timestamp": "2025-12-16T06:24:31.224120Z", "telemetry": {"lat": 0.0, "lon": 0.0, "satellites": 0, "altitude_gps_m": 0.5199999809265137, "groundspeed_mps": 0.2598204016685486}, "flight": {"mode": "STABILIZE", "armed": false}, "ekf": {"attitude": {"roll": -0.10041108727455139, "pitch": 0.05752940475940704, "yaw": 2.886946439743042}, "local_position": {"x": null, "y": null, "z": null}, "status": {"flags": 135, "velocity_variance": 0.0, "pos_horiz_variance": 0.054457325488328934, "pos_vert_variance": 0.032381899654865265}}, "errors": ["PreArm: Hardware safety switch"]}
{"timestamp": "2025-12-16T06:24:32.218471Z", "telemetry": {"lat": 0.0, "lon": 0.0, "satellites": 0, "altitude_gps_m": 0.5199999809265137, "groundspeed_mps": 0.23074407875537872}, "flight": {"mode": "STABILIZE", "armed": false}, "ekf": {"attitude": {"roll": -0.08450696617364883, "pitch": 0.04068633168935776, "yaw": 2.856360673904419}, "local_position": {"x": null, "y": null, "z": null}, "status": {"flags": 135, "velocity_variance": 0.0, "pos_horiz_variance": 0.05378798767924309, "pos_vert_variance": 0.010918221436440945}}, "errors": ["PreArm: Hardware safety switch"]}
{"timestamp": "2025-12-16T06:24:33.222322Z", "telemetry": {"lat": 0.0, "lon": 0.0, "satellites": 0, "altitude_gps_m": 0.5199999809265137, "groundspeed_mps": 0.1413356065750122}, "flight": {"mode": "STABILIZE", "armed": false}, "ekf": {"attitude": {"roll": -0.07368691265583038, "pitch": 0.06709704548120499, "yaw": 2.832531452178955}, "local_position": {"x": null, "y": null, "z": null}, "status": {"flags": 135, "velocity_variance": 0.0, "pos_horiz_variance": 0.04858521744608879, "pos_vert_variance": 0.01048668846487999}}, "errors": ["PreArm: Hardware safety switch"]}
{"timestamp": "2025-12-16T06:24:34.219145Z", "telemetry": {"lat": 0.0, "lon": 0.0, "satellites": 0, "altitude_gps_m": 0.5199999809265137, "groundspeed_mps": 0.5551133751869202}, "flight": {"mode": "STABILIZE", "armed": false}, "ekf": {"attitude": {"roll": -0.17262770235538483, "pitch": -0.02328866347670555, "yaw": 2.217050075531006}, "local_position": {"x": null, "y": null, "z": null}, "status": {"flags": 135, "velocity_variance": 0.0, "pos_horiz_variance": 0.05292486399412155, "pos_vert_variance": 0.009666329249739647}}, "errors": ["PreArm: Hardware safety switch"]}
{"timestamp": "2025-12-16T06:24:35.225479Z", "telemetry": {"lat": 0.0, "lon": 0.0, "satellites": 0, "altitude_gps_m": 0.5199999809265137, "groundspeed_mps": 0.4684554934501648}, "flight": {"mode": "STABILIZE", "armed": false}, "ekf": {"attitude": {"roll": -0.032081104815006256, "pitch": -0.011045534163713455, "yaw": 1.530005931854248}, "local_position": {"x": null, "y": null, "z": null}, "status": {"flags": 135, "velocity_variance": 0.0, "pos_horiz_variance": 0.05267653614282608, "pos_vert_variance": 0.06820566952228546}}, "errors": ["PreArm: Hardware safety switch"]}
{"timestamp": "2025-12-16T06:24:36.218614Z", "telemetry": {"lat": 0.0, "lon": 0.0, "satellites": 0, "altitude_gps_m": 0.5199999809265137, "groundspeed_mps": 0.5826213359832764}, "flight": {"mode": "STABILIZE", "armed": false}, "ekf": {"attitude": {"roll": -0.009699259884655476, "pitch": -0.057859212160110474, "yaw": 1.5401556491851807}, "local_position": {"x": null, "y": null, "z": null}, "status": {"flags": 135, "velocity_variance": 0.0, "pos_horiz_variance": 0.08228782564401627, "pos_vert_variance": 0.018566593527793884}}, "errors": ["PreArm: Hardware safety switch"]}
{"timestamp": "2025-12-16T06:24:37.218407Z", "telemetry": {"lat": 0.0, "lon": 0.0, "satellites": 0, "altitude_gps_m": 0.5199999809265137, "groundspeed_mps": 0.645974338054657}, "flight": {"mode": "STABILIZE", "armed": false}, "ekf": {"attitude": {"roll": -0.04417464882135391, "pitch": -0.0654512420296669, "yaw": 1.6455190181732178}, "local_position": {"x": null, "y": null, "z": null}, "status": {"flags": 135, "velocity_variance": 0.0, "pos_horiz_variance": 0.11249972879886627, "pos_vert_variance": 0.035862598568201065}}, "errors": ["PreArm: Hardware safety switch"]}
{"timestamp": "2025-12-16T06:24:38.218507Z", "telemetry": {"lat": 0.0, "lon": 0.0, "satellites": 0, "altitude_gps_m": 0.5199999809265137, "groundspeed_mps": 0.3113738000392914}, "flight": {"mode": "STABILIZE", "armed": false}, "ekf": {"attitude": {"roll": -0.018951043486595154, "pitch": -0.10574527084827423, "yaw": 1.5486063957214355}, "local_position": {"x": null, "y": null, "z": null}, "status": {"flags": 135, "velocity_variance": 0.0, "pos_horiz_variance": 0.11170265078544617, "pos_vert_variance": 0.01975291594862938}}, "errors": ["PreArm: Hardware safety switch"]}
{"timestamp": "2025-12-16T06:24:39.233513Z", "telemetry": {"lat": 0.0, "lon": 0.0, "satellites": 0, "altitude_gps_m": 0.5199999809265137, "groundspeed_mps": 0.17627720534801483}, "flight": {"mode": "STABILIZE", "armed": false}, "ekf": {"attitude": {"roll": -0.04833522066473961, "pitch": -0.060857899487018585, "yaw": 1.5739426612854004}, "local_position": {"x": null, "y": null, "z": null}, "status": {"flags": 135, "velocity_variance": 0.0, "pos_horiz_variance": 0.08326918631792068, "pos_vert_variance": 0.020668767392635345}}, "errors": ["PreArm: Hardware safety switch"]}
{"timestamp": "2025-12-16T06:24:40.223158Z", "telemetry": {"lat": 0.0, "lon": 0.0, "satellites": 0, "altitude_gps_m": 0.5199999809265137, "groundspeed_mps": 0.08937177807092667}, "flight": {"mode": "STABILIZE", "armed": false}, "ekf": {"attitude": {"roll": -0.012788866646587849, "pitch": -0.14382798969745636, "yaw": 1.5214959383010864}, "local_position": {"x": null, "y": null, "z": null}, "status": {"flags": 135, "velocity_variance": 0.0, "pos_horiz_variance": 0.048365529626607895, "pos_vert_variance": 0.05477707087993622}}, "errors": ["PreArm: Hardware safety switch"]}
{"timestamp": "2025-12-16T06:24:41.222647Z", "telemetry": {"lat": 0.0, "lon": 0.0, "satellites": 0, "altitude_gps_m": 0.5199999809265137, "groundspeed_mps": 0.09287957102060318}, "flight": {"mode": "STABILIZE", "armed": false}, "ekf": {"attitude": {"roll": -0.00837972853332758, "pitch": -0.10470134764909744, "yaw": 1.4892359972000122}, "local_position": {"x": null, "y": null, "z": null}, "status": {"flags": 135, "velocity_variance": 0.0, "pos_horiz_variance": 0.027561532333493233, "pos_vert_variance": 0.004117144737392664}}, "errors": ["PreArm: Hardware safety switch"]}
{"timestamp": "2025-12-16T06:24:42.227403Z", "telemetry": {"lat": 0.0, "lon": 0.0, "satellites": 0, "altitude_gps_m": 0.5199999809265137, "groundspeed_mps": 0.04992784932255745}, "flight": {"mode": "STABILIZE", "armed": false}, "ekf": {"attitude": {"roll": -0.02053093910217285, "pitch": -0.09187547862529755, "yaw": 1.5141621828079224}, "local_position": {"x": null, "y": null, "z": null}, "status": {"flags": 135, "velocity_variance": 0.0, "pos_horiz_variance": 0.022770671173930168, "pos_vert_variance": 0.06728865206241608}}, "errors": ["PreArm: Hardware safety switch"]}
{"timestamp": "2025-12-16T06:24:43.218128Z", "telemetry": {"lat": 0.0, "lon": 0.0, "satellites": 0, "altitude_gps_m": 0.5199999809265137, "groundspeed_mps": 0.09430042654275894}, "flight": {"mode": "STABILIZE", "armed": false}, "ekf": {"attitude": {"roll": 0.0047663054428994656, "pitch": -0.15074101090431213, "yaw": 1.466306447982788}, "local_position": {"x": null, "y": null, "z": null}, "status": {"flags": 135, "velocity_variance": 0.0, "pos_horiz_variance": 0.011185914278030396, "pos_vert_variance": 0.07157090306282043}}, "errors": ["PreArm: Hardware safety switch"]}
{"timestamp": "2025-12-16T06:24:44.221475Z", "telemetry": {"lat": 0.0, "lon": 0.0, "satellites": 0, "altitude_gps_m": 0.5199999809265137, "groundspeed_mps": 0.27000662684440613}, "flight": {"mode": "STABILIZE", "armed": false}, "ekf": {"attitude": {"roll": -0.041034627705812454, "pitch": -0.028674084693193436, "yaw": 1.65923273563385}, "local_position": {"x": null, "y": null, "z": null}, "status": {"flags": 135, "velocity_variance": 0.0, "pos_horiz_variance": 0.010648788884282112, "pos_vert_variance": 0.02188081480562687}}, "errors": ["PreArm: Hardware safety switch", "PreArm: Hardware safety switch"]}
{"timestamp": "2025-12-16T06:24:45.218988Z", "telemetry": {"lat": 0.0, "lon": 0.0, "satellites": 0, "altitude_gps_m": 0.5199999809265137, "groundspeed_mps": 0.1898622363805771}, "flight": {"mode": "STABILIZE", "armed": false}, "ekf": {"attitude": {"roll": -0.12938901782035828, "pitch": -0.06667427718639374, "yaw": 2.1340043544769287}, "local_position": {"x": null, "y": null, "z": null}, "status": {"flags": 135, "velocity_variance": 0.0, "pos_horiz_variance": 0.03536063805222511, "pos_vert_variance": 0.03165128082036972}}, "errors": ["PreArm: Hardware safety switch", "PreArm: Hardware safety switch"]}
{"timestamp": "2025-12-16T06:24:46.218817Z", "telemetry": {"lat": 0.0, "lon": 0.0, "satellites": 0, "altitude_gps_m": 0.5199999809265137, "groundspeed_mps": 0.06102466955780983}, "flight": {"mode": "STABILIZE", "armed": false}, "ekf": {"attitude": {"roll": -0.13958768546581268, "pitch": -0.02188955247402191, "yaw": 2.190272331237793}, "local_position": {"x": null, "y": null, "z": null}, "status": {"flags": 135, "velocity_variance": 0.0, "pos_horiz_variance": 0.04211319237947464, "pos_vert_variance": 0.008356640115380287}}, "errors": ["PreArm: Hardware safety switch", "PreArm: Hardware safety switch"]}
{"timestamp": "2025-12-16T06:24:47.219108Z", "telemetry": {"lat": 0.0, "lon": 0.0, "satellites": 0, "altitude_gps_m": 0.5199999809265137, "groundspeed_mps": 0.369197279214859}, "flight": {"mode": "STABILIZE", "armed": false}, "ekf": {"attitude": {"roll": -0.12422095984220505, "pitch": -0.02782410755753517, "yaw": 2.2841877937316895}, "local_position": {"x": null, "y": null, "z": null}, "status": {"flags": 135, "velocity_variance": 0.0, "pos_horiz_variance": 0.0017583947628736496, "pos_vert_variance": 0.04269465431571007}}, "errors": ["PreArm: Hardware safety switch", "PreArm: Hardware safety switch"]}
{"timestamp": "2025-12-16T06:24:48.218666Z", "telemetry": {"lat": 0.0, "lon": 0.0, "satellites": 0, "altitude_gps_m": 0.5199999809265137, "groundspeed_mps": 0.2830936908721924}, "flight": {"mode": "STABILIZE", "armed": false}, "ekf": {"attitude": {"roll": -0.09569601714611053, "pitch": -0.03322292119264603, "yaw": 2.2045552730560303}, "local_position": {"x": null, "y": null, "z": null}, "status": {"flags": 135, "velocity_variance": 0.0, "pos_horiz_variance": 0.06068381667137146, "pos_vert_variance": 0.030053315684199333}}, "errors": ["PreArm: Hardware safety switch", "PreArm: Hardware safety switch"]}
{"timestamp": "2025-12-16T06:24:49.230365Z", "telemetry": {"lat": 0.0, "lon": 0.0, "satellites": 0, "altitude_gps_m": 0.5199999809265137, "groundspeed_mps": 0.2359984666109085}, "flight": {"mode": "STABILIZE", "armed": false}, "ekf": {"attitude": {"roll": -0.11111406981945038, "pitch": -0.012855403125286102, "yaw": 2.224412202835083}, "local_position": {"x": null, "y": null, "z": null}, "status": {"flags": 135, "velocity_variance": 0.0, "pos_horiz_variance": 0.059484291821718216, "pos_vert_variance": 0.003694212529808283}}, "errors": ["PreArm: Hardware safety switch", "PreArm: Hardware safety switch"]}
{"timestamp": "2025-12-16T06:24:50.233859Z", "telemetry": {"lat": 0.0, "lon": 0.0, "satellites": 0, "altitude_gps_m": 0.5199999809265137, "groundspeed_mps": 0.1465669423341751}, "flight": {"mode": "STABILIZE", "armed": false}, "ekf": {"attitude": {"roll": -0.10434596240520477, "pitch": -0.024740474298596382, "yaw": 2.2019362449645996}, "local_position": {"x": null, "y": null, "z": null}, "status": {"flags": 135, "velocity_variance": 0.0, "pos_horiz_variance": 0.04973186179995537, "pos_vert_variance": 0.02271939627826214}}, "errors": ["PreArm: Hardware safety switch", "PreArm: Hardware safety switch"]}
{"timestamp": "2025-12-16T06:24:51.230062Z", "telemetry": {"lat": 0.0, "lon": 0.0, "satellites": 0, "altitude_gps_m": 0.5199999809265137, "groundspeed_mps": 0.044573474675416946}, "flight": {"mode": "STABILIZE", "armed": false}, "ekf": {"attitude": {"roll": -0.10448327660560608, "pitch": -0.02323133498430252, "yaw": 2.194916248321533}, "local_position": {"x": null, "y": null, "z": null}, "status": {"flags": 135, "velocity_variance": 0.0, "pos_horiz_variance": 0.02880859375, "pos_vert_variance": 0.003767350222915411}}, "errors": ["PreArm: Hardware safety switch", "PreArm: Hardware safety switch"]}
{"timestamp": "2025-12-16T06:24:52.222690Z", "telemetry": {"lat": 0.0, "lon": 0.0, "satellites": 0, "altitude_gps_m": 0.5199999809265137, "groundspeed_mps": 0.01751619018614292}, "flight": {"mode": "STABILIZE", "armed": false}, "ekf": {"attitude": {"roll": -0.09814466536045074, "pitch": 0.001900848001241684, "yaw": 2.1940715312957764}, "local_position": {"x": null, "y": null, "z": null}, "status": {"flags": 135, "velocity_variance": 0.0, "pos_horiz_variance": 0.014104655012488365, "pos_vert_variance": 0.042378589510917664}}, "errors": ["PreArm: Hardware safety switch", "PreArm: Hardware safety switch"]}
{"timestamp": "2025-12-16T06:24:53.219016Z", "telemetry": {"lat": 0.0, "lon": 0.0, "satellites": 0, "altitude_gps_m": 0.5199999809265137, "groundspeed_mps": 0.050558559596538544}, "flight": {"mode": "STABILIZE", "armed": false}, "ekf": {"attitude": {"roll": -0.08866652846336365, "pitch": 0.011854283511638641, "yaw": 2.2256782054901123}, "local_position": {"x": null, "y": null, "z": null}, "status": {"flags": 135, "velocity_variance": 0.0, "pos_horiz_variance": 0.003263327060267329, "pos_vert_variance": 0.02124754525721073}}, "errors": ["PreArm: Hardware safety switch", "PreArm: Hardware safety switch"]}
{"timestamp": "2025-12-16T06:24:54.219139Z", "telemetry": {"lat": 0.0, "lon": 0.0, "satellites": 0, "altitude_gps_m": 0.5199999809265137, "groundspeed_mps": 0.48544782400131226}, "flight": {"mode": "STABILIZE", "armed": false}, "ekf": {"attitude": {"roll": -0.06521604210138321, "pitch": 0.018152812495827675, "yaw": 1.881758213043213}, "local_position": {"x": null, "y": null, "z": null}, "status": {"flags": 135, "velocity_variance": 0.0, "pos_horiz_variance": 0.03829089552164078, "pos_vert_variance": 0.004126317799091339}}, "errors": ["PreArm: Hardware safety switch", "PreArm: Hardware safety switch"]}
{"timestamp": "2025-12-16T06:24:55.223087Z", "telemetry": {"lat": 20.5661419, "lon": 81.3106878, "satellites": 0, "altitude_gps_m": 0.5199999809265137, "groundspeed_mps": 0.4811881482601166}, "flight": {"mode": "STABILIZE", "armed": false}, "ekf": {"attitude": {"roll": -0.2353169023990631, "pitch": 0.07272431254386902, "yaw": 0.9843196868896484}, "local_position": {"x": null, "y": null, "z": null}, "status": {"flags": 135, "velocity_variance": 0.0, "pos_horiz_variance": 0.06138046085834503, "pos_vert_variance": 0.017154628410935402}}, "errors": ["PreArm: Hardware safety switch", "PreArm: Hardware safety switch"]}
{"timestamp": "2025-12-16T06:24:56.218686Z", "telemetry": {"lat": 20.3635446, "lon": 81.5016949, "satellites": 0, "altitude_gps_m": 0.5199999809265137, "groundspeed_mps": 0.47788622975349426}, "flight": {"mode": "STABILIZE", "armed": false}, "ekf": {"attitude": {"roll": -0.10752227902412415, "pitch": -0.0708613321185112, "yaw": 1.1523346900939941}, "local_position": {"x": null, "y": null, "z": null}, "status": {"flags": 135, "velocity_variance": 0.0, "pos_horiz_variance": 0.06393412500619888, "pos_vert_variance": 0.015964288264513016}}, "errors": ["PreArm: Hardware safety switch", "PreArm: Hardware safety switch"]}
{"timestamp": "2025-12-16T06:24:57.218424Z", "telemetry": {"lat": 20.1849703, "lon": 81.6697655, "satellites": 0, "altitude_gps_m": 0.5199999809265137, "groundspeed_mps": 0.4199398458003998}, "flight": {"mode": "STABILIZE", "armed": false}, "ekf": {"attitude": {"roll": -0.08324139565229416, "pitch": -0.07365632057189941, "yaw": 1.2451858520507812}, "local_position": {"x": null, "y": null, "z": null}, "status": {"flags": 135, "velocity_variance": 0.0, "pos_horiz_variance": 0.09050638228654861, "pos_vert_variance": 0.026599649339914322}}, "errors": ["PreArm: Hardware safety switch", "PreArm: Hardware safety switch"]}
{"timestamp": "2025-12-16T06:24:58.218759Z", "telemetry": {"lat": 20.1781936, "lon": 81.670948, "satellites": 0, "altitude_gps_m": 0.5199999809265137, "groundspeed_mps": 0.30963748693466187}, "flight": {"mode": "STABILIZE", "armed": false}, "ekf": {"attitude": {"roll": -0.06578519195318222, "pitch": -0.05294628441333771, "yaw": 1.3428385257720947}, "local_position": {"x": null, "y": null, "z": null}, "status": {"flags": 135, "velocity_variance": 0.0, "pos_horiz_variance": 0.08152908831834793, "pos_vert_variance": 0.058088693767786026}}, "errors": ["PreArm: Hardware safety switch", "PreArm: Hardware safety switch"]}
{"timestamp": "2025-12-16T06:24:59.218214Z", "telemetry": {"lat": 20.3664922, "lon": 81.4826467, "satellites": 0, "altitude_gps_m": 0.5199999809265137, "groundspeed_mps": 0.23191599547863007}, "flight": {"mode": "STABILIZE", "armed": false}, "ekf": {"attitude": {"roll": -0.07396939396858215, "pitch": 0.008450929075479507, "yaw": 1.57988440990448}, "local_position": {"x": null, "y": null, "z": null}, "status": {"flags": 135, "velocity_variance": 0.0, "pos_horiz_variance": 0.07350673526525497, "pos_vert_variance": 0.030065884813666344}}, "errors": ["PreArm: Hardware safety switch", "PreArm: Hardware safety switch"]}
{"timestamp": "2025-12-16T06:25:00.232633Z", "telemetry": {"lat": 20.3597206, "lon": 81.4838421, "satellites": 0, "altitude_gps_m": 0.5199999809265137, "groundspeed_mps": 0.19492273032665253}, "flight": {"mode": "STABILIZE", "armed": false}, "ekf": {"attitude": {"roll": -0.07636585086584091, "pitch": 0.054550230503082275, "yaw": 1.195192813873291}, "local_position": {"x": null, "y": null, "z": null}, "status": {"flags": 135, "velocity_variance": 0.0, "pos_horiz_variance": 0.03545737639069557, "pos_vert_variance": 0.0888761505484581}}, "errors": ["PreArm: Hardware safety switch", "PreArm: Hardware safety switch"]}
{"timestamp": "2025-12-16T06:25:01.232352Z", "telemetry": {"lat": 28.7531463, "lon": 77.1179137, "satellites": 4, "altitude_gps_m": 213.13999938964844, "groundspeed_mps": 0.24126775562763214}, "flight": {"mode": "STABILIZE", "armed": false}, "ekf": {"attitude": {"roll": -0.015237136743962765, "pitch": 0.025539832189679146, "yaw": 0.7967918515205383}, "local_position": {"x": null, "y": null, "z": null}, "status": {"flags": 135, "velocity_variance": 0.0, "pos_horiz_variance": 0.03454047068953514, "pos_vert_variance": 0.03187132626771927}}, "errors": ["PreArm: Hardware safety switch", "PreArm: Hardware safety switch"]}
{"timestamp": "2025-12-16T06:25:02.223190Z", "telemetry": {"lat": 28.7531256, "lon": 77.1178952, "satellites": 4, "altitude_gps_m": 211.26998901367188, "groundspeed_mps": 0.11701510101556778}, "flight": {"mode": "STABILIZE", "armed": false}, "ekf": {"attitude": {"roll": 0.028919566422700882, "pitch": 0.04709445685148239, "yaw": 0.7987920045852661}, "local_position": {"x": null, "y": null, "z": null}, "status": {"flags": 135, "velocity_variance": 0.0, "pos_horiz_variance": 0.049516305327415466, "pos_vert_variance": 0.033989109098911285}}, "errors": ["PreArm: Hardware safety switch", "PreArm: Hardware safety switch"]}
{"timestamp": "2025-12-16T06:25:03.234478Z", "telemetry": {"lat": 28.7531211, "lon": 77.1178907, "satellites": 4, "altitude_gps_m": 210.0399932861328, "groundspeed_mps": 0.18983130156993866}, "flight": {"mode": "STABILIZE", "armed": false}, "ekf": {"attitude": {"roll": 0.046402692794799805, "pitch": 0.027113614603877068, "yaw": 1.0124571323394775}, "local_position": {"x": null, "y": null, "z": null}, "status": {"flags": 135, "velocity_variance": 0.0, "pos_horiz_variance": 0.03326299041509628, "pos_vert_variance": 0.03719785064458847}}, "errors": ["PreArm: Hardware safety switch", "PreArm: Hardware safety switch"]}
{"timestamp": "2025-12-16T06:25:04.241800Z", "telemetry": {"lat": 28.7531196, "lon": 77.1178897, "satellites": 4, "altitude_gps_m": 208.84999084472656, "groundspeed_mps": 0.2538266181945801}, "flight": {"mode": "STABILIZE", "armed": false}, "ekf": {"attitude": {"roll": 0.11967452615499496, "pitch": -0.031151847913861275, "yaw": 1.0733311176300049}, "local_position": {"x": null, "y": null, "z": null}, "status": {"flags": 135, "velocity_variance": 0.0, "pos_horiz_variance": 0.047250695526599884, "pos_vert_variance": 0.05173211917281151}}, "errors": ["PreArm: Hardware safety switch", "PreArm: Hardware safety switch"]}
{"timestamp": "2025-12-16T06:25:05.218916Z", "telemetry": {"lat": 28.7531161, "lon": 77.117886, "satellites": 4, "altitude_gps_m": 207.9199981689453, "groundspeed_mps": 0.2027537077665329}, "flight": {"mode": "STABILIZE", "armed": false}, "ekf": {"attitude": {"roll": 0.05670803785324097, "pitch": -0.041754137724637985, "yaw": 1.1448638439178467}, "local_position": {"x": null, "y": null, "z": null}, "status": {"flags": 135, "velocity_variance": 0.0, "pos_horiz_variance": 0.052453890442848206, "pos_vert_variance": 0.02064317837357521}}, "errors": ["PreArm: Hardware safety switch", "PreArm: Hardware safety switch"]}
{"timestamp": "2025-12-16T06:25:06.218748Z", "telemetry": {"lat": 28.7531138, "lon": 77.1178829, "satellites": 4, "altitude_gps_m": 207.42999267578125, "groundspeed_mps": 0.20093396306037903}, "flight": {"mode": "STABILIZE", "armed": false}, "ekf": {"attitude": {"roll": 0.024990331381559372, "pitch": 0.07533958554267883, "yaw": 1.1816725730895996}, "local_position": {"x": null, "y": null, "z": null}, "status": {"flags": 135, "velocity_variance": 0.0, "pos_horiz_variance": 0.040231067687273026, "pos_vert_variance": 0.009626578539609909}}, "errors": ["PreArm: Hardware safety switch", "PreArm: Hardware safety switch"]}
{"timestamp": "2025-12-16T06:25:07.219134Z", "telemetry": {"lat": 28.7531119, "lon": 77.1178808, "satellites": 4, "altitude_gps_m": 207.27999877929688, "groundspeed_mps": 0.1999693661928177}, "flight": {"mode": "STABILIZE", "armed": false}, "ekf": {"attitude": {"roll": 0.10437323898077011, "pitch": 0.032041996717453, "yaw": 1.2604751586914062}, "local_position": {"x": null, "y": null, "z": null}, "status": {"flags": 135, "velocity_variance": 0.0, "pos_horiz_variance": 0.04533751308917999, "pos_vert_variance": 0.03396197780966759}}, "errors": ["PreArm: Hardware safety switch", "PreArm: Hardware safety switch"]}
{"timestamp": "2025-12-16T06:25:08.218664Z", "telemetry": {"lat": 28.7531106, "lon": 77.1178798, "satellites": 4, "altitude_gps_m": 207.04998779296875, "groundspeed_mps": 0.180728018283844}, "flight": {"mode": "STABILIZE", "armed": false}, "ekf": {"attitude": {"roll": 0.14933817088603973, "pitch": 0.007298596203327179, "yaw": 1.2105011940002441}, "local_position": {"x": null, "y": null, "z": null}, "status": {"flags": 135, "velocity_variance": 0.0, "pos_horiz_variance": 0.04760226979851723, "pos_vert_variance": 0.04462697356939316}}, "errors": ["PreArm: Hardware safety switch", "PreArm: Hardware safety switch"]}
{"timestamp": "2025-12-16T06:25:09.218235Z", "telemetry": {"lat": 28.753107, "lon": 77.117877, "satellites": 4, "altitude_gps_m": 206.5699920654297, "groundspeed_mps": 0.20943088829517365}, "flight": {"mode": "STABILIZE", "armed": false}, "ekf": {"attitude": {"roll": 0.15543057024478912, "pitch": -0.029735658317804337, "yaw": 1.2619893550872803}, "local_position": {"x": null, "y": null, "z": null}, "status": {"flags": 135, "velocity_variance": 0.0, "pos_horiz_variance": 0.047068145126104355, "pos_vert_variance": 0.016296904534101486}}, "errors": ["PreArm: Hardware safety switch", "PreArm: Hardware safety switch"]}
{"timestamp": "2025-12-16T06:25:10.231654Z", "telemetry": {"lat": 28.7531053, "lon": 77.1178751, "satellites": 4, "altitude_gps_m": 206.2899932861328, "groundspeed_mps": 0.18593402206897736}, "flight": {"mode": "STABILIZE", "armed": false}, "ekf": {"attitude": {"roll": 0.15978111326694489, "pitch": -0.018334677442908287, "yaw": 1.2708733081817627}, "local_position": {"x": null, "y": null, "z": null}, "status": {"flags": 135, "velocity_variance": 0.0, "pos_horiz_variance": 0.0519338920712471, "pos_vert_variance": 0.023662999272346497}}, "errors": ["PreArm: Hardware safety switch", "PreArm: Hardware safety switch"]}
{"timestamp": "2025-12-16T06:25:11.233618Z", "telemetry": {"lat": 28.7531056, "lon": 77.1178746, "satellites": 4, "altitude_gps_m": 206.09999084472656, "groundspeed_mps": 0.20935755968093872}, "flight": {"mode": "STABILIZE", "armed": false}, "ekf": {"attitude": {"roll": 0.15951453149318695, "pitch": -0.03994407504796982, "yaw": 1.2535722255706787}, "local_position": {"x": null, "y": null, "z": null}, "status": {"flags": 135, "velocity_variance": 0.0, "pos_horiz_variance": 0.05404292419552803, "pos_vert_variance": 0.016037723049521446}}, "errors": ["PreArm: Hardware safety switch", "PreArm: Hardware safety switch"]}
{"timestamp": "2025-12-16T06:25:12.228823Z", "telemetry": {"lat": 28.753105, "lon": 77.1178724, "satellites": 4, "altitude_gps_m": 205.84999084472656, "groundspeed_mps": 0.25997287034988403}, "flight": {"mode": "STABILIZE", "armed": false}, "ekf": {"attitude": {"roll": 0.11413344740867615, "pitch": -0.036861710250377655, "yaw": 1.1841048002243042}, "local_position": {"x": null, "y": null, "z": null}, "status": {"flags": 135, "velocity_variance": 0.0, "pos_horiz_variance": 0.050872307270765305, "pos_vert_variance": 0.005456875078380108}}, "errors": ["PreArm: Hardware safety switch", "PreArm: Hardware safety switch"]}
{"timestamp": "2025-12-16T06:25:13.223772Z", "telemetry": {"lat": 28.7531109, "lon": 77.1178639, "satellites": 4, "altitude_gps_m": 205.1999969482422, "groundspeed_mps": 1.4101482629776}, "flight": {"mode": "STABILIZE", "armed": false}, "ekf": {"attitude": {"roll": -0.029402542859315872, "pitch": 0.04295990616083145, "yaw": 1.6851632595062256}, "local_position": {"x": null, "y": null, "z": null}, "status": {"flags": 135, "velocity_variance": 0.0, "pos_horiz_variance": 0.10494812577962875, "pos_vert_variance": 0.03558262810111046}}, "errors": ["PreArm: Hardware safety switch", "PreArm: Hardware safety switch"]}
{"timestamp": "2025-12-16T06:25:14.218970Z", "telemetry": {"lat": 28.7531224, "lon": 77.1178529, "satellites": 4, "altitude_gps_m": 205.739990234375, "groundspeed_mps": 0.8506081104278564}, "flight": {"mode": "STABILIZE", "armed": false}, "ekf": {"attitude": {"roll": 0.17331381142139435, "pitch": 0.12983311712741852, "yaw": 2.2006142139434814}, "local_position": {"x": null, "y": null, "z": null}, "status": {"flags": 1024, "velocity_variance": 0.0, "pos_horiz_variance": 0.25166526436805725, "pos_vert_variance": 0.005894935689866543}}, "errors": ["PreArm: Hardware safety switch", "PreArm: Hardware safety switch"]}
{"timestamp": "2025-12-16T06:25:15.222724Z", "telemetry": {"lat": 28.753129, "lon": 77.11784, "satellites": 4, "altitude_gps_m": 206.0, "groundspeed_mps": 0.3231869339942932}, "flight": {"mode": "STABILIZE", "armed": false}, "ekf": {"attitude": {"roll": 0.20284263789653778, "pitch": 0.0247462447732687, "yaw": 2.2895047664642334}, "local_position": {"x": null, "y": null, "z": null}, "status": {"flags": 135, "velocity_variance": 0.0, "pos_horiz_variance": 0.17545302212238312, "pos_vert_variance": 0.010480724275112152}}, "errors": ["PreArm: Hardware safety switch", "PreArm: Hardware safety switch", "PreArm: Hardware safety switch", "PreArm: EKF attitude is bad", "PreArm: AHRS: GPS numsats 4 (needs 6)"]}
{"timestamp": "2025-12-16T06:25:16.218858Z", "telemetry": {"lat": 28.7531277, "lon": 77.1178278, "satellites": 4, "altitude_gps_m": 206.489990234375, "groundspeed_mps": 0.3799128532409668}, "flight": {"mode": "STABILIZE", "armed": false}, "ekf": {"attitude": {"roll": 0.10412212461233139, "pitch": -0.029695887118577957, "yaw": 1.825365424156189}, "local_position": {"x": null, "y": null, "z": null}, "status": {"flags": 135, "velocity_variance": 0.0, "pos_horiz_variance": 0.06523677706718445, "pos_vert_variance": 0.01993216946721077}}, "errors": ["PreArm: Hardware safety switch", "PreArm: Hardware safety switch", "PreArm: Hardware safety switch", "PreArm: EKF attitude is bad", "PreArm: AHRS: GPS numsats 4 (needs 6)"]}
{"timestamp": "2025-12-16T06:25:17.218465Z", "telemetry": {"lat": 28.75311, "lon": 77.1178019, "satellites": 4, "altitude_gps_m": 206.97999572753906, "groundspeed_mps": 1.5360604524612427}, "flight": {"mode": "STABILIZE", "armed": false}, "ekf": {"attitude": {"roll": 0.22204503417015076, "pitch": -0.051257312297821045, "yaw": 1.3724595308303833}, "local_position": {"x": null, "y": null, "z": null}, "status": {"flags": 135, "velocity_variance": 0.0, "pos_horiz_variance": 0.07633644342422485, "pos_vert_variance": 0.027941735461354256}}, "errors": ["PreArm: Hardware safety switch", "PreArm: Hardware safety switch", "PreArm: Hardware safety switch", "PreArm: EKF attitude is bad", "PreArm: AHRS: GPS numsats 4 (needs 6)"]}
{"timestamp": "2025-12-16T06:25:18.218156Z", "telemetry": {"lat": 28.7531093, "lon": 77.1177838, "satellites": 4, "altitude_gps_m": 207.989990234375, "groundspeed_mps": 2.59641695022583}, "flight": {"mode": "STABILIZE", "armed": false}, "ekf": {"attitude": {"roll": 0.12283806502819061, "pitch": 0.14180803298950195, "yaw": 0.6670058965682983}, "local_position": {"x": null, "y": null, "z": null}, "status": {"flags": 1024, "velocity_variance": 0.0, "pos_horiz_variance": 0.34945905208587646, "pos_vert_variance": 0.0019120067590847611}}, "errors": ["PreArm: Hardware safety switch", "PreArm: Hardware safety switch", "PreArm: Hardware safety switch", "PreArm: EKF attitude is bad", "PreArm: AHRS: GPS numsats 4 (needs 6)"]}
{"timestamp": "2025-12-16T06:25:19.218745Z", "telemetry": {"lat": 28.7531512, "lon": 77.1177949, "satellites": 4, "altitude_gps_m": 208.9199981689453, "groundspeed_mps": 1.4706687927246094}, "flight": {"mode": "STABILIZE", "armed": false}, "ekf": {"attitude": {"roll": 0.09469318389892578, "pitch": 0.15929493308067322, "yaw": 0.9804718494415283}, "local_position": {"x": null, "y": null, "z": null}, "status": {"flags": 1024, "velocity_variance": 0.0, "pos_horiz_variance": 0.49175018072128296, "pos_vert_variance": 0.0007759378640912473}}, "errors": ["PreArm: Hardware safety switch", "PreArm: Hardware safety switch", "PreArm: Hardware safety switch", "PreArm: EKF attitude is bad", "PreArm: AHRS: GPS numsats 4 (needs 6)"]}
{"timestamp": "2025-12-16T06:25:20.218620Z", "telemetry": {"lat": 28.7531732, "lon": 77.1177985, "satellites": 0, "altitude_gps_m": 209.08999633789062, "groundspeed_mps": 0.6922572255134583}, "flight": {"mode": "STABILIZE", "armed": false}, "ekf": {"attitude": {"roll": 0.298511266708374, "pitch": 0.016657287254929543, "yaw": 2.1906557083129883}, "local_position": {"x": null, "y": null, "z": null}, "status": {"flags": 1024, "velocity_variance": 0.0, "pos_horiz_variance": 0.3784450590610504, "pos_vert_variance": 0.0020891204476356506}}, "errors": ["PreArm: Hardware safety switch", "PreArm: Hardware safety switch", "PreArm: Hardware safety switch", "PreArm: EKF attitude is bad", "PreArm: AHRS: GPS numsats 4 (needs 6)"]}
{"timestamp": "2025-12-16T06:25:21.240774Z", "telemetry": {"lat": 28.7532262, "lon": 77.1178075, "satellites": 0, "altitude_gps_m": 209.08999633789062, "groundspeed_mps": 0.41029226779937744}, "flight": {"mode": "STABILIZE", "armed": false}, "ekf": {"attitude": {"roll": 0.17636626958847046, "pitch": -0.006391411647200584, "yaw": 2.2938590049743652}, "local_position": {"x": null, "y": null, "z": null}, "status": {"flags": 135, "velocity_variance": 0.0, "pos_horiz_variance": 0.24117399752140045, "pos_vert_variance": 0.13885337114334106}}, "errors": ["PreArm: Hardware safety switch", "PreArm: Hardware safety switch", "PreArm: Hardware safety switch", "PreArm: EKF attitude is bad", "PreArm: AHRS: GPS numsats 4 (needs 6)"]}
{"timestamp": "2025-12-16T06:25:22.233409Z", "telemetry": {"lat": 28.753264, "lon": 77.117814, "satellites": 0, "altitude_gps_m": 209.08999633789062, "groundspeed_mps": 0.2116738259792328}, "flight": {"mode": "STABILIZE", "armed": false}, "ekf": {"attitude": {"roll": 0.06815311312675476, "pitch": 0.008201785385608673, "yaw": 2.261451482772827}, "local_position": {"x": null, "y": null, "z": null}, "status": {"flags": 135, "velocity_variance": 0.0, "pos_horiz_variance": 0.15257622301578522, "pos_vert_variance": 0.029728738591074944}}, "errors": ["PreArm: Hardware safety switch", "PreArm: Hardware safety switch", "PreArm: Hardware safety switch", "PreArm: EKF attitude is bad", "PreArm: AHRS: GPS numsats 4 (needs 6)"]}
{"timestamp": "2025-12-16T06:25:23.226369Z", "telemetry": {"lat": 28.7532943, "lon": 77.1178192, "satellites": 0, "altitude_gps_m": 209.08999633789062, "groundspeed_mps": 0.15670336782932281}, "flight": {"mode": "STABILIZE", "armed": false}, "ekf": {"attitude": {"roll": 0.015445707365870476, "pitch": 0.001523919403553009, "yaw": 2.197545051574707}, "local_position": {"x": null, "y": null, "z": null}, "status": {"flags": 135, "velocity_variance": 0.0, "pos_horiz_variance": 0.08613693714141846, "pos_vert_variance": 0.06168956682085991}}, "errors": ["PreArm: Hardware safety switch", "PreArm: Hardware safety switch", "PreArm: Hardware safety switch", "PreArm: EKF attitude is bad", "PreArm: AHRS: GPS numsats 4 (needs 6)"]}
{"timestamp": "2025-12-16T06:25:24.225046Z", "telemetry": {"lat": 28.7533397, "lon": 77.117827, "satellites": 0, "altitude_gps_m": 209.08999633789062, "groundspeed_mps": 0.23062600195407867}, "flight": {"mode": "STABILIZE", "armed": false}, "ekf": {"attitude": {"roll": 0.013960158452391624, "pitch": 0.003486271947622299, "yaw": 2.2005629539489746}, "local_position": {"x": null, "y": null, "z": null}, "status": {"flags": 135, "velocity_variance": 0.0, "pos_horiz_variance": 0.03101981431245804, "pos_vert_variance": 0.033288661390542984}}, "errors": ["PreArm: Hardware safety switch", "PreArm: Hardware safety switch", "PreArm: Hardware safety switch", "PreArm: EKF attitude is bad", "PreArm: AHRS: GPS numsats 4 (needs 6)"]}
{"timestamp": "2025-12-16T06:25:25.219793Z", "telemetry": {"lat": 28.7533775, "lon": 77.1178335, "satellites": 0, "altitude_gps_m": 209.08999633789062, "groundspeed_mps": 0.25619080662727356}, "flight": {"mode": "STABILIZE", "armed": false}, "ekf": {"attitude": {"roll": 0.01220368966460228, "pitch": 0.0028101839125156403, "yaw": 2.2051568031311035}, "local_position": {"x": null, "y": null, "z": null}, "status": {"flags": 135, "velocity_variance": 0.0, "pos_horiz_variance": 0.0353943295776844, "pos_vert_variance": 0.05938699468970299}}, "errors": ["PreArm: Hardware safety switch", "PreArm: Hardware safety switch", "PreArm: Hardware safety switch", "PreArm: EKF attitude is bad", "PreArm: AHRS: GPS numsats 4 (needs 6)"]}
{"timestamp": "2025-12-16T06:25:26.219096Z", "telemetry": {"lat": 28.7534078, "lon": 77.1178387, "satellites": 0, "altitude_gps_m": 209.08999633789062, "groundspeed_mps": 0.22993271052837372}, "flight": {"mode": "STABILIZE", "armed": false}, "ekf": {"attitude": {"roll": 0.010862424969673157, "pitch": 0.0011023320257663727, "yaw": 2.209772825241089}, "local_position": {"x": null, "y": null, "z": null}, "status": {"flags": 135, "velocity_variance": 0.0, "pos_horiz_variance": 0.04583272337913513, "pos_vert_variance": 0.031961869448423386}}, "errors": ["PreArm: Hardware safety switch", "PreArm: Hardware safety switch", "PreArm: Hardware safety switch", "PreArm: EKF attitude is bad", "PreArm: AHRS: GPS numsats 4 (needs 6)"]}
{"timestamp": "2025-12-16T06:25:27.218258Z", "telemetry": {"lat": 28.7534532, "lon": 77.1178465, "satellites": 0, "altitude_gps_m": 209.08999633789062, "groundspeed_mps": 0.17440123856067657}, "flight": {"mode": "STABILIZE", "armed": false}, "ekf": {"attitude": {"roll": 0.009729142300784588, "pitch": -0.0010618790984153748, "yaw": 2.2145040035247803}, "local_position": {"x": null, "y": null, "z": null}, "status": {"flags": 135, "velocity_variance": 0.0, "pos_horiz_variance": 0.04817181080579758, "pos_vert_variance": 0.017405018210411072}}, "errors": ["PreArm: Hardware safety switch", "PreArm: Hardware safety switch", "PreArm: Hardware safety switch", "PreArm: EKF attitude is bad", "PreArm: AHRS: GPS numsats 4 (needs 6)"]}
{"timestamp": "2025-12-16T06:25:28.218762Z", "telemetry": {"lat": 28.7534834, "lon": 77.1178517, "satellites": 0, "altitude_gps_m": 209.08999633789062, "groundspeed_mps": 0.11392203718423843}, "flight": {"mode": "STABILIZE", "armed": false}, "ekf": {"attitude": {"roll": 0.00882307905703783, "pitch": -0.0033470001071691513, "yaw": 2.218858480453491}, "local_position": {"x": null, "y": null, "z": null}, "status": {"flags": 135, "velocity_variance": 0.0, "pos_horiz_variance": 0.04198891669511795, "pos_vert_variance": 0.013744309544563293}}, "errors": ["PreArm: Hardware safety switch", "PreArm: Hardware safety switch", "PreArm: Hardware safety switch", "PreArm: EKF attitude is bad", "PreArm: AHRS: GPS numsats 4 (needs 6)"]}
{"timestamp": "2025-12-16T06:25:29.219071Z", "telemetry": {"lat": 28.7535213, "lon": 77.1178582, "satellites": 0, "altitude_gps_m": 209.08999633789062, "groundspeed_mps": 0.08471131324768066}, "flight": {"mode": "STABILIZE", "armed": false}, "ekf": {"attitude": {"roll": 0.008273991756141186, "pitch": -0.005253702402114868, "yaw": 2.2228312492370605}, "local_position": {"x": null, "y": null, "z": null}, "status": {"flags": 135, "velocity_variance": 0.0, "pos_horiz_variance": 0.03037416934967041, "pos_vert_variance": 0.04412873461842537}}, "errors": ["PreArm: Hardware safety switch", "PreArm: Hardware safety switch", "PreArm: Hardware safety switch", "PreArm: EKF attitude is bad", "PreArm: AHRS: GPS numsats 4 (needs 6)"]}
{"timestamp": "2025-12-16T06:25:30.219105Z", "telemetry": {"lat": 28.753544, "lon": 77.1178621, "satellites": 0, "altitude_gps_m": 209.08999633789062, "groundspeed_mps": 0.10322447866201401}, "flight": {"mode": "STABILIZE", "armed": false}, "ekf": {"attitude": {"roll": 0.00783600565046072, "pitch": -0.0068279895931482315, "yaw": 2.2263548374176025}, "local_position": {"x": null, "y": null, "z": null}, "status": {"flags": 135, "velocity_variance": 0.0, "pos_horiz_variance": 0.020258741453289986, "pos_vert_variance": 0.09926655143499374}}, "errors": ["PreArm: Hardware safety switch", "PreArm: Hardware safety switch", "PreArm: Hardware safety switch", "PreArm: EKF attitude is bad", "PreArm: AHRS: GPS numsats 4 (needs 6)"]}
{"timestamp": "2025-12-16T06:25:31.218819Z", "telemetry": {"lat": 28.753544, "lon": 77.1178621, "satellites": 0, "altitude_gps_m": 209.08999633789062, "groundspeed_mps": 0.13791655004024506}, "flight": {"mode": "STABILIZE", "armed": false}, "ekf": {"attitude": {"roll": 0.0075802067294716835, "pitch": -0.008038824424147606, "yaw": 2.229858875274658}, "local_position": {"x": null, "y": null, "z": null}, "status": {"flags": 135, "velocity_variance": 0.0, "pos_horiz_variance": 0.02323179878294468, "pos_vert_variance": 0.03778485581278801}}, "errors": ["PreArm: Hardware safety switch", "PreArm: Hardware safety switch", "PreArm: Hardware safety switch", "PreArm: EKF attitude is bad", "PreArm: AHRS: GPS numsats 4 (needs 6)"]}
{"timestamp": "2025-12-16T06:25:32.234632Z", "telemetry": {"lat": 28.753544, "lon": 77.1178621, "satellites": 0, "altitude_gps_m": 209.08999633789062, "groundspeed_mps": 0.16966617107391357}, "flight": {"mode": "STABILIZE", "armed": false}, "ekf": {"attitude": {"roll": 0.0073870643973350525, "pitch": -0.008851668797433376, "yaw": 2.2333364486694336}, "local_position": {"x": null, "y": null, "z": null}, "status": {"flags": 135, "velocity_variance": 0.0, "pos_horiz_variance": 0.030190756544470787, "pos_vert_variance": 0.007800351362675428}}, "errors": ["PreArm: Hardware safety switch", "PreArm: Hardware safety switch", "PreArm: Hardware safety switch", "PreArm: EKF attitude is bad", "PreArm: AHRS: GPS numsats 4 (needs 6)"]}
