{"timestamp": "2025-12-27T08:02:34.015769Z", "telemetry": {"lat": 0.0, "lon": 0.0, "satellites": 0, "altitude_gps_m": 0.8499999642372131, "groundspeed_mps": 0.07693226635456085}, "flight": {"mode": null, "armed": null}, "ekf": {"attitude": {"roll": -0.02795138582587242, "pitch": 0.07155212759971619, "yaw": -2.1051554679870605}, "local_position": {"x": null, "y": null, "z": null}, "status": {"flags": 135, "velocity_variance": 0.0, "pos_horiz_variance": 0.017656777054071426, "pos_vert_variance": 0.031118974089622498}}, "errors": []}
{"timestamp": "2025-12-27T08:02:34.959610Z", "telemetry": {"lat": 0.0, "lon": 0.0, "satellites": 0, "altitude_gps_m": 0.8499999642372131, "groundspeed_mps": 0.07818356156349182}, "flight": {"mode": "STABILIZE", "armed": false}, "ekf": {"attitude": {"roll": -0.02805677428841591, "pitch": 0.07139661908149719, "yaw": -2.1052088737487793}, "local_position": {"x": null, "y": null, "z": null}, "status": {"flags": 135, "velocity_variance": 0.0, "pos_horiz_variance": 0.018436554819345474, "pos_vert_variance": 0.024892564862966537}}, "errors": []}
{"timestamp": "2025-12-27T08:02:35.911278Z", "telemetry": {"lat": 0.0, "lon": 0.0, "satellites": 0, "altitude_gps_m": 0.8499999642372131, "groundspeed_mps": 0.0803251564502716}, "flight": {"mode": "STABILIZE", "armed": false}, "ekf": {"attitude": {"roll": -0.02818908914923668, "pitch": 0.07157173752784729, "yaw": -2.1052470207214355}, "local_position": {"x": null, "y": null, "z": null}, "status": {"flags": 135, "velocity_variance": 0.0, "pos_horiz_variance": 0.018990274518728256, "pos_vert_variance": 0.03340356796979904}}, "errors": []}
{"timestamp": "2025-12-27T08:02:36.860051Z", "telemetry": {"lat": 0.0, "lon": 0.0, "satellites": 0, "altitude_gps_m": 0.8499999642372131, "groundspeed_mps": 0.07982562482357025}, "flight": {"mode": "STABILIZE", "armed": false}, "ekf": {"attitude": {"roll": -0.02826225385069847, "pitch": 0.07155323773622513, "yaw": -2.1052799224853516}, "local_position": {"x": null, "y": null, "z": null}, "status": {"flags": 135, "velocity_variance": 0.0, "pos_horiz_variance": 0.019173847511410713, "pos_vert_variance": 0.05406801402568817}}, "errors": []}
{"timestamp": "2025-12-27T08:02:37.813163Z", "telemetry": {"lat": 0.0, "lon": 0.0, "satellites": 0, "altitude_gps_m": 0.8499999642372131, "groundspeed_mps": 0.07763481885194778}, "flight": {"mode": "STABILIZE", "armed": false}, "ekf": {"attitude": {"roll": -0.02851804718375206, "pitch": 0.07161001116037369, "yaw": -2.1053194999694824}, "local_position": {"x": null, "y": null, "z": null}, "status": {"flags": 135, "velocity_variance": 0.0, "pos_horiz_variance": 0.018849311396479607, "pos_vert_variance": 0.015634818002581596}}, "errors": []}
{"timestamp": "2025-12-27T08:02:38.813313Z", "telemetry": {"lat": 0.0, "lon": 0.0, "satellites": 0, "altitude_gps_m": 0.8499999642372131, "groundspeed_mps": 0.08058888465166092}, "flight": {"mode": "STABILIZE", "armed": false}, "ekf": {"attitude": {"roll": -0.02868535742163658, "pitch": 0.07136163115501404, "yaw": -2.1053833961486816}, "local_position": {"x": null, "y": null, "z": null}, "status": {"flags": 135, "velocity_variance": 0.0, "pos_horiz_variance": 0.019075162708759308, "pos_vert_variance": 0.032797813415527344}}, "errors": []}
{"timestamp": "2025-12-27T08:02:39.812604Z", "telemetry": {"lat": 0.0, "lon": 0.0, "satellites": 0, "altitude_gps_m": 0.8499999642372131, "groundspeed_mps": 0.0805196613073349}, "flight": {"mode": "STABILIZE", "armed": false}, "ekf": {"attitude": {"roll": -0.028814632445573807, "pitch": 0.07137594372034073, "yaw": -2.1053354740142822}, "local_position": {"x": null, "y": null, "z": null}, "status": {"flags": 135, "velocity_variance": 0.0, "pos_horiz_variance": 0.019460229203104973, "pos_vert_variance": 0.033726707100868225}}, "errors": []}
{"timestamp": "2025-12-27T08:02:40.813037Z", "telemetry": {"lat": 0.0, "lon": 0.0, "satellites": 0, "altitude_gps_m": 0.8499999642372131, "groundspeed_mps": 0.08155782520771027}, "flight": {"mode": "STABILIZE", "armed": false}, "ekf": {"attitude": {"roll": -0.02887997403740883, "pitch": 0.07137478142976761, "yaw": -2.105412006378174}, "local_position": {"x": null, "y": null, "z": null}, "status": {"flags": 135, "velocity_variance": 0.0, "pos_horiz_variance": 0.0196367260068655, "pos_vert_variance": 0.015576452948153019}}, "errors": []}
{"timestamp": "2025-12-27T08:02:41.813179Z", "telemetry": {"lat": 0.0, "lon": 0.0, "satellites": 0, "altitude_gps_m": 0.8499999642372131, "groundspeed_mps": 0.08109501749277115}, "flight": {"mode": "STABILIZE", "armed": false}, "ekf": {"attitude": {"roll": -0.028768207877874374, "pitch": 0.07148626446723938, "yaw": -2.10542368888855}, "local_position": {"x": null, "y": null, "z": null}, "status": {"flags": 135, "velocity_variance": 0.0, "pos_horiz_variance": 0.01956631802022457, "pos_vert_variance": 0.04486476257443428}}, "errors": []}
{"timestamp": "2025-12-27T08:02:42.813126Z", "telemetry": {"lat": 0.0, "lon": 0.0, "satellites": 0, "altitude_gps_m": 0.8499999642372131, "groundspeed_mps": 0.07919315248727798}, "flight": {"mode": "STABILIZE", "armed": false}, "ekf": {"attitude": {"roll": -0.028586599975824356, "pitch": 0.0713493600487709, "yaw": -2.1054868698120117}, "local_position": {"x": null, "y": null, "z": null}, "status": {"flags": 135, "velocity_variance": 0.0, "pos_horiz_variance": 0.019571535289287567, "pos_vert_variance": 0.015265403315424919}}, "errors": []}
{"timestamp": "2025-12-27T08:02:43.813575Z", "telemetry": {"lat": 0.0, "lon": 0.0, "satellites": 0, "altitude_gps_m": 0.8499999642372131, "groundspeed_mps": 0.08150354027748108}, "flight": {"mode": "STABILIZE", "armed": false}, "ekf": {"attitude": {"roll": -0.028615955263376236, "pitch": 0.07153388857841492, "yaw": -2.105477809906006}, "local_position": {"x": null, "y": null, "z": null}, "status": {"flags": 135, "velocity_variance": 0.0, "pos_horiz_variance": 0.019403068348765373, "pos_vert_variance": 0.026835573837161064}}, "errors": []}
{"timestamp": "2025-12-27T08:02:44.813409Z", "telemetry": {"lat": 0.0, "lon": 0.0, "satellites": 0, "altitude_gps_m": 0.8499999642372131, "groundspeed_mps": 0.07933519035577774}, "flight": {"mode": "STABILIZE", "armed": false}, "ekf": {"attitude": {"roll": -0.02844223752617836, "pitch": 0.07135602831840515, "yaw": -2.105536937713623}, "local_position": {"x": null, "y": null, "z": null}, "status": {"flags": 135, "velocity_variance": 0.0, "pos_horiz_variance": 0.019482025876641273, "pos_vert_variance": 0.028982918709516525}}, "errors": []}
{"timestamp": "2025-12-27T08:02:45.812722Z", "telemetry": {"lat": 0.0, "lon": 0.0, "satellites": 0, "altitude_gps_m": 0.8499999642372131, "groundspeed_mps": 0.08318883180618286}, "flight": {"mode": "STABILIZE", "armed": false}, "ekf": {"attitude": {"roll": -0.02808677777647972, "pitch": 0.07119786739349365, "yaw": -2.105330228805542}, "local_position": {"x": null, "y": null, "z": null}, "status": {"flags": 135, "velocity_variance": 0.0, "pos_horiz_variance": 0.019713465124368668, "pos_vert_variance": 0.0458562858402729}}, "errors": []}
{"timestamp": "2025-12-27T08:02:46.812608Z", "telemetry": {"lat": 0.0, "lon": 0.0, "satellites": 0, "altitude_gps_m": 0.8499999642372131, "groundspeed_mps": 0.07911060750484467}, "flight": {"mode": "STABILIZE", "armed": false}, "ekf": {"attitude": {"roll": -0.02788495644927025, "pitch": 0.07109998911619186, "yaw": -2.105286121368408}, "local_position": {"x": null, "y": null, "z": null}, "status": {"flags": 135, "velocity_variance": 0.0, "pos_horiz_variance": 0.01981787197291851, "pos_vert_variance": 0.05827415734529495}}, "errors": []}
{"timestamp": "2025-12-27T08:02:47.812634Z", "telemetry": {"lat": 0.0, "lon": 0.0, "satellites": 0, "altitude_gps_m": 0.8499999642372131, "groundspeed_mps": 0.0711638331413269}, "flight": {"mode": "STABILIZE", "armed": false}, "ekf": {"attitude": {"roll": -0.027940217405557632, "pitch": 0.0708630159497261, "yaw": -2.105442523956299}, "local_position": {"x": null, "y": null, "z": null}, "status": {"flags": 135, "velocity_variance": 0.0, "pos_horiz_variance": 0.01930905133485794, "pos_vert_variance": 0.010569548234343529}}, "errors": []}
{"timestamp": "2025-12-27T08:02:48.818249Z", "telemetry": {"lat": 0.0, "lon": 0.0, "satellites": 0, "altitude_gps_m": 0.8499999642372131, "groundspeed_mps": 0.0989912748336792}, "flight": {"mode": "STABILIZE", "armed": false}, "ekf": {"attitude": {"roll": -0.033615339547395706, "pitch": 0.03476719185709953, "yaw": -2.106411933898926}, "local_position": {"x": null, "y": null, "z": null}, "status": {"flags": 135, "velocity_variance": 0.0, "pos_horiz_variance": 0.02021200582385063, "pos_vert_variance": 0.020942246541380882}}, "errors": []}
{"timestamp": "2025-12-27T08:02:49.816298Z", "telemetry": {"lat": 0.0, "lon": 0.0, "satellites": 0, "altitude_gps_m": 0.8499999642372131, "groundspeed_mps": 1.1541597843170166}, "flight": {"mode": "STABILIZE", "armed": false}, "ekf": {"attitude": {"roll": 0.04105084761977196, "pitch": 0.07767456769943237, "yaw": 3.1073625087738037}, "local_position": {"x": null, "y": null, "z": null}, "status": {"flags": 135, "velocity_variance": 0.0, "pos_horiz_variance": 0.09658154100179672, "pos_vert_variance": 0.07976406812667847}}, "errors": []}
{"timestamp": "2025-12-27T08:02:50.817225Z", "telemetry": {"lat": 0.0, "lon": 0.0, "satellites": 0, "altitude_gps_m": 0.8499999642372131, "groundspeed_mps": 0.7156172394752502}, "flight": {"mode": "STABILIZE", "armed": false}, "ekf": {"attitude": {"roll": 0.04143473133444786, "pitch": 0.04483538120985031, "yaw": 2.4732322692871094}, "local_position": {"x": null, "y": null, "z": null}, "status": {"flags": 135, "velocity_variance": 0.0, "pos_horiz_variance": 0.16726835072040558, "pos_vert_variance": 0.007437223102897406}}, "errors": []}
{"timestamp": "2025-12-27T08:02:51.815244Z", "telemetry": {"lat": 0.0, "lon": 0.0, "satellites": 0, "altitude_gps_m": 0.8499999642372131, "groundspeed_mps": 0.23621141910552979}, "flight": {"mode": "STABILIZE", "armed": false}, "ekf": {"attitude": {"roll": 0.02554992586374283, "pitch": -0.05600764974951744, "yaw": 2.2399027347564697}, "local_position": {"x": null, "y": null, "z": null}, "status": {"flags": 135, "velocity_variance": 0.0, "pos_horiz_variance": 0.12983636558055878, "pos_vert_variance": 0.039152760058641434}}, "errors": []}
{"timestamp": "2025-12-27T08:02:52.813401Z", "telemetry": {"lat": 0.0, "lon": 0.0, "satellites": 0, "altitude_gps_m": 0.8499999642372131, "groundspeed_mps": 0.07062345743179321}, "flight": {"mode": "STABILIZE", "armed": false}, "ekf": {"attitude": {"roll": -0.0007295310497283936, "pitch": -0.08429455012083054, "yaw": 2.230264186859131}, "local_position": {"x": null, "y": null, "z": null}, "status": {"flags": 135, "velocity_variance": 0.0, "pos_horiz_variance": 0.06547511368989944, "pos_vert_variance": 0.004895639140158892}}, "errors": ["PreArm: Hardware safety switch"]}
{"timestamp": "2025-12-27T08:02:53.813678Z", "telemetry": {"lat": 0.0, "lon": 0.0, "satellites": 0, "altitude_gps_m": 0.8499999642372131, "groundspeed_mps": 0.24271896481513977}, "flight": {"mode": "STABILIZE", "armed": false}, "ekf": {"attitude": {"roll": -0.011661667376756668, "pitch": -0.10230517387390137, "yaw": 2.2382678985595703}, "local_position": {"x": null, "y": null, "z": null}, "status": {"flags": 135, "velocity_variance": 0.0, "pos_horiz_variance": 0.04144566133618355, "pos_vert_variance": 0.00987909734249115}}, "errors": ["PreArm: Hardware safety switch"]}
{"timestamp": "2025-12-27T08:02:54.813342Z", "telemetry": {"lat": 0.0, "lon": 0.0, "satellites": 0, "altitude_gps_m": 0.8499999642372131, "groundspeed_mps": 0.36832395195961}, "flight": {"mode": "STABILIZE", "armed": false}, "ekf": {"attitude": {"roll": -0.061439212411642075, "pitch": -0.10462670028209686, "yaw": 2.126919746398926}, "local_position": {"x": null, "y": null, "z": null}, "status": {"flags": 135, "velocity_variance": 0.0, "pos_horiz_variance": 0.04314820095896721, "pos_vert_variance": 0.004834876861423254}}, "errors": ["PreArm: Hardware safety switch"]}
{"timestamp": "2025-12-27T08:02:55.813151Z", "telemetry": {"lat": 0.0, "lon": 0.0, "satellites": 0, "altitude_gps_m": 0.8499999642372131, "groundspeed_mps": 0.20713183283805847}, "flight": {"mode": "STABILIZE", "armed": false}, "ekf": {"attitude": {"roll": 0.0016546212136745453, "pitch": -0.08678753674030304, "yaw": 2.0547986030578613}, "local_position": {"x": null, "y": null, "z": null}, "status": {"flags": 135, "velocity_variance": 0.0, "pos_horiz_variance": 0.04539266973733902, "pos_vert_variance": 0.01793413981795311}}, "errors": ["PreArm: Hardware safety switch"]}
{"timestamp": "2025-12-27T08:02:56.813437Z", "telemetry": {"lat": 0.0, "lon": 0.0, "satellites": 0, "altitude_gps_m": 0.8499999642372131, "groundspeed_mps": 0.10592088103294373}, "flight": {"mode": "STABILIZE", "armed": false}, "ekf": {"attitude": {"roll": 0.0351913683116436, "pitch": -0.04575160890817642, "yaw": 2.202071189880371}, "local_position": {"x": null, "y": null, "z": null}, "status": {"flags": 135, "velocity_variance": 0.0, "pos_horiz_variance": 0.023359064012765884, "pos_vert_variance": 0.05262783169746399}}, "errors": ["PreArm: Hardware safety switch"]}
{"timestamp": "2025-12-27T08:02:57.813204Z", "telemetry": {"lat": 0.0, "lon": 0.0, "satellites": 0, "altitude_gps_m": 0.8499999642372131, "groundspeed_mps": 0.17512819170951843}, "flight": {"mode": "STABILIZE", "armed": false}, "ekf": {"attitude": {"roll": -0.08777876198291779, "pitch": -0.06580895930528641, "yaw": 2.1853678226470947}, "local_position": {"x": null, "y": null, "z": null}, "status": {"flags": 135, "velocity_variance": 0.0, "pos_horiz_variance": 0.011442050337791443, "pos_vert_variance": 0.003844349179416895}}, "errors": ["PreArm: Hardware safety switch"]}
{"timestamp": "2025-12-27T08:02:58.813013Z", "telemetry": {"lat": 0.0, "lon": 0.0, "satellites": 0, "altitude_gps_m": 0.8499999642372131, "groundspeed_mps": 0.3365907669067383}, "flight": {"mode": "STABILIZE", "armed": false}, "ekf": {"attitude": {"roll": -0.0660407692193985, "pitch": -0.06495919823646545, "yaw": 2.007359027862549}, "local_position": {"x": null, "y": null, "z": null}, "status": {"flags": 135, "velocity_variance": 0.0, "pos_horiz_variance": 0.03939363360404968, "pos_vert_variance": 0.009963524527847767}}, "errors": ["PreArm: Hardware safety switch"]}
{"timestamp": "2025-12-27T08:02:59.813002Z", "telemetry": {"lat": 0.0, "lon": 0.0, "satellites": 0, "altitude_gps_m": 0.8499999642372131, "groundspeed_mps": 0.13555920124053955}, "flight": {"mode": "STABILIZE", "armed": false}, "ekf": {"attitude": {"roll": -0.0926382839679718, "pitch": -0.01752561330795288, "yaw": 2.103915214538574}, "local_position": {"x": null, "y": null, "z": null}, "status": {"flags": 135, "velocity_variance": 0.0, "pos_horiz_variance": 0.05612291395664215, "pos_vert_variance": 0.04786267504096031}}, "errors": ["PreArm: Hardware safety switch"]}
{"timestamp": "2025-12-27T08:03:00.813639Z", "telemetry": {"lat": 0.0, "lon": 0.0, "satellites": 0, "altitude_gps_m": 0.8499999642372131, "groundspeed_mps": 0.4449583888053894}, "flight": {"mode": "STABILIZE", "armed": false}, "ekf": {"attitude": {"roll": -0.12787353992462158, "pitch": -0.08679812401533127, "yaw": 2.175567626953125}, "local_position": {"x": null, "y": null, "z": null}, "status": {"flags": 135, "velocity_variance": 0.0, "pos_horiz_variance": 0.04190821945667267, "pos_vert_variance": 0.01424450147897005}}, "errors": ["PreArm: Hardware safety switch"]}
{"timestamp": "2025-12-27T08:03:01.818295Z", "telemetry": {"lat": 0.0, "lon": 0.0, "satellites": 0, "altitude_gps_m": 0.8499999642372131, "groundspeed_mps": 0.30398568511009216}, "flight": {"mode": "STABILIZE", "armed": false}, "ekf": {"attitude": {"roll": -0.1127944141626358, "pitch": 0.0349620021879673, "yaw": 1.9810962677001953}, "local_position": {"x": null, "y": null, "z": null}, "status": {"flags": 135, "velocity_variance": 0.0, "pos_horiz_variance": 0.0576191172003746, "pos_vert_variance": 0.010931936092674732}}, "errors": ["PreArm: Hardware safety switch"]}
{"timestamp": "2025-12-27T08:03:02.817036Z", "telemetry": {"lat": 0.0, "lon": 0.0, "satellites": 0, "altitude_gps_m": 0.8499999642372131, "groundspeed_mps": 0.13130778074264526}, "flight": {"mode": "STABILIZE", "armed": false}, "ekf": {"attitude": {"roll": -0.1856805831193924, "pitch": -0.014314098283648491, "yaw": 2.036562919616699}, "local_position": {"x": null, "y": null, "z": null}, "status": {"flags": 135, "velocity_variance": 0.0, "pos_horiz_variance": 0.05715608596801758, "pos_vert_variance": 3.668270801426843e-05}}, "errors": ["PreArm: Hardware safety switch"]}
{"timestamp": "2025-12-27T08:03:03.816327Z", "telemetry": {"lat": 0.0, "lon": 0.0, "satellites": 0, "altitude_gps_m": 0.8499999642372131, "groundspeed_mps": 0.8515675067901611}, "flight": {"mode": "STABILIZE", "armed": false}, "ekf": {"attitude": {"roll": -0.18402375280857086, "pitch": 0.017434895038604736, "yaw": 2.1817657947540283}, "local_position": {"x": null, "y": null, "z": null}, "status": {"flags": 135, "velocity_variance": 0.0, "pos_horiz_variance": 0.06244184449315071, "pos_vert_variance": 0.020861830562353134}}, "errors": ["PreArm: Hardware safety switch"]}
{"timestamp": "2025-12-27T08:03:04.813580Z", "telemetry": {"lat": 0.0, "lon": 0.0, "satellites": 0, "altitude_gps_m": 0.8499999642372131, "groundspeed_mps": 0.3178749978542328}, "flight": {"mode": "STABILIZE", "armed": false}, "ekf": {"attitude": {"roll": -0.1539493352174759, "pitch": 0.04045461490750313, "yaw": 2.314631462097168}, "local_position": {"x": null, "y": null, "z": null}, "status": {"flags": 135, "velocity_variance": 0.0, "pos_horiz_variance": 0.06646493822336197, "pos_vert_variance": 0.0006597605533897877}}, "errors": ["PreArm: Hardware safety switch"]}
{"timestamp": "2025-12-27T08:03:05.813084Z", "telemetry": {"lat": 0.0, "lon": 0.0, "satellites": 0, "altitude_gps_m": 0.8499999642372131, "groundspeed_mps": 0.3031536340713501}, "flight": {"mode": "STABILIZE", "armed": false}, "ekf": {"attitude": {"roll": -0.18754169344902039, "pitch": 0.06139686331152916, "yaw": 2.3128867149353027}, "local_position": {"x": null, "y": null, "z": null}, "status": {"flags": 135, "velocity_variance": 0.0, "pos_horiz_variance": 0.05019119381904602, "pos_vert_variance": 0.02902846597135067}}, "errors": ["PreArm: Hardware safety switch"]}
{"timestamp": "2025-12-27T08:03:06.812601Z", "telemetry": {"lat": 0.0, "lon": 0.0, "satellites": 0, "altitude_gps_m": 0.8499999642372131, "groundspeed_mps": 0.4696430563926697}, "flight": {"mode": "STABILIZE", "armed": false}, "ekf": {"attitude": {"roll": -0.18084639310836792, "pitch": -0.04181143641471863, "yaw": 2.364513397216797}, "local_position": {"x": null, "y": null, "z": null}, "status": {"flags": 135, "velocity_variance": 0.0, "pos_horiz_variance": 0.0799442008137703, "pos_vert_variance": 0.0014598965644836426}}, "errors": ["PreArm: Hardware safety switch"]}
{"timestamp": "2025-12-27T08:03:07.813545Z", "telemetry": {"lat": 0.0, "lon": 0.0, "satellites": 0, "altitude_gps_m": 0.8499999642372131, "groundspeed_mps": 0.6192717552185059}, "flight": {"mode": "STABILIZE", "armed": false}, "ekf": {"attitude": {"roll": -0.20107042789459229, "pitch": 0.01483270712196827, "yaw": 2.2585370540618896}, "local_position": {"x": null, "y": null, "z": null}, "status": {"flags": 135, "velocity_variance": 0.0, "pos_horiz_variance": 0.07634036988019943, "pos_vert_variance": 0.051814962178468704}}, "errors": ["PreArm: Hardware safety switch"]}
{"timestamp": "2025-12-27T08:03:08.812819Z", "telemetry": {"lat": 0.0, "lon": 0.0, "satellites": 0, "altitude_gps_m": 0.8499999642372131, "groundspeed_mps": 0.5502448081970215}, "flight": {"mode": "STABILIZE", "armed": false}, "ekf": {"attitude": {"roll": -0.10842284560203552, "pitch": -0.02001868188381195, "yaw": 2.1652235984802246}, "local_position": {"x": null, "y": null, "z": null}, "status": {"flags": 135, "velocity_variance": 0.0, "pos_horiz_variance": 0.11720320582389832, "pos_vert_variance": 0.04277515783905983}}, "errors": ["PreArm: Hardware safety switch"]}
{"timestamp": "2025-12-27T08:03:09.812709Z", "telemetry": {"lat": 0.0, "lon": 0.0, "satellites": 0, "altitude_gps_m": 0.8499999642372131, "groundspeed_mps": 0.48787543177604675}, "flight": {"mode": "STABILIZE", "armed": false}, "ekf": {"attitude": {"roll": -0.18230704963207245, "pitch": -0.07086896896362305, "yaw": 2.2909653186798096}, "local_position": {"x": null, "y": null, "z": null}, "status": {"flags": 135, "velocity_variance": 0.0, "pos_horiz_variance": 0.06721197813749313, "pos_vert_variance": 0.01942773349583149}}, "errors": ["PreArm: Hardware safety switch"]}
{"timestamp": "2025-12-27T08:03:10.813196Z", "telemetry": {"lat": 0.0, "lon": 0.0, "satellites": 0, "altitude_gps_m": 0.8499999642372131, "groundspeed_mps": 0.33330732583999634}, "flight": {"mode": "STABILIZE", "armed": false}, "ekf": {"attitude": {"roll": -0.16844800114631653, "pitch": -0.013611501082777977, "yaw": 2.4496920108795166}, "local_position": {"x": null, "y": null, "z": null}, "status": {"flags": 135, "velocity_variance": 0.0, "pos_horiz_variance": 0.08145663887262344, "pos_vert_variance": 0.04567935690283775}}, "errors": ["PreArm: Hardware safety switch"]}
{"timestamp": "2025-12-27T08:03:11.812637Z", "telemetry": {"lat": 0.0, "lon": 0.0, "satellites": 0, "altitude_gps_m": 0.8499999642372131, "groundspeed_mps": 0.34341251850128174}, "flight": {"mode": "STABILIZE", "armed": false}, "ekf": {"attitude": {"roll": -0.23113149404525757, "pitch": 0.038644153624773026, "yaw": 2.5405824184417725}, "local_position": {"x": null, "y": null, "z": null}, "status": {"flags": 135, "velocity_variance": 0.0, "pos_horiz_variance": 0.04010697826743126, "pos_vert_variance": 0.024211207404732704}}, "errors": ["PreArm: Hardware safety switch"]}
{"timestamp": "2025-12-27T08:03:12.813505Z", "telemetry": {"lat": 0.0, "lon": 0.0, "satellites": 0, "altitude_gps_m": 0.8499999642372131, "groundspeed_mps": 1.0507419109344482}, "flight": {"mode": "STABILIZE", "armed": false}, "ekf": {"attitude": {"roll": -0.2765534520149231, "pitch": -0.035183411091566086, "yaw": 2.9411675930023193}, "local_position": {"x": null, "y": null, "z": null}, "status": {"flags": 135, "velocity_variance": 0.0, "pos_horiz_variance": 0.05641615763306618, "pos_vert_variance": 0.009288719855248928}}, "errors": ["PreArm: Hardware safety switch"]}
{"timestamp": "2025-12-27T08:03:13.817513Z", "telemetry": {"lat": 0.0, "lon": 0.0, "satellites": 0, "altitude_gps_m": 0.8499999642372131, "groundspeed_mps": 1.0449622869491577}, "flight": {"mode": "STABILIZE", "armed": false}, "ekf": {"attitude": {"roll": -0.19924363493919373, "pitch": 0.1597219705581665, "yaw": -2.869065523147583}, "local_position": {"x": null, "y": null, "z": null}, "status": {"flags": 135, "velocity_variance": 0.0, "pos_horiz_variance": 0.18628829717636108, "pos_vert_variance": 0.059498295187950134}}, "errors": ["PreArm: Hardware safety switch"]}
{"timestamp": "2025-12-27T08:03:14.815156Z", "telemetry": {"lat": 0.0, "lon": 0.0, "satellites": 0, "altitude_gps_m": 0.8499999642372131, "groundspeed_mps": 0.2339208424091339}, "flight": {"mode": "STABILIZE", "armed": false}, "ekf": {"attitude": {"roll": -0.13324950635433197, "pitch": -0.06326034665107727, "yaw": -2.9527463912963867}, "local_position": {"x": null, "y": null, "z": null}, "status": {"flags": 135, "velocity_variance": 0.0, "pos_horiz_variance": 0.11475054174661636, "pos_vert_variance": 0.010318482294678688}}, "errors": ["PreArm: Hardware safety switch"]}
{"timestamp": "2025-12-27T08:03:15.815435Z", "telemetry": {"lat": 0.0, "lon": 0.0, "satellites": 0, "altitude_gps_m": 0.8499999642372131, "groundspeed_mps": 1.2199552059173584}, "flight": {"mode": "STABILIZE", "armed": false}, "ekf": {"attitude": {"roll": -0.018901702016592026, "pitch": -0.07496103644371033, "yaw": 2.0931429862976074}, "local_position": {"x": null, "y": null, "z": null}, "status": {"flags": 135, "velocity_variance": 0.0, "pos_horiz_variance": 0.10616011172533035, "pos_vert_variance": 0.054446741938591}}, "errors": ["PreArm: Hardware safety switch"]}
{"timestamp": "2025-12-27T08:03:16.813517Z", "telemetry": {"lat": 0.0, "lon": 0.0, "satellites": 0, "altitude_gps_m": 0.8499999642372131, "groundspeed_mps": 1.14515221118927}, "flight": {"mode": "STABILIZE", "armed": false}, "ekf": {"attitude": {"roll": -0.189964160323143, "pitch": -0.14236056804656982, "yaw": 2.055450439453125}, "local_position": {"x": null, "y": null, "z": null}, "status": {"flags": 135, "velocity_variance": 0.0, "pos_horiz_variance": 0.24969670176506042, "pos_vert_variance": 0.02645105868577957}}, "errors": ["PreArm: Hardware safety switch"]}
{"timestamp": "2025-12-27T08:03:17.813562Z", "telemetry": {"lat": 0.0, "lon": 0.0, "satellites": 0, "altitude_gps_m": 0.8499999642372131, "groundspeed_mps": 0.15448834002017975}, "flight": {"mode": "STABILIZE", "armed": false}, "ekf": {"attitude": {"roll": -0.17538268864154816, "pitch": -0.17236343026161194, "yaw": 2.0430328845977783}, "local_position": {"x": null, "y": null, "z": null}, "status": {"flags": 135, "velocity_variance": 0.0, "pos_horiz_variance": 0.21912364661693573, "pos_vert_variance": 0.03531620278954506}}, "errors": ["PreArm: Hardware safety switch"]}
{"timestamp": "2025-12-27T08:03:18.813398Z", "telemetry": {"lat": 0.0, "lon": 0.0, "satellites": 0, "altitude_gps_m": 0.8499999642372131, "groundspeed_mps": 0.15041138231754303}, "flight": {"mode": "STABILIZE", "armed": false}, "ekf": {"attitude": {"roll": -0.1532619744539261, "pitch": -0.1101311594247818, "yaw": 1.9130970239639282}, "local_position": {"x": null, "y": null, "z": null}, "status": {"flags": 135, "velocity_variance": 0.0, "pos_horiz_variance": 0.08962223678827286, "pos_vert_variance": 0.02249355986714363}}, "errors": ["PreArm: Hardware safety switch"]}
{"timestamp": "2025-12-27T08:03:19.812618Z", "telemetry": {"lat": 0.0, "lon": 0.0, "satellites": 0, "altitude_gps_m": 0.8499999642372131, "groundspeed_mps": 0.6609055399894714}, "flight": {"mode": "STABILIZE", "armed": false}, "ekf": {"attitude": {"roll": -0.287913978099823, "pitch": -0.15779608488082886, "yaw": 1.8288395404815674}, "local_position": {"x": null, "y": null, "z": null}, "status": {"flags": 135, "velocity_variance": 0.0, "pos_horiz_variance": 0.06279405206441879, "pos_vert_variance": 0.034527238458395004}}, "errors": ["PreArm: Hardware safety switch"]}
{"timestamp": "2025-12-27T08:03:20.812869Z", "telemetry": {"lat": 0.0, "lon": 0.0, "satellites": 0, "altitude_gps_m": 0.8499999642372131, "groundspeed_mps": 0.7137660980224609}, "flight": {"mode": "STABILIZE", "armed": false}, "ekf": {"attitude": {"roll": -0.10901795327663422, "pitch": -0.05067842826247215, "yaw": 2.0033693313598633}, "local_position": {"x": null, "y": null, "z": null}, "status": {"flags": 135, "velocity_variance": 0.0, "pos_horiz_variance": 0.10360845178365707, "pos_vert_variance": 0.03322906419634819}}, "errors": ["PreArm: Hardware safety switch"]}
{"timestamp": "2025-12-27T08:03:21.813436Z", "telemetry": {"lat": 0.0, "lon": 0.0, "satellites": 0, "altitude_gps_m": 0.8499999642372131, "groundspeed_mps": 0.6273419857025146}, "flight": {"mode": "STABILIZE", "armed": false}, "ekf": {"attitude": {"roll": -0.14983128011226654, "pitch": -0.17464560270309448, "yaw": 2.1866519451141357}, "local_position": {"x": null, "y": null, "z": null}, "status": {"flags": 135, "velocity_variance": 0.0, "pos_horiz_variance": 0.11181333661079407, "pos_vert_variance": 0.01538910437375307}}, "errors": ["PreArm: Hardware safety switch"]}
{"timestamp": "2025-12-27T08:03:22.813322Z", "telemetry": {"lat": 0.0, "lon": 0.0, "satellites": 0, "altitude_gps_m": 0.8499999642372131, "groundspeed_mps": 0.23723028600215912}, "flight": {"mode": "STABILIZE", "armed": false}, "ekf": {"attitude": {"roll": -0.09669022262096405, "pitch": -0.1313539445400238, "yaw": 2.439981698989868}, "local_position": {"x": null, "y": null, "z": null}, "status": {"flags": 135, "velocity_variance": 0.0, "pos_horiz_variance": 0.06684784591197968, "pos_vert_variance": 0.047329891473054886}}, "errors": ["PreArm: Hardware safety switch"]}
{"timestamp": "2025-12-27T08:03:23.813265Z", "telemetry": {"lat": 0.0, "lon": 0.0, "satellites": 0, "altitude_gps_m": 0.8499999642372131, "groundspeed_mps": 0.2763025164604187}, "flight": {"mode": "STABILIZE", "armed": false}, "ekf": {"attitude": {"roll": -0.08944199979305267, "pitch": -0.10382397472858429, "yaw": 2.560068130493164}, "local_position": {"x": null, "y": null, "z": null}, "status": {"flags": 135, "velocity_variance": 0.0, "pos_horiz_variance": 0.04515881463885307, "pos_vert_variance": 0.0011067924788221717}}, "errors": ["PreArm: Hardware safety switch", "PreArm: Hardware safety switch"]}
{"timestamp": "2025-12-27T08:03:24.813561Z", "telemetry": {"lat": 0.0, "lon": 0.0, "satellites": 0, "altitude_gps_m": 0.8499999642372131, "groundspeed_mps": 0.06574799865484238}, "flight": {"mode": "STABILIZE", "armed": false}, "ekf": {"attitude": {"roll": -0.17855627834796906, "pitch": -0.17679767310619354, "yaw": 2.460057258605957}, "local_position": {"x": null, "y": null, "z": null}, "status": {"flags": 135, "velocity_variance": 0.0, "pos_horiz_variance": 0.0564260371029377, "pos_vert_variance": 0.04322633519768715}}, "errors": ["PreArm: Hardware safety switch", "PreArm: Hardware safety switch"]}
{"timestamp": "2025-12-27T08:03:25.816758Z", "telemetry": {"lat": 0.0, "lon": 0.0, "satellites": 0, "altitude_gps_m": 0.8499999642372131, "groundspeed_mps": 0.03804195299744606}, "flight": {"mode": "STABILIZE", "armed": false}, "ekf": {"attitude": {"roll": -0.04383354261517525, "pitch": -0.22402101755142212, "yaw": 2.3409461975097656}, "local_position": {"x": null, "y": null, "z": null}, "status": {"flags": 135, "velocity_variance": 0.0, "pos_horiz_variance": 0.029201654717326164, "pos_vert_variance": 0.008978046476840973}}, "errors": ["PreArm: Hardware safety switch", "PreArm: Hardware safety switch"]}
{"timestamp": "2025-12-27T08:03:26.815758Z", "telemetry": {"lat": 0.0, "lon": 0.0, "satellites": 0, "altitude_gps_m": 0.8499999642372131, "groundspeed_mps": 0.06001110374927521}, "flight": {"mode": "STABILIZE", "armed": false}, "ekf": {"attitude": {"roll": 0.07922330498695374, "pitch": -0.18460775911808014, "yaw": 2.4669203758239746}, "local_position": {"x": null, "y": null, "z": null}, "status": {"flags": 135, "velocity_variance": 0.0, "pos_horiz_variance": 0.02469567395746708, "pos_vert_variance": 0.015586916357278824}}, "errors": ["PreArm: Hardware safety switch", "PreArm: Hardware safety switch"]}
{"timestamp": "2025-12-27T08:03:27.813326Z", "telemetry": {"lat": 0.0, "lon": 0.0, "satellites": 0, "altitude_gps_m": 0.8499999642372131, "groundspeed_mps": 0.20873568952083588}, "flight": {"mode": "STABILIZE", "armed": false}, "ekf": {"attitude": {"roll": -0.0013383887708187103, "pitch": -0.18293660879135132, "yaw": 2.477454423904419}, "local_position": {"x": null, "y": null, "z": null}, "status": {"flags": 135, "velocity_variance": 0.0, "pos_horiz_variance": 0.03956320509314537, "pos_vert_variance": 0.0029899042565375566}}, "errors": ["PreArm: Hardware safety switch", "PreArm: Hardware safety switch"]}
{"timestamp": "2025-12-27T08:03:28.812915Z", "telemetry": {"lat": 0.0, "lon": 0.0, "satellites": 0, "altitude_gps_m": 0.8499999642372131, "groundspeed_mps": 0.26588061451911926}, "flight": {"mode": "STABILIZE", "armed": false}, "ekf": {"attitude": {"roll": 0.006833814084529877, "pitch": -0.2528371810913086, "yaw": 2.57539439201355}, "local_position": {"x": null, "y": null, "z": null}, "status": {"flags": 135, "velocity_variance": 0.0, "pos_horiz_variance": 0.04530441761016846, "pos_vert_variance": 0.011410712264478207}}, "errors": ["PreArm: Hardware safety switch", "PreArm: Hardware safety switch"]}
{"timestamp": "2025-12-27T08:03:29.812994Z", "telemetry": {"lat": 0.0, "lon": 0.0, "satellites": 0, "altitude_gps_m": 0.8499999642372131, "groundspeed_mps": 0.17142139375209808}, "flight": {"mode": "STABILIZE", "armed": false}, "ekf": {"attitude": {"roll": -0.0031448453664779663, "pitch": -0.242264524102211, "yaw": 2.6398701667785645}, "local_position": {"x": null, "y": null, "z": null}, "status": {"flags": 135, "velocity_variance": 0.0, "pos_horiz_variance": 0.05390944704413414, "pos_vert_variance": 0.04704143851995468}}, "errors": ["PreArm: Hardware safety switch", "PreArm: Hardware safety switch"]}
{"timestamp": "2025-12-27T08:03:30.813366Z", "telemetry": {"lat": 39.7369283, "lon": 59.3265746, "satellites": 0, "altitude_gps_m": 0.8499999642372131, "groundspeed_mps": 0.18275298178195953}, "flight": {"mode": "STABILIZE", "armed": false}, "ekf": {"attitude": {"roll": 0.07924474030733109, "pitch": -0.15477056801319122, "yaw": 2.6291043758392334}, "local_position": {"x": null, "y": null, "z": null}, "status": {"flags": 135, "velocity_variance": 0.0, "pos_horiz_variance": 0.03685547038912773, "pos_vert_variance": 0.002146712737157941}}, "errors": ["PreArm: Hardware safety switch", "PreArm: Hardware safety switch"]}
{"timestamp": "2025-12-27T08:03:31.812788Z", "telemetry": {"lat": 39.7969827, "lon": 60.0929764, "satellites": 0, "altitude_gps_m": 0.8499999642372131, "groundspeed_mps": 0.06176052615046501}, "flight": {"mode": "STABILIZE", "armed": false}, "ekf": {"attitude": {"roll": 0.051905810832977295, "pitch": -0.16785389184951782, "yaw": 2.607332468032837}, "local_position": {"x": null, "y": null, "z": null}, "status": {"flags": 135, "velocity_variance": 0.0, "pos_horiz_variance": 0.007038778159767389, "pos_vert_variance": 0.022500749677419662}}, "errors": ["PreArm: Hardware safety switch", "PreArm: Hardware safety switch"]}
{"timestamp": "2025-12-27T08:03:32.813300Z", "telemetry": {"lat": 39.9138369, "lon": 61.1288617, "satellites": 0, "altitude_gps_m": 0.8499999642372131, "groundspeed_mps": 0.15639925003051758}, "flight": {"mode": "STABILIZE", "armed": false}, "ekf": {"attitude": {"roll": 0.034753672778606415, "pitch": -0.21479134261608124, "yaw": 2.729870319366455}, "local_position": {"x": null, "y": null, "z": null}, "status": {"flags": 135, "velocity_variance": 0.0, "pos_horiz_variance": 0.023645691573619843, "pos_vert_variance": 0.007564564701169729}}, "errors": ["PreArm: Hardware safety switch", "PreArm: Hardware safety switch"]}
{"timestamp": "2025-12-27T08:03:33.813204Z", "telemetry": {"lat": 40.2669391, "lon": 61.6481592, "satellites": 0, "altitude_gps_m": 0.8499999642372131, "groundspeed_mps": 0.1546342819929123}, "flight": {"mode": "STABILIZE", "armed": false}, "ekf": {"attitude": {"roll": -0.03291166201233864, "pitch": -0.30107393860816956, "yaw": 2.7786450386047363}, "local_position": {"x": null, "y": null, "z": null}, "status": {"flags": 135, "velocity_variance": 0.0, "pos_horiz_variance": 0.02037082053720951, "pos_vert_variance": 0.025434670969843864}}, "errors": ["PreArm: Hardware safety switch", "PreArm: Hardware safety switch"]}
{"timestamp": "2025-12-27T08:03:34.812872Z", "telemetry": {"lat": 40.0668497, "lon": 63.4347737, "satellites": 0, "altitude_gps_m": 0.8499999642372131, "groundspeed_mps": 0.19423188269138336}, "flight": {"mode": "STABILIZE", "armed": false}, "ekf": {"attitude": {"roll": -0.018167246133089066, "pitch": -0.3375506103038788, "yaw": 2.795745372772217}, "local_position": {"x": null, "y": null, "z": null}, "status": {"flags": 135, "velocity_variance": 0.0, "pos_horiz_variance": 0.025794556364417076, "pos_vert_variance": 0.017028912901878357}}, "errors": ["PreArm: Hardware safety switch", "PreArm: Hardware safety switch"]}
{"timestamp": "2025-12-27T08:03:35.817390Z", "telemetry": {"lat": 40.1103113, "lon": 58.2083018, "satellites": 0, "altitude_gps_m": 0.8499999642372131, "groundspeed_mps": 0.26337936520576477}, "flight": {"mode": "STABILIZE", "armed": false}, "ekf": {"attitude": {"roll": -0.03980696573853493, "pitch": -0.33390921354293823, "yaw": 2.658129930496216}, "local_position": {"x": null, "y": null, "z": null}, "status": {"flags": 135, "velocity_variance": 0.0, "pos_horiz_variance": 0.017121752724051476, "pos_vert_variance": 0.030124900862574577}}, "errors": ["PreArm: Hardware safety switch", "PreArm: Hardware safety switch"]}
{"timestamp": "2025-12-27T08:03:36.817065Z", "telemetry": {"lat": 39.9496058, "lon": 57.9474451, "satellites": 0, "altitude_gps_m": 0.8499999642372131, "groundspeed_mps": 0.3581797778606415}, "flight": {"mode": "STABILIZE", "armed": false}, "ekf": {"attitude": {"roll": -0.01779261603951454, "pitch": -0.29919299483299255, "yaw": 2.3577637672424316}, "local_position": {"x": null, "y": null, "z": null}, "status": {"flags": 135, "velocity_variance": 0.0, "pos_horiz_variance": 0.04437358304858208, "pos_vert_variance": 0.014260976575314999}}, "errors": ["PreArm: Hardware safety switch", "PreArm: Hardware safety switch"]}
{"timestamp": "2025-12-27T08:03:37.814284Z", "telemetry": {"lat": 39.3993302, "lon": 59.0568243, "satellites": 0, "altitude_gps_m": 0.8499999642372131, "groundspeed_mps": 0.3233400583267212}, "flight": {"mode": "STABILIZE", "armed": false}, "ekf": {"attitude": {"roll": -0.10309459269046783, "pitch": -0.33584001660346985, "yaw": 2.5671334266662598}, "local_position": {"x": null, "y": null, "z": null}, "status": {"flags": 135, "velocity_variance": 0.0, "pos_horiz_variance": 0.025534477084875107, "pos_vert_variance": 0.025184234604239464}}, "errors": ["PreArm: Hardware safety switch", "PreArm: Hardware safety switch"]}
{"timestamp": "2025-12-27T08:03:38.813464Z", "telemetry": {"lat": 39.7638638, "lon": 61.3172039, "satellites": 0, "altitude_gps_m": 0.8499999642372131, "groundspeed_mps": 0.0620308555662632}, "flight": {"mode": "STABILIZE", "armed": false}, "ekf": {"attitude": {"roll": 0.037975847721099854, "pitch": -0.3087548613548279, "yaw": 2.4455525875091553}, "local_position": {"x": null, "y": null, "z": null}, "status": {"flags": 135, "velocity_variance": 0.0, "pos_horiz_variance": 0.03423986956477165, "pos_vert_variance": 0.0012553258566185832}}, "errors": ["PreArm: Hardware safety switch", "PreArm: Hardware safety switch"]}
{"timestamp": "2025-12-27T08:03:39.813324Z", "telemetry": {"lat": 40.6842697, "lon": 55.1474788, "satellites": 0, "altitude_gps_m": 0.8499999642372131, "groundspeed_mps": 0.07266214489936829}, "flight": {"mode": "STABILIZE", "armed": false}, "ekf": {"attitude": {"roll": -0.03651678189635277, "pitch": -0.3059295415878296, "yaw": 2.4520585536956787}, "local_position": {"x": null, "y": null, "z": null}, "status": {"flags": 135, "velocity_variance": 0.0, "pos_horiz_variance": 0.029124703258275986, "pos_vert_variance": 0.00265888636931777}}, "errors": ["PreArm: Hardware safety switch", "PreArm: Hardware safety switch"]}
{"timestamp": "2025-12-27T08:03:40.812718Z", "telemetry": {"lat": 38.6205668, "lon": 64.2935302, "satellites": 0, "altitude_gps_m": 0.8499999642372131, "groundspeed_mps": 0.2043716460466385}, "flight": {"mode": "STABILIZE", "armed": false}, "ekf": {"attitude": {"roll": -0.09266488254070282, "pitch": -0.3365505039691925, "yaw": 2.296250343322754}, "local_position": {"x": null, "y": null, "z": null}, "status": {"flags": 135, "velocity_variance": 0.0, "pos_horiz_variance": 0.019251933321356773, "pos_vert_variance": 0.0012750693131238222}}, "errors": ["PreArm: Hardware safety switch", "PreArm: Hardware safety switch"]}
{"timestamp": "2025-12-27T08:03:41.813492Z", "telemetry": {"lat": 39.431732, "lon": 62.4510858, "satellites": 0, "altitude_gps_m": 0.8499999642372131, "groundspeed_mps": 0.2382100224494934}, "flight": {"mode": "STABILIZE", "armed": false}, "ekf": {"attitude": {"roll": 0.056022997945547104, "pitch": -0.3054514527320862, "yaw": 2.6400084495544434}, "local_position": {"x": null, "y": null, "z": null}, "status": {"flags": 135, "velocity_variance": 0.0, "pos_horiz_variance": 0.03849401697516441, "pos_vert_variance": 0.04688337445259094}}, "errors": ["PreArm: Hardware safety switch", "PreArm: Hardware safety switch"]}
{"timestamp": "2025-12-27T08:03:42.813290Z", "telemetry": {"lat": 39.6521771, "lon": 60.057376, "satellites": 0, "altitude_gps_m": 0.8499999642372131, "groundspeed_mps": 0.15672454237937927}, "flight": {"mode": "STABILIZE", "armed": false}, "ekf": {"attitude": {"roll": 0.029336974024772644, "pitch": -0.3867669701576233, "yaw": 2.794306755065918}, "local_position": {"x": null, "y": null, "z": null}, "status": {"flags": 135, "velocity_variance": 0.0, "pos_horiz_variance": 0.041213326156139374, "pos_vert_variance": 0.036262284964323044}}, "errors": ["PreArm: Hardware safety switch", "PreArm: Hardware safety switch"]}
{"timestamp": "2025-12-27T08:03:43.813408Z", "telemetry": {"lat": 39.5365088, "lon": 58.8039396, "satellites": 0, "altitude_gps_m": 0.8499999642372131, "groundspeed_mps": 0.2838943302631378}, "flight": {"mode": "STABILIZE", "armed": false}, "ekf": {"attitude": {"roll": -0.014930643141269684, "pitch": -0.38790011405944824, "yaw": 2.951011896133423}, "local_position": {"x": null, "y": null, "z": null}, "status": {"flags": 135, "velocity_variance": 0.0, "pos_horiz_variance": 0.03255610540509224, "pos_vert_variance": 0.008879498578608036}}, "errors": ["PreArm: Hardware safety switch", "PreArm: Hardware safety switch"]}
{"timestamp": "2025-12-27T08:03:44.812806Z", "telemetry": {"lat": 39.8954198, "lon": 59.2895663, "satellites": 0, "altitude_gps_m": 0.8499999642372131, "groundspeed_mps": 0.27476057410240173}, "flight": {"mode": "STABILIZE", "armed": false}, "ekf": {"attitude": {"roll": 0.05623148754239082, "pitch": -0.5242860317230225, "yaw": 2.9730780124664307}, "local_position": {"x": null, "y": null, "z": null}, "status": {"flags": 135, "velocity_variance": 0.0, "pos_horiz_variance": 0.10701420903205872, "pos_vert_variance": 0.026199372485280037}}, "errors": ["PreArm: Hardware safety switch", "PreArm: Hardware safety switch"]}
{"timestamp": "2025-12-27T08:03:45.813167Z", "telemetry": {"lat": 40.0097483, "lon": 61.4105651, "satellites": 0, "altitude_gps_m": 0.8499999642372131, "groundspeed_mps": 0.7777756452560425}, "flight": {"mode": "STABILIZE", "armed": false}, "ekf": {"attitude": {"roll": 0.06870488822460175, "pitch": -0.6126630306243896, "yaw": 2.208751678466797}, "local_position": {"x": null, "y": null, "z": null}, "status": {"flags": 135, "velocity_variance": 0.0, "pos_horiz_variance": 0.10199643671512604, "pos_vert_variance": 0.020113782957196236}}, "errors": ["PreArm: Hardware safety switch", "PreArm: Hardware safety switch"]}
