{"timestamp": "2025-12-28T10:36:38.827332Z", "telemetry": {"lat": 28.7531741, "lon": 77.1178086, "satellites": 11, "altitude_gps_m": 212.97000122070312, "groundspeed_mps": 0.10737299174070358}, "flight": {"mode": null, "armed": null}, "ekf": {"attitude": {"roll": -0.030845332890748978, "pitch": -0.005660856608301401, "yaw": 3.0474367141723633}, "local_position": {"x": 10.523332595825195, "y": -6.599762439727783, "z": -4.048337459564209}, "status": {"flags": 33599, "velocity_variance": 0.16805996000766754, "pos_horiz_variance": 0.009934060275554657, "pos_vert_variance": 0.020531443879008293}}, "errors": []}
{"timestamp": "2025-12-28T10:36:39.867959Z", "telemetry": {"lat": 28.7531731, "lon": 77.117811, "satellites": 11, "altitude_gps_m": 212.97999572753906, "groundspeed_mps": 0.054719313979148865}, "flight": {"mode": "STABILIZE", "armed": false}, "ekf": {"attitude": {"roll": -0.03158089891076088, "pitch": -0.0067015099339187145, "yaw": 3.0474348068237305}, "local_position": {"x": 10.566828727722168, "y": -6.45247745513916, "z": -4.05094575881958}, "status": {"flags": 33599, "velocity_variance": 0.2659180760383606, "pos_horiz_variance": 0.008648606017231941, "pos_vert_variance": 0.022432507947087288}}, "errors": []}
{"timestamp": "2025-12-28T10:36:40.868774Z", "telemetry": {"lat": 28.7531766, "lon": 77.1178103, "satellites": 11, "altitude_gps_m": 212.94000244140625, "groundspeed_mps": 0.050536446273326874}, "flight": {"mode": "STABILIZE", "armed": false}, "ekf": {"attitude": {"roll": -0.03158048167824745, "pitch": -0.006284774746745825, "yaw": 3.047464370727539}, "local_position": {"x": 10.682979583740234, "y": -6.432974815368652, "z": -4.018737316131592}, "status": {"flags": 33599, "velocity_variance": 0.12875394523143768, "pos_horiz_variance": 0.013579759746789932, "pos_vert_variance": 0.010032221674919128}}, "errors": []}
{"timestamp": "2025-12-28T10:36:41.868080Z", "telemetry": {"lat": 28.7531799, "lon": 77.1178141, "satellites": 11, "altitude_gps_m": 213.04998779296875, "groundspeed_mps": 0.06925035268068314}, "flight": {"mode": "STABILIZE", "armed": false}, "ekf": {"attitude": {"roll": -0.03209099546074867, "pitch": -0.00627947086468339, "yaw": 3.047459602355957}, "local_position": {"x": 10.883934020996094, "y": -6.272202491760254, "z": -4.129858016967773}, "status": {"flags": 33599, "velocity_variance": 0.1718621551990509, "pos_horiz_variance": 0.019015321508049965, "pos_vert_variance": 0.06964124739170074}}, "errors": []}
{"timestamp": "2025-12-28T10:36:42.867895Z", "telemetry": {"lat": 28.7531846, "lon": 77.1178135, "satellites": 11, "altitude_gps_m": 213.0399932861328, "groundspeed_mps": 0.17075318098068237}, "flight": {"mode": "STABILIZE", "armed": false}, "ekf": {"attitude": {"roll": -0.03288544341921806, "pitch": -0.00513449078425765, "yaw": 3.047477960586548}, "local_position": {"x": 11.603446960449219, "y": -5.987720966339111, "z": -4.109950065612793}, "status": {"flags": 33599, "velocity_variance": 0.1330738365650177, "pos_horiz_variance": 0.014313791878521442, "pos_vert_variance": 0.00046158890472725034}}, "errors": []}
{"timestamp": "2025-12-28T10:36:43.868113Z", "telemetry": {"lat": 28.7531857, "lon": 77.1178135, "satellites": 11, "altitude_gps_m": 213.01998901367188, "groundspeed_mps": 0.18301112949848175}, "flight": {"mode": "STABILIZE", "armed": false}, "ekf": {"attitude": {"roll": -0.03280177339911461, "pitch": -0.004876740742474794, "yaw": 3.0473945140838623}, "local_position": {"x": 11.722528457641602, "y": -5.992293834686279, "z": -4.094956398010254}, "status": {"flags": 33599, "velocity_variance": 0.1644490659236908, "pos_horiz_variance": 0.013390317559242249, "pos_vert_variance": 0.0256696455180645}}, "errors": []}
{"timestamp": "2025-12-28T10:36:44.867845Z", "telemetry": {"lat": 28.7531851, "lon": 77.1178127, "satellites": 11, "altitude_gps_m": 213.0800018310547, "groundspeed_mps": 0.1472470462322235}, "flight": {"mode": "STABILIZE", "armed": false}, "ekf": {"attitude": {"roll": -0.03227778151631355, "pitch": -0.0055738347582519054, "yaw": 3.0474114418029785}, "local_position": {"x": 11.855430603027344, "y": -5.997430801391602, "z": -4.153219699859619}, "status": {"flags": 33599, "velocity_variance": 0.2725118398666382, "pos_horiz_variance": 0.008907193318009377, "pos_vert_variance": 0.01218151580542326}}, "errors": []}
{"timestamp": "2025-12-28T10:36:45.871176Z", "telemetry": {"lat": 28.753185, "lon": 77.1178168, "satellites": 10, "altitude_gps_m": 213.22000122070312, "groundspeed_mps": 0.12153738737106323}, "flight": {"mode": "STABILIZE", "armed": false}, "ekf": {"attitude": {"roll": -0.03271779045462608, "pitch": -0.0072920662350952625, "yaw": 3.0475175380706787}, "local_position": {"x": 11.735746383666992, "y": -5.770159721374512, "z": -4.296104907989502}, "status": {"flags": 33599, "velocity_variance": 0.07281896471977234, "pos_horiz_variance": 0.011467411182820797, "pos_vert_variance": 0.021925615146756172}}, "errors": []}
{"timestamp": "2025-12-28T10:36:46.867982Z", "telemetry": {"lat": 28.7531841, "lon": 77.1178172, "satellites": 10, "altitude_gps_m": 213.3699951171875, "groundspeed_mps": 0.10911159962415695}, "flight": {"mode": "STABILIZE", "armed": false}, "ekf": {"attitude": {"roll": -0.0321829579770565, "pitch": -0.007711627054959536, "yaw": 3.0477311611175537}, "local_position": {"x": 11.70682430267334, "y": -5.644952297210693, "z": -4.340103626251221}, "status": {"flags": 33599, "velocity_variance": 0.06496067345142365, "pos_horiz_variance": 0.008999085053801537, "pos_vert_variance": 0.046998877078294754}}, "errors": []}
{"timestamp": "2025-12-28T10:36:47.867884Z", "telemetry": {"lat": 28.7531817, "lon": 77.1178145, "satellites": 10, "altitude_gps_m": 213.3699951171875, "groundspeed_mps": 0.14712613821029663}, "flight": {"mode": "STABILIZE", "armed": false}, "ekf": {"attitude": {"roll": -0.03185293450951576, "pitch": -0.00875396840274334, "yaw": 3.0476913452148438}, "local_position": {"x": 11.550631523132324, "y": -5.684587001800537, "z": -4.441415309906006}, "status": {"flags": 33599, "velocity_variance": 0.041095878928899765, "pos_horiz_variance": 0.008367952890694141, "pos_vert_variance": 0.021283568814396858}}, "errors": []}
{"timestamp": "2025-12-28T10:36:48.868030Z", "telemetry": {"lat": 28.7531828, "lon": 77.1178152, "satellites": 10, "altitude_gps_m": 213.25999450683594, "groundspeed_mps": 0.16050709784030914}, "flight": {"mode": "STABILIZE", "armed": false}, "ekf": {"attitude": {"roll": -0.031931910663843155, "pitch": -0.008513567969202995, "yaw": 3.047703981399536}, "local_position": {"x": 11.491450309753418, "y": -5.720392227172852, "z": -4.358819961547852}, "status": {"flags": 33599, "velocity_variance": 0.06654558330774307, "pos_horiz_variance": 0.010813593864440918, "pos_vert_variance": 0.04107183963060379}}, "errors": []}
{"timestamp": "2025-12-28T10:36:49.867875Z", "telemetry": {"lat": 28.7531812, "lon": 77.117816, "satellites": 11, "altitude_gps_m": 213.22000122070312, "groundspeed_mps": 0.22166983783245087}, "flight": {"mode": "STABILIZE", "armed": false}, "ekf": {"attitude": {"roll": -0.03213895484805107, "pitch": -0.009447481483221054, "yaw": 3.0476670265197754}, "local_position": {"x": 11.315858840942383, "y": -5.668210983276367, "z": -4.297250270843506}, "status": {"flags": 33599, "velocity_variance": 0.050568241626024246, "pos_horiz_variance": 0.010748631320893764, "pos_vert_variance": 0.08526529371738434}}, "errors": []}
{"timestamp": "2025-12-28T10:36:50.867783Z", "telemetry": {"lat": 28.753183, "lon": 77.1178143, "satellites": 11, "altitude_gps_m": 213.17999267578125, "groundspeed_mps": 0.20751725137233734}, "flight": {"mode": "STABILIZE", "armed": false}, "ekf": {"attitude": {"roll": -0.031827691942453384, "pitch": -0.008833065629005432, "yaw": 3.047569513320923}, "local_position": {"x": 11.31871509552002, "y": -5.7245917320251465, "z": -4.251868724822998}, "status": {"flags": 33599, "velocity_variance": 0.3008119761943817, "pos_horiz_variance": 0.014942876063287258, "pos_vert_variance": 0.0015996163710951805}}, "errors": []}
{"timestamp": "2025-12-28T10:36:51.868621Z", "telemetry": {"lat": 28.7531785, "lon": 77.1178136, "satellites": 11, "altitude_gps_m": 213.0800018310547, "groundspeed_mps": 0.32448360323905945}, "flight": {"mode": "STABILIZE", "armed": false}, "ekf": {"attitude": {"roll": -0.031596820801496506, "pitch": -0.01033899188041687, "yaw": 3.047600030899048}, "local_position": {"x": 10.901606559753418, "y": -5.7793049812316895, "z": -4.149073600769043}, "status": {"flags": 33599, "velocity_variance": 0.12590034306049347, "pos_horiz_variance": 0.01376607920974493, "pos_vert_variance": 0.0006081702304072678}}, "errors": []}
{"timestamp": "2025-12-28T10:36:52.868430Z", "telemetry": {"lat": 28.7531784, "lon": 77.1178144, "satellites": 11, "altitude_gps_m": 213.08999633789062, "groundspeed_mps": 0.35266610980033875}, "flight": {"mode": "STABILIZE", "armed": false}, "ekf": {"attitude": {"roll": -0.03160402551293373, "pitch": -0.010150464251637459, "yaw": 3.047663450241089}, "local_position": {"x": 10.724297523498535, "y": -5.799894332885742, "z": -4.169588565826416}, "status": {"flags": 33599, "velocity_variance": 0.13883458077907562, "pos_horiz_variance": 0.016545133665204048, "pos_vert_variance": 0.013032949529588223}}, "errors": []}
{"timestamp": "2025-12-28T10:36:53.867859Z", "telemetry": {"lat": 28.7531835, "lon": 77.1178147, "satellites": 11, "altitude_gps_m": 213.05999755859375, "groundspeed_mps": 0.25847116112709045}, "flight": {"mode": "STABILIZE", "armed": false}, "ekf": {"attitude": {"roll": -0.03161298856139183, "pitch": -0.008162373676896095, "yaw": 3.0476667881011963}, "local_position": {"x": 10.942266464233398, "y": -5.81350564956665, "z": -4.138283729553223}, "status": {"flags": 33599, "velocity_variance": 0.10175615549087524, "pos_horiz_variance": 0.023903416469693184, "pos_vert_variance": 0.0245553907006979}}, "errors": []}
{"timestamp": "2025-12-28T10:36:54.868609Z", "telemetry": {"lat": 28.7531859, "lon": 77.1178158, "satellites": 11, "altitude_gps_m": 213.0399932861328, "groundspeed_mps": 0.1736897975206375}, "flight": {"mode": "STABILIZE", "armed": false}, "ekf": {"attitude": {"roll": -0.03184891119599342, "pitch": -0.007210094016045332, "yaw": 3.0476980209350586}, "local_position": {"x": 11.215035438537598, "y": -5.794750213623047, "z": -4.114283561706543}, "status": {"flags": 33599, "velocity_variance": 0.14051547646522522, "pos_horiz_variance": 0.02481635846197605, "pos_vert_variance": 0.03253481164574623}}, "errors": []}
{"timestamp": "2025-12-28T10:36:55.870817Z", "telemetry": {"lat": 28.753189, "lon": 77.1178154, "satellites": 11, "altitude_gps_m": 213.0399932861328, "groundspeed_mps": 0.09152147173881531}, "flight": {"mode": "STABILIZE", "armed": false}, "ekf": {"attitude": {"roll": -0.031951043754816055, "pitch": -0.0056130108423531055, "yaw": 3.047734022140503}, "local_position": {"x": 11.522571563720703, "y": -5.755578517913818, "z": -4.108703136444092}, "status": {"flags": 33599, "velocity_variance": 0.14725694060325623, "pos_horiz_variance": 0.026980118826031685, "pos_vert_variance": 0.029933277517557144}}, "errors": []}
{"timestamp": "2025-12-28T10:36:56.870800Z", "telemetry": {"lat": 28.7531855, "lon": 77.1178149, "satellites": 11, "altitude_gps_m": 212.989990234375, "groundspeed_mps": 0.08194761723279953}, "flight": {"mode": "STABILIZE", "armed": false}, "ekf": {"attitude": {"roll": -0.03179724141955376, "pitch": -0.006164098624140024, "yaw": 3.047654390335083}, "local_position": {"x": 11.685208320617676, "y": -5.818455696105957, "z": -4.060102462768555}, "status": {"flags": 33599, "velocity_variance": 0.3642559349536896, "pos_horiz_variance": 0.01693163439631462, "pos_vert_variance": 0.02243972197175026}}, "errors": []}
{"timestamp": "2025-12-28T10:36:57.867846Z", "telemetry": {"lat": 28.7531881, "lon": 77.1178165, "satellites": 11, "altitude_gps_m": 213.02999877929688, "groundspeed_mps": 0.07149476557970047}, "flight": {"mode": "STABILIZE", "armed": false}, "ekf": {"attitude": {"roll": -0.032007765024900436, "pitch": -0.00545338774099946, "yaw": 3.04762864112854}, "local_position": {"x": 11.621500015258789, "y": -5.755817890167236, "z": -4.097128391265869}, "status": {"flags": 33599, "velocity_variance": 0.1163388192653656, "pos_horiz_variance": 0.022030305117368698, "pos_vert_variance": 0.04664437472820282}}, "errors": []}
{"timestamp": "2025-12-28T10:36:58.867857Z", "telemetry": {"lat": 28.7531915, "lon": 77.1178111, "satellites": 11, "altitude_gps_m": 212.97999572753906, "groundspeed_mps": 0.06150335446000099}, "flight": {"mode": "STABILIZE", "armed": false}, "ekf": {"attitude": {"roll": -0.03132807835936546, "pitch": -0.003948587458580732, "yaw": 3.0474376678466797}, "local_position": {"x": 12.114373207092285, "y": -5.913650035858154, "z": -4.063249111175537}, "status": {"flags": 33599, "velocity_variance": 0.13373251259326935, "pos_horiz_variance": 0.02207406982779503, "pos_vert_variance": 0.03735837712883949}}, "errors": []}
{"timestamp": "2025-12-28T10:36:59.867777Z", "telemetry": {"lat": 28.7531955, "lon": 77.1178096, "satellites": 11, "altitude_gps_m": 213.02999877929688, "groundspeed_mps": 0.11482040584087372}, "flight": {"mode": "STABILIZE", "armed": false}, "ekf": {"attitude": {"roll": -0.031151752918958664, "pitch": -0.0033326721750199795, "yaw": 3.047292947769165}, "local_position": {"x": 12.449667930603027, "y": -6.074766635894775, "z": -4.101313591003418}, "status": {"flags": 33599, "velocity_variance": 0.06195944920182228, "pos_horiz_variance": 0.025052186101675034, "pos_vert_variance": 0.04219305142760277}}, "errors": []}
{"timestamp": "2025-12-28T10:37:00.868708Z", "telemetry": {"lat": 28.7531991, "lon": 77.1178096, "satellites": 11, "altitude_gps_m": 213.05999755859375, "groundspeed_mps": 0.18084178864955902}, "flight": {"mode": "STABILIZE", "armed": false}, "ekf": {"attitude": {"roll": -0.031280677765607834, "pitch": -0.002760474104434252, "yaw": 3.047213554382324}, "local_position": {"x": 12.880512237548828, "y": -6.134332180023193, "z": -4.139586925506592}, "status": {"flags": 33599, "velocity_variance": 0.10386641323566437, "pos_horiz_variance": 0.02393805794417858, "pos_vert_variance": 0.0232292078435421}}, "errors": []}
{"timestamp": "2025-12-28T10:37:01.868345Z", "telemetry": {"lat": 28.7531973, "lon": 77.1178075, "satellites": 11, "altitude_gps_m": 213.0800018310547, "groundspeed_mps": 0.16503797471523285}, "flight": {"mode": "STABILIZE", "armed": false}, "ekf": {"attitude": {"roll": -0.03083309903740883, "pitch": -0.0037590009160339832, "yaw": 3.0470058917999268}, "local_position": {"x": 13.028769493103027, "y": -6.313693046569824, "z": -4.139433860778809}, "status": {"flags": 33599, "velocity_variance": 0.20705777406692505, "pos_horiz_variance": 0.016632990911602974, "pos_vert_variance": 0.034305065870285034}}, "errors": ["PreArm: Hardware safety switch", "PreArm: Internal errors 0x100000 l:66 flow_of_ctrl"]}
{"timestamp": "2025-12-28T10:37:02.868010Z", "telemetry": {"lat": 28.7531964, "lon": 77.1178074, "satellites": 11, "altitude_gps_m": 212.97999572753906, "groundspeed_mps": 0.13582879304885864}, "flight": {"mode": "STABILIZE", "armed": false}, "ekf": {"attitude": {"roll": -0.0311087928712368, "pitch": -0.004391086753457785, "yaw": 3.046786308288574}, "local_position": {"x": 12.970754623413086, "y": -6.478107929229736, "z": -4.05613899230957}, "status": {"flags": 33599, "velocity_variance": 0.24559630453586578, "pos_horiz_variance": 0.013386932201683521, "pos_vert_variance": 0.057191722095012665}}, "errors": ["PreArm: Hardware safety switch", "PreArm: Internal errors 0x100000 l:66 flow_of_ctrl"]}
{"timestamp": "2025-12-28T10:37:03.868093Z", "telemetry": {"lat": 28.7531943, "lon": 77.1178072, "satellites": 11, "altitude_gps_m": 213.05999755859375, "groundspeed_mps": 0.09352172911167145}, "flight": {"mode": "STABILIZE", "armed": false}, "ekf": {"attitude": {"roll": -0.03103005513548851, "pitch": -0.005630913656204939, "yaw": 3.0467288494110107}, "local_position": {"x": 12.887468338012695, "y": -6.505794048309326, "z": -4.13869571685791}, "status": {"flags": 33599, "velocity_variance": 0.31315380334854126, "pos_horiz_variance": 0.009528077207505703, "pos_vert_variance": 0.025881940498948097}}, "errors": ["PreArm: Hardware safety switch", "PreArm: Internal errors 0x100000 l:66 flow_of_ctrl"]}
{"timestamp": "2025-12-28T10:37:04.868161Z", "telemetry": {"lat": 28.7531994, "lon": 77.1178071, "satellites": 11, "altitude_gps_m": 213.05999755859375, "groundspeed_mps": 0.12565721571445465}, "flight": {"mode": "STABILIZE", "armed": false}, "ekf": {"attitude": {"roll": -0.03110911324620247, "pitch": -0.004345666151493788, "yaw": 3.0466830730438232}, "local_position": {"x": 13.105208396911621, "y": -6.575798988342285, "z": -4.121686935424805}, "status": {"flags": 33599, "velocity_variance": 0.41968631744384766, "pos_horiz_variance": 0.01603507623076439, "pos_vert_variance": 0.0021611640695482492}}, "errors": ["PreArm: Hardware safety switch", "PreArm: Internal errors 0x100000 l:66 flow_of_ctrl"]}
{"timestamp": "2025-12-28T10:37:05.868140Z", "telemetry": {"lat": 28.7532078, "lon": 77.1178096, "satellites": 11, "altitude_gps_m": 213.17999267578125, "groundspeed_mps": 0.20605801045894623}, "flight": {"mode": "STABILIZE", "armed": false}, "ekf": {"attitude": {"roll": -0.031206224113702774, "pitch": -0.0031205774284899235, "yaw": 3.0467028617858887}, "local_position": {"x": 13.7418212890625, "y": -6.568922996520996, "z": -4.253397464752197}, "status": {"flags": 33599, "velocity_variance": 0.2636643052101135, "pos_horiz_variance": 0.024807034060359, "pos_vert_variance": 0.001957991160452366}}, "errors": ["PreArm: Hardware safety switch", "PreArm: Internal errors 0x100000 l:66 flow_of_ctrl"]}
{"timestamp": "2025-12-28T10:37:06.870617Z", "telemetry": {"lat": 28.7532149, "lon": 77.117807, "satellites": 11, "altitude_gps_m": 213.22000122070312, "groundspeed_mps": 0.33569157123565674}, "flight": {"mode": "STABILIZE", "armed": false}, "ekf": {"attitude": {"roll": -0.031123701483011246, "pitch": -0.001686764881014824, "yaw": 3.0466301441192627}, "local_position": {"x": 14.472826957702637, "y": -6.6742844581604, "z": -4.300723075866699}, "status": {"flags": 33599, "velocity_variance": 0.32428014278411865, "pos_horiz_variance": 0.027457643300294876, "pos_vert_variance": 0.011557312682271004}}, "errors": ["PreArm: Hardware safety switch", "PreArm: Internal errors 0x100000 l:66 flow_of_ctrl"]}
{"timestamp": "2025-12-28T10:37:07.868327Z", "telemetry": {"lat": 28.7532189, "lon": 77.1178074, "satellites": 10, "altitude_gps_m": 213.37998962402344, "groundspeed_mps": 0.3864510953426361}, "flight": {"mode": "STABILIZE", "armed": false}, "ekf": {"attitude": {"roll": -0.030967023223638535, "pitch": -0.0017277211882174015, "yaw": 3.046651601791382}, "local_position": {"x": 15.044443130493164, "y": -6.744435787200928, "z": -4.460789680480957}, "status": {"flags": 33599, "velocity_variance": 0.16470564901828766, "pos_horiz_variance": 0.025519639253616333, "pos_vert_variance": 0.031903885304927826}}, "errors": ["PreArm: Hardware safety switch", "PreArm: Internal errors 0x100000 l:66 flow_of_ctrl"]}
{"timestamp": "2025-12-28T10:37:08.868767Z", "telemetry": {"lat": 28.7532247, "lon": 77.1178056, "satellites": 10, "altitude_gps_m": 213.34999084472656, "groundspeed_mps": 0.47360703349113464}, "flight": {"mode": "STABILIZE", "armed": false}, "ekf": {"attitude": {"roll": -0.031167004257440567, "pitch": -0.0007791644893586636, "yaw": 3.046576738357544}, "local_position": {"x": 15.749467849731445, "y": -6.845348358154297, "z": -4.428068161010742}, "status": {"flags": 33599, "velocity_variance": 0.03669949620962143, "pos_horiz_variance": 0.02381100505590439, "pos_vert_variance": 0.05012472718954086}}, "errors": ["PreArm: Hardware safety switch", "PreArm: Internal errors 0x100000 l:66 flow_of_ctrl"]}
{"timestamp": "2025-12-28T10:37:09.868232Z", "telemetry": {"lat": 28.7532265, "lon": 77.1178062, "satellites": 10, "altitude_gps_m": 213.26998901367188, "groundspeed_mps": 0.48635387420654297}, "flight": {"mode": "STABILIZE", "armed": false}, "ekf": {"attitude": {"roll": -0.031485941261053085, "pitch": -0.0012521427124738693, "yaw": 3.0465447902679443}, "local_position": {"x": 16.25681495666504, "y": -6.889235019683838, "z": -4.342014312744141}, "status": {"flags": 33599, "velocity_variance": 0.07659031450748444, "pos_horiz_variance": 0.017123784869909286, "pos_vert_variance": 0.004523030482232571}}, "errors": ["PreArm: Hardware safety switch", "PreArm: Internal errors 0x100000 l:66 flow_of_ctrl"]}
{"timestamp": "2025-12-28T10:37:10.868364Z", "telemetry": {"lat": 28.7532282, "lon": 77.117806, "satellites": 10, "altitude_gps_m": 213.22000122070312, "groundspeed_mps": 0.4752451479434967}, "flight": {"mode": "STABILIZE", "armed": false}, "ekf": {"attitude": {"roll": -0.03182340785861015, "pitch": -0.0016937456093728542, "yaw": 3.046396255493164}, "local_position": {"x": 16.58906364440918, "y": -6.8764328956604, "z": -4.306107997894287}, "status": {"flags": 33599, "velocity_variance": 0.102411188185215, "pos_horiz_variance": 0.012737847864627838, "pos_vert_variance": 0.05602399259805679}}, "errors": ["PreArm: Hardware safety switch", "PreArm: Internal errors 0x100000 l:66 flow_of_ctrl"]}
{"timestamp": "2025-12-28T10:37:11.868005Z", "telemetry": {"lat": 28.7532306, "lon": 77.1178049, "satellites": 10, "altitude_gps_m": 213.17999267578125, "groundspeed_mps": 0.4476730227470398}, "flight": {"mode": "STABILIZE", "armed": false}, "ekf": {"attitude": {"roll": -0.032082077115774155, "pitch": -0.00252022547647357, "yaw": 3.0462863445281982}, "local_position": {"x": 17.025737762451172, "y": -6.946081161499023, "z": -4.257224082946777}, "status": {"flags": 33599, "velocity_variance": 0.30521589517593384, "pos_horiz_variance": 0.007604485843330622, "pos_vert_variance": 0.015246660448610783}}, "errors": ["PreArm: Hardware safety switch", "PreArm: Internal errors 0x100000 l:66 flow_of_ctrl"]}
{"timestamp": "2025-12-28T10:37:12.868315Z", "telemetry": {"lat": 28.7532322, "lon": 77.1178037, "satellites": 10, "altitude_gps_m": 213.1699981689453, "groundspeed_mps": 0.39664381742477417}, "flight": {"mode": "STABILIZE", "armed": false}, "ekf": {"attitude": {"roll": -0.032308030873537064, "pitch": -0.003552996087819338, "yaw": 3.046207904815674}, "local_position": {"x": 17.28572654724121, "y": -6.950063705444336, "z": -4.244035243988037}, "status": {"flags": 33599, "velocity_variance": 0.0886445865035057, "pos_horiz_variance": 0.0058229295536875725, "pos_vert_variance": 0.043843597173690796}}, "errors": ["PreArm: Hardware safety switch", "PreArm: Internal errors 0x100000 l:66 flow_of_ctrl"]}
{"timestamp": "2025-12-28T10:37:13.868404Z", "telemetry": {"lat": 28.7532352, "lon": 77.1178047, "satellites": 11, "altitude_gps_m": 213.17999267578125, "groundspeed_mps": 0.3098447620868683}, "flight": {"mode": "STABILIZE", "armed": false}, "ekf": {"attitude": {"roll": -0.03241449221968651, "pitch": -0.004860956687480211, "yaw": 3.046264886856079}, "local_position": {"x": 17.39834213256836, "y": -6.947683334350586, "z": -4.261149883270264}, "status": {"flags": 33599, "velocity_variance": 0.5532767176628113, "pos_horiz_variance": 0.011712749488651752, "pos_vert_variance": 0.028336938470602036}}, "errors": ["PreArm: Hardware safety switch", "PreArm: Internal errors 0x100000 l:66 flow_of_ctrl"]}
{"timestamp": "2025-12-28T10:37:14.867904Z", "telemetry": {"lat": 28.7532544, "lon": 77.1178044, "satellites": 11, "altitude_gps_m": 213.2899932861328, "groundspeed_mps": 0.516801655292511}, "flight": {"mode": "STABILIZE", "armed": false}, "ekf": {"attitude": {"roll": -0.032231878489255905, "pitch": -0.0017973468638956547, "yaw": 3.046198844909668}, "local_position": {"x": 18.517940521240234, "y": -7.008804798126221, "z": -4.3659796714782715}, "status": {"flags": 33599, "velocity_variance": 0.4266054928302765, "pos_horiz_variance": 0.0356937013566494, "pos_vert_variance": 0.02409413456916809}}, "errors": ["PreArm: Hardware safety switch", "PreArm: Internal errors 0x100000 l:66 flow_of_ctrl"]}
{"timestamp": "2025-12-28T10:37:15.873322Z", "telemetry": {"lat": 28.7532707, "lon": 77.1178044, "satellites": 10, "altitude_gps_m": 213.27999877929688, "groundspeed_mps": 0.7578727602958679}, "flight": {"mode": "STABILIZE", "armed": false}, "ekf": {"attitude": {"roll": -0.03256126120686531, "pitch": 0.0006785504519939423, "yaw": 3.0462186336517334}, "local_position": {"x": 19.993236541748047, "y": -7.007290363311768, "z": -4.354761600494385}, "status": {"flags": 33599, "velocity_variance": 0.33991193771362305, "pos_horiz_variance": 0.04663041979074478, "pos_vert_variance": 0.02150687761604786}}, "errors": ["PreArm: Hardware safety switch", "PreArm: Internal errors 0x100000 l:66 flow_of_ctrl"]}
{"timestamp": "2025-12-28T10:37:16.873024Z", "telemetry": {"lat": 28.7532865, "lon": 77.1178018, "satellites": 10, "altitude_gps_m": 213.3300018310547, "groundspeed_mps": 0.9745006561279297}, "flight": {"mode": "STABILIZE", "armed": false}, "ekf": {"attitude": {"roll": -0.03235158696770668, "pitch": 0.002683531027287245, "yaw": 3.0461809635162354}, "local_position": {"x": 21.583887100219727, "y": -7.088576316833496, "z": -4.4076690673828125}, "status": {"flags": 33599, "velocity_variance": 0.20045088231563568, "pos_horiz_variance": 0.05223352834582329, "pos_vert_variance": 0.03339830040931702}}, "errors": ["PreArm: Hardware safety switch", "PreArm: Internal errors 0x100000 l:66 flow_of_ctrl"]}
{"timestamp": "2025-12-28T10:37:17.870500Z", "telemetry": {"lat": 28.7533052, "lon": 77.1177992, "satellites": 10, "altitude_gps_m": 213.38999938964844, "groundspeed_mps": 1.2192490100860596}, "flight": {"mode": "STABILIZE", "armed": false}, "ekf": {"attitude": {"roll": -0.03241424635052681, "pitch": 0.004987905267626047, "yaw": 3.0462253093719482}, "local_position": {"x": 23.441431045532227, "y": -7.177652835845947, "z": -4.464981555938721}, "status": {"flags": 33599, "velocity_variance": 0.5273184180259705, "pos_horiz_variance": 0.059084124863147736, "pos_vert_variance": 0.08536311984062195}}, "errors": ["PreArm: Hardware safety switch", "PreArm: Internal errors 0x100000 l:66 flow_of_ctrl"]}
{"timestamp": "2025-12-28T10:37:18.867897Z", "telemetry": {"lat": 28.7533287, "lon": 77.1177956, "satellites": 10, "altitude_gps_m": 213.36000061035156, "groundspeed_mps": 1.5449087619781494}, "flight": {"mode": "STABILIZE", "armed": false}, "ekf": {"attitude": {"roll": -0.03232402727007866, "pitch": 0.008205832913517952, "yaw": 3.0460948944091797}, "local_position": {"x": 25.786785125732422, "y": -7.3740386962890625, "z": -4.435425281524658}, "status": {"flags": 33599, "velocity_variance": 0.6351284384727478, "pos_horiz_variance": 0.06744392961263657, "pos_vert_variance": 0.0656314268708229}}, "errors": ["PreArm: Hardware safety switch", "PreArm: Internal errors 0x100000 l:66 flow_of_ctrl"]}
{"timestamp": "2025-12-28T10:37:19.868901Z", "telemetry": {"lat": 28.753344, "lon": 77.1177929, "satellites": 9, "altitude_gps_m": 213.47000122070312, "groundspeed_mps": 1.824097990989685}, "flight": {"mode": "STABILIZE", "armed": false}, "ekf": {"attitude": {"roll": -0.03208973631262779, "pitch": 0.009878892451524734, "yaw": 3.046116352081299}, "local_position": {"x": 28.244985580444336, "y": -7.641669750213623, "z": -4.541014194488525}, "status": {"flags": 33599, "velocity_variance": 0.5573553442955017, "pos_horiz_variance": 0.05056320130825043, "pos_vert_variance": 0.024966638535261154}}, "errors": ["PreArm: Hardware safety switch", "PreArm: Internal errors 0x100000 l:66 flow_of_ctrl"]}
{"timestamp": "2025-12-28T10:37:20.868705Z", "telemetry": {"lat": 28.7533381, "lon": 77.1177937, "satellites": 9, "altitude_gps_m": 213.4199981689453, "groundspeed_mps": 1.6852216720581055}, "flight": {"mode": "STABILIZE", "armed": false}, "ekf": {"attitude": {"roll": -0.03215200826525688, "pitch": 0.0055611710995435715, "yaw": 3.0461018085479736}, "local_position": {"x": 29.314607620239258, "y": -7.813385486602783, "z": -4.490905284881592}, "status": {"flags": 33599, "velocity_variance": 0.5332496762275696, "pos_horiz_variance": 0.009495503269135952, "pos_vert_variance": 0.08333945274353027}}, "errors": ["PreArm: Hardware safety switch", "PreArm: Internal errors 0x100000 l:66 flow_of_ctrl"]}
{"timestamp": "2025-12-28T10:37:21.868168Z", "telemetry": {"lat": 28.7533342, "lon": 77.1177928, "satellites": 10, "altitude_gps_m": 213.36000061035156, "groundspeed_mps": 1.4463574886322021}, "flight": {"mode": "STABILIZE", "armed": false}, "ekf": {"attitude": {"roll": -0.031969811767339706, "pitch": 0.0012644301168620586, "yaw": 3.0462119579315186}, "local_position": {"x": 29.81848907470703, "y": -8.004746437072754, "z": -4.435218334197998}, "status": {"flags": 33599, "velocity_variance": 0.6339455246925354, "pos_horiz_variance": 0.01839119754731655, "pos_vert_variance": 0.047329943627119064}}, "errors": ["PreArm: Hardware safety switch", "PreArm: Internal errors 0x100000 l:66 flow_of_ctrl"]}
{"timestamp": "2025-12-28T10:37:22.868056Z", "telemetry": {"lat": 28.753326, "lon": 77.1177979, "satellites": 10, "altitude_gps_m": 213.4199981689453, "groundspeed_mps": 1.005691409111023}, "flight": {"mode": "STABILIZE", "armed": false}, "ekf": {"attitude": {"roll": -0.032832589000463486, "pitch": -0.0050734407268464565, "yaw": 3.0463995933532715}, "local_position": {"x": 29.454383850097656, "y": -7.793115615844727, "z": -4.4919538497924805}, "status": {"flags": 33599, "velocity_variance": 0.2887060344219208, "pos_horiz_variance": 0.03490230441093445, "pos_vert_variance": 0.010942786931991577}}, "errors": ["PreArm: Hardware safety switch", "PreArm: Internal errors 0x100000 l:66 flow_of_ctrl"]}
{"timestamp": "2025-12-28T10:37:23.868461Z", "telemetry": {"lat": 28.7533185, "lon": 77.1178025, "satellites": 10, "altitude_gps_m": 213.3199920654297, "groundspeed_mps": 0.632449746131897}, "flight": {"mode": "STABILIZE", "armed": false}, "ekf": {"attitude": {"roll": -0.03368891403079033, "pitch": -0.009825121611356735, "yaw": 3.046475648880005}, "local_position": {"x": 28.960783004760742, "y": -7.5447492599487305, "z": -4.390570163726807}, "status": {"flags": 33599, "velocity_variance": 0.2200029194355011, "pos_horiz_variance": 0.047939762473106384, "pos_vert_variance": 0.08571583777666092}}, "errors": ["PreArm: Hardware safety switch", "PreArm: Internal errors 0x100000 l:66 flow_of_ctrl"]}
{"timestamp": "2025-12-28T10:37:24.868167Z", "telemetry": {"lat": 28.7533114, "lon": 77.1178064, "satellites": 10, "altitude_gps_m": 213.1599884033203, "groundspeed_mps": 0.37188729643821716}, "flight": {"mode": "STABILIZE", "armed": false}, "ekf": {"attitude": {"roll": -0.03482731059193611, "pitch": -0.013475408777594566, "yaw": 3.0468175411224365}, "local_position": {"x": 28.464860916137695, "y": -7.110337257385254, "z": -4.233372211456299}, "status": {"flags": 33599, "velocity_variance": 0.34348201751708984, "pos_horiz_variance": 0.05719756335020065, "pos_vert_variance": 0.009428082033991814}}, "errors": ["PreArm: Hardware safety switch", "PreArm: Internal errors 0x100000 l:66 flow_of_ctrl"]}
{"timestamp": "2025-12-28T10:37:25.868580Z", "telemetry": {"lat": 28.7533032, "lon": 77.1178095, "satellites": 10, "altitude_gps_m": 213.04998779296875, "groundspeed_mps": 0.25888827443122864}, "flight": {"mode": "STABILIZE", "armed": false}, "ekf": {"attitude": {"roll": -0.03550751134753227, "pitch": -0.016833428293466568, "yaw": 3.0472257137298584}, "local_position": {"x": 27.68483543395996, "y": -6.738990783691406, "z": -4.125002384185791}, "status": {"flags": 33599, "velocity_variance": 0.2673110067844391, "pos_horiz_variance": 0.06197942793369293, "pos_vert_variance": 0.023241957649588585}}, "errors": ["PreArm: Hardware safety switch", "PreArm: Internal errors 0x100000 l:66 flow_of_ctrl"]}
{"timestamp": "2025-12-28T10:37:26.874562Z", "telemetry": {"lat": 28.7532987, "lon": 77.1178115, "satellites": 9, "altitude_gps_m": 212.95999145507812, "groundspeed_mps": 0.41813525557518005}, "flight": {"mode": "STABILIZE", "armed": false}, "ekf": {"attitude": {"roll": -0.035750750452280045, "pitch": -0.018750447779893875, "yaw": 3.047374725341797}, "local_position": {"x": 26.853193283081055, "y": -6.333425521850586, "z": -4.0357184410095215}, "status": {"flags": 33599, "velocity_variance": 0.28155088424682617, "pos_horiz_variance": 0.05433613061904907, "pos_vert_variance": 0.07079238444566727}}, "errors": ["PreArm: Hardware safety switch", "PreArm: Internal errors 0x100000 l:66 flow_of_ctrl"]}
{"timestamp": "2025-12-28T10:37:27.870178Z", "telemetry": {"lat": 28.7532974, "lon": 77.1178091, "satellites": 8, "altitude_gps_m": 212.95999145507812, "groundspeed_mps": 0.47615113854408264}, "flight": {"mode": "STABILIZE", "armed": false}, "ekf": {"attitude": {"roll": -0.03492105379700661, "pitch": -0.018695056438446045, "yaw": 3.047557830810547}, "local_position": {"x": 26.41963768005371, "y": -6.185575485229492, "z": -4.036656379699707}, "status": {"flags": 33599, "velocity_variance": 0.36331620812416077, "pos_horiz_variance": 0.04681342467665672, "pos_vert_variance": 0.02611456625163555}}, "errors": ["PreArm: Hardware safety switch", "PreArm: Internal errors 0x100000 l:66 flow_of_ctrl"]}
{"timestamp": "2025-12-28T10:37:28.868698Z", "telemetry": {"lat": 28.7532935, "lon": 77.1178088, "satellites": 8, "altitude_gps_m": 212.989990234375, "groundspeed_mps": 0.5774970650672913}, "flight": {"mode": "STABILIZE", "armed": false}, "ekf": {"attitude": {"roll": -0.03425023332238197, "pitch": -0.01911647990345955, "yaw": 3.0477771759033203}, "local_position": {"x": 25.7913818359375, "y": -6.0768141746521, "z": -4.064998149871826}, "status": {"flags": 33599, "velocity_variance": 0.2717066705226898, "pos_horiz_variance": 0.04242686554789543, "pos_vert_variance": 0.06198188662528992}}, "errors": ["PreArm: Hardware safety switch", "PreArm: Internal errors 0x100000 l:66 flow_of_ctrl"]}
{"timestamp": "2025-12-28T10:37:29.868837Z", "telemetry": {"lat": 28.7532922, "lon": 77.1178084, "satellites": 8, "altitude_gps_m": 212.97999572753906, "groundspeed_mps": 0.6412438154220581}, "flight": {"mode": "STABILIZE", "armed": false}, "ekf": {"attitude": {"roll": -0.033485349267721176, "pitch": -0.018557358533143997, "yaw": 3.047809362411499}, "local_position": {"x": 25.335369110107422, "y": -6.037437915802002, "z": -4.062019348144531}, "status": {"flags": 33599, "velocity_variance": 0.28962236642837524, "pos_horiz_variance": 0.03330840915441513, "pos_vert_variance": 0.012273397296667099}}, "errors": ["PreArm: Hardware safety switch", "PreArm: Internal errors 0x100000 l:66 flow_of_ctrl"]}
{"timestamp": "2025-12-28T10:37:30.868499Z", "telemetry": {"lat": 28.753286, "lon": 77.1178075, "satellites": 8, "altitude_gps_m": 213.0800018310547, "groundspeed_mps": 0.755013644695282}, "flight": {"mode": "STABILIZE", "armed": false}, "ekf": {"attitude": {"roll": -0.03252539411187172, "pitch": -0.019121604040265083, "yaw": 3.0479891300201416}, "local_position": {"x": 24.437225341796875, "y": -6.033143520355225, "z": -4.157377243041992}, "status": {"flags": 33599, "velocity_variance": 0.34492796659469604, "pos_horiz_variance": 0.03137868642807007, "pos_vert_variance": 0.027734849601984024}}, "errors": ["PreArm: Hardware safety switch", "PreArm: Internal errors 0x100000 l:66 flow_of_ctrl"]}
{"timestamp": "2025-12-28T10:37:31.868346Z", "telemetry": {"lat": 28.7532778, "lon": 77.1178066, "satellites": 8, "altitude_gps_m": 213.0399932861328, "groundspeed_mps": 0.8950451612472534}, "flight": {"mode": "STABILIZE", "armed": false}, "ekf": {"attitude": {"roll": -0.03190946206450462, "pitch": -0.01965254917740822, "yaw": 3.048217535018921}, "local_position": {"x": 23.471158981323242, "y": -6.0851874351501465, "z": -4.112199306488037}, "status": {"flags": 33599, "velocity_variance": 0.3069090247154236, "pos_horiz_variance": 0.03067351132631302, "pos_vert_variance": 0.08615525811910629}}, "errors": ["PreArm: Hardware safety switch", "PreArm: Internal errors 0x100000 l:66 flow_of_ctrl"]}
{"timestamp": "2025-12-28T10:37:32.868761Z", "telemetry": {"lat": 28.7532731, "lon": 77.1178063, "satellites": 8, "altitude_gps_m": 213.12998962402344, "groundspeed_mps": 0.9800661206245422}, "flight": {"mode": "STABILIZE", "armed": false}, "ekf": {"attitude": {"roll": -0.030990440398454666, "pitch": -0.018530692905187607, "yaw": 3.0481679439544678}, "local_position": {"x": 22.633501052856445, "y": -6.171454429626465, "z": -4.196934700012207}, "status": {"flags": 33599, "velocity_variance": 0.14985959231853485, "pos_horiz_variance": 0.02537999302148819, "pos_vert_variance": 0.0030521901790052652}}, "errors": ["PreArm: Hardware safety switch", "PreArm: Internal errors 0x100000 l:66 flow_of_ctrl", "PreArm: Hardware safety switch", "PreArm: Internal errors 0x100000 l:66 flow_of_ctrl"]}
{"timestamp": "2025-12-28T10:37:33.868406Z", "telemetry": {"lat": 28.7532696, "lon": 77.1178065, "satellites": 8, "altitude_gps_m": 213.19000244140625, "groundspeed_mps": 0.9739327430725098}, "flight": {"mode": "STABILIZE", "armed": false}, "ekf": {"attitude": {"roll": -0.03061622753739357, "pitch": -0.01718761771917343, "yaw": 3.0481550693511963}, "local_position": {"x": 21.932769775390625, "y": -6.247978687286377, "z": -4.2617998123168945}, "status": {"flags": 33599, "velocity_variance": 0.32026225328445435, "pos_horiz_variance": 0.01754489727318287, "pos_vert_variance": 0.005705512594431639}}, "errors": ["PreArm: Hardware safety switch", "PreArm: Internal errors 0x100000 l:66 flow_of_ctrl", "PreArm: Hardware safety switch", "PreArm: Internal errors 0x100000 l:66 flow_of_ctrl"]}
{"timestamp": "2025-12-28T10:37:34.868261Z", "telemetry": {"lat": 28.7532635, "lon": 77.1178097, "satellites": 8, "altitude_gps_m": 213.1999969482422, "groundspeed_mps": 0.9861761927604675}, "flight": {"mode": "STABILIZE", "armed": false}, "ekf": {"attitude": {"roll": -0.03077353909611702, "pitch": -0.01632774993777275, "yaw": 3.048088788986206}, "local_position": {"x": 21.240331649780273, "y": -6.203334331512451, "z": -4.278541564941406}, "status": {"flags": 33599, "velocity_variance": 0.14939314126968384, "pos_horiz_variance": 0.013078568503260612, "pos_vert_variance": 0.011363821104168892}}, "errors": ["PreArm: Hardware safety switch", "PreArm: Internal errors 0x100000 l:66 flow_of_ctrl", "PreArm: Hardware safety switch", "PreArm: Internal errors 0x100000 l:66 flow_of_ctrl"]}
{"timestamp": "2025-12-28T10:37:35.868189Z", "telemetry": {"lat": 28.7532583, "lon": 77.1178108, "satellites": 9, "altitude_gps_m": 213.11000061035156, "groundspeed_mps": 0.9865397214889526}, "flight": {"mode": "STABILIZE", "armed": false}, "ekf": {"attitude": {"roll": -0.031128671020269394, "pitch": -0.014065245166420937, "yaw": 3.048095703125}, "local_position": {"x": 20.4298038482666, "y": -6.120229244232178, "z": -4.193552017211914}, "status": {"flags": 33599, "velocity_variance": 0.27467647194862366, "pos_horiz_variance": 0.007761603686958551, "pos_vert_variance": 0.024248307570815086}}, "errors": ["PreArm: Hardware safety switch", "PreArm: Internal errors 0x100000 l:66 flow_of_ctrl", "PreArm: Hardware safety switch", "PreArm: Internal errors 0x100000 l:66 flow_of_ctrl"]}
{"timestamp": "2025-12-28T10:37:36.874576Z", "telemetry": {"lat": 28.7532556, "lon": 77.1178096, "satellites": 8, "altitude_gps_m": 213.08999633789062, "groundspeed_mps": 0.9039911031723022}, "flight": {"mode": "STABILIZE", "armed": false}, "ekf": {"attitude": {"roll": -0.031009826809167862, "pitch": -0.012226402759552002, "yaw": 3.048121452331543}, "local_position": {"x": 20.04899024963379, "y": -6.126914978027344, "z": -4.165358066558838}, "status": {"flags": 33599, "velocity_variance": 0.1555078774690628, "pos_horiz_variance": 0.008500998839735985, "pos_vert_variance": 0.006716769188642502}}, "errors": ["PreArm: Hardware safety switch", "PreArm: Internal errors 0x100000 l:66 flow_of_ctrl", "PreArm: Hardware safety switch", "PreArm: Internal errors 0x100000 l:66 flow_of_ctrl"]}
{"timestamp": "2025-12-28T10:37:37.874288Z", "telemetry": {"lat": 28.7532533, "lon": 77.1178087, "satellites": 9, "altitude_gps_m": 213.05999755859375, "groundspeed_mps": 0.8265244364738464}, "flight": {"mode": "STABILIZE", "armed": false}, "ekf": {"attitude": {"roll": -0.030756037682294846, "pitch": -0.009973840788006783, "yaw": 3.0481553077697754}, "local_position": {"x": 19.59612464904785, "y": -6.134040832519531, "z": -4.132104873657227}, "status": {"flags": 33599, "velocity_variance": 0.254172146320343, "pos_horiz_variance": 0.009367546066641808, "pos_vert_variance": 0.018854612484574318}}, "errors": ["PreArm: Hardware safety switch", "PreArm: Internal errors 0x100000 l:66 flow_of_ctrl", "PreArm: Hardware safety switch", "PreArm: Internal errors 0x100000 l:66 flow_of_ctrl"]}
{"timestamp": "2025-12-28T10:37:38.870401Z", "telemetry": {"lat": 28.7532527, "lon": 77.1178048, "satellites": 10, "altitude_gps_m": 213.0699920654297, "groundspeed_mps": 0.662797749042511}, "flight": {"mode": "STABILIZE", "armed": false}, "ekf": {"attitude": {"roll": -0.030057210475206375, "pitch": -0.007064520847052336, "yaw": 3.0480599403381348}, "local_position": {"x": 19.47525978088379, "y": -6.358612060546875, "z": -4.141419887542725}, "status": {"flags": 33599, "velocity_variance": 0.23406025767326355, "pos_horiz_variance": 0.013795082457363605, "pos_vert_variance": 0.007408080156892538}}, "errors": ["PreArm: Hardware safety switch", "PreArm: Internal errors 0x100000 l:66 flow_of_ctrl", "PreArm: Hardware safety switch", "PreArm: Internal errors 0x100000 l:66 flow_of_ctrl"]}
{"timestamp": "2025-12-28T10:37:39.868410Z", "telemetry": {"lat": 28.7532475, "lon": 77.1177978, "satellites": 11, "altitude_gps_m": 213.0800018310547, "groundspeed_mps": 0.552939772605896}, "flight": {"mode": "STABILIZE", "armed": false}, "ekf": {"attitude": {"roll": -0.029527340084314346, "pitch": -0.005010935012251139, "yaw": 3.048093318939209}, "local_position": {"x": 19.270858764648438, "y": -6.643993377685547, "z": -4.150792121887207}, "status": {"flags": 33599, "velocity_variance": 0.26075688004493713, "pos_horiz_variance": 0.023256642743945122, "pos_vert_variance": 0.02874525636434555}}, "errors": ["PreArm: Hardware safety switch", "PreArm: Internal errors 0x100000 l:66 flow_of_ctrl", "PreArm: Hardware safety switch", "PreArm: Internal errors 0x100000 l:66 flow_of_ctrl"]}
{"timestamp": "2025-12-28T10:37:40.868369Z", "telemetry": {"lat": 28.7532409, "lon": 77.1177943, "satellites": 11, "altitude_gps_m": 213.0399932861328, "groundspeed_mps": 0.5045887231826782}, "flight": {"mode": "STABILIZE", "armed": false}, "ekf": {"attitude": {"roll": -0.02932712808251381, "pitch": -0.0039526973851025105, "yaw": 3.0479400157928467}, "local_position": {"x": 18.892038345336914, "y": -6.979359149932861, "z": -4.109145164489746}, "status": {"flags": 33599, "velocity_variance": 0.14497920870780945, "pos_horiz_variance": 0.026496773585677147, "pos_vert_variance": 0.04707169905304909}}, "errors": ["PreArm: Hardware safety switch", "PreArm: Internal errors 0x100000 l:66 flow_of_ctrl", "PreArm: Hardware safety switch", "PreArm: Internal errors 0x100000 l:66 flow_of_ctrl"]}
{"timestamp": "2025-12-28T10:37:41.870428Z", "telemetry": {"lat": 28.7532344, "lon": 77.1177903, "satellites": 11, "altitude_gps_m": 213.02999877929688, "groundspeed_mps": 0.5071581602096558}, "flight": {"mode": "STABILIZE", "armed": false}, "ekf": {"attitude": {"roll": -0.0290825255215168, "pitch": -0.0034224954433739185, "yaw": 3.0479331016540527}, "local_position": {"x": 18.319215774536133, "y": -7.323378562927246, "z": -4.10067892074585}, "status": {"flags": 33599, "velocity_variance": 0.19769592583179474, "pos_horiz_variance": 0.029661256819963455, "pos_vert_variance": 0.05388510599732399}}, "errors": ["PreArm: Hardware safety switch", "PreArm: Internal errors 0x100000 l:66 flow_of_ctrl", "PreArm: Hardware safety switch", "PreArm: Internal errors 0x100000 l:66 flow_of_ctrl"]}
{"timestamp": "2025-12-28T10:37:42.868370Z", "telemetry": {"lat": 28.7532311, "lon": 77.1177871, "satellites": 11, "altitude_gps_m": 212.9499969482422, "groundspeed_mps": 0.4572005569934845}, "flight": {"mode": "STABILIZE", "armed": false}, "ekf": {"attitude": {"roll": -0.02925395593047142, "pitch": -0.001820108387619257, "yaw": 3.047961950302124}, "local_position": {"x": 17.958742141723633, "y": -7.720487594604492, "z": -4.026664733886719}, "status": {"flags": 33599, "velocity_variance": 0.3888545632362366, "pos_horiz_variance": 0.028354061767458916, "pos_vert_variance": 0.004707743879407644}}, "errors": ["PreArm: Hardware safety switch", "PreArm: Internal errors 0x100000 l:66 flow_of_ctrl", "PreArm: Hardware safety switch", "PreArm: Internal errors 0x100000 l:66 flow_of_ctrl"]}
{"timestamp": "2025-12-28T10:37:43.867918Z", "telemetry": {"lat": 28.753227, "lon": 77.1177881, "satellites": 11, "altitude_gps_m": 212.95999145507812, "groundspeed_mps": 0.3804878294467926}, "flight": {"mode": "STABILIZE", "armed": false}, "ekf": {"attitude": {"roll": -0.029865991324186325, "pitch": -0.0010015727020800114, "yaw": 3.0479331016540527}, "local_position": {"x": 17.647306442260742, "y": -7.896749019622803, "z": -4.031046390533447}, "status": {"flags": 33599, "velocity_variance": 0.07811197638511658, "pos_horiz_variance": 0.025894692167639732, "pos_vert_variance": 0.06135023757815361}}, "errors": ["PreArm: Hardware safety switch", "PreArm: Internal errors 0x100000 l:66 flow_of_ctrl", "PreArm: Hardware safety switch", "PreArm: Internal errors 0x100000 l:66 flow_of_ctrl"]}
{"timestamp": "2025-12-28T10:37:44.868009Z", "telemetry": {"lat": 28.7532231, "lon": 77.1177824, "satellites": 11, "altitude_gps_m": 212.89999389648438, "groundspeed_mps": 0.4049457907676697}, "flight": {"mode": "STABILIZE", "armed": false}, "ekf": {"attitude": {"roll": -0.029911015182733536, "pitch": -0.000742682721465826, "yaw": 3.047804832458496}, "local_position": {"x": 17.045909881591797, "y": -8.211261749267578, "z": -3.9757308959960938}, "status": {"flags": 33599, "velocity_variance": 0.2569975256919861, "pos_horiz_variance": 0.027292538434267044, "pos_vert_variance": 0.06937700510025024}}, "errors": ["PreArm: Hardware safety switch", "PreArm: Internal errors 0x100000 l:66 flow_of_ctrl", "PreArm: Hardware safety switch", "PreArm: Internal errors 0x100000 l:66 flow_of_ctrl"]}
{"timestamp": "2025-12-28T10:37:45.868110Z", "telemetry": {"lat": 28.7532242, "lon": 77.1177792, "satellites": 10, "altitude_gps_m": 212.84999084472656, "groundspeed_mps": 0.38384974002838135}, "flight": {"mode": "STABILIZE", "armed": false}, "ekf": {"attitude": {"roll": -0.029669012874364853, "pitch": 0.0007343064062297344, "yaw": 3.04779314994812}, "local_position": {"x": 16.87225914001465, "y": -8.770137786865234, "z": -3.9243013858795166}, "status": {"flags": 33599, "velocity_variance": 0.16676980257034302, "pos_horiz_variance": 0.01924327202141285, "pos_vert_variance": 0.06743793934583664}}, "errors": ["PreArm: Hardware safety switch", "PreArm: Internal errors 0x100000 l:66 flow_of_ctrl", "PreArm: Hardware safety switch", "PreArm: Internal errors 0x100000 l:66 flow_of_ctrl"]}
{"timestamp": "2025-12-28T10:37:46.868075Z", "telemetry": {"lat": 28.7532286, "lon": 77.1177771, "satellites": 11, "altitude_gps_m": 212.89999389648438, "groundspeed_mps": 0.35085123777389526}, "flight": {"mode": "STABILIZE", "armed": false}, "ekf": {"attitude": {"roll": -0.029804568737745285, "pitch": 0.002852634759619832, "yaw": 3.047823905944824}, "local_position": {"x": 17.091279983520508, "y": -9.200207710266113, "z": -3.975473642349243}, "status": {"flags": 33599, "velocity_variance": 0.34016022086143494, "pos_horiz_variance": 0.012052461504936218, "pos_vert_variance": 0.09163578599691391}}, "errors": ["PreArm: Hardware safety switch", "PreArm: Internal errors 0x100000 l:66 flow_of_ctrl", "PreArm: Hardware safety switch", "PreArm: Internal errors 0x100000 l:66 flow_of_ctrl"]}
{"timestamp": "2025-12-28T10:37:47.873727Z", "telemetry": {"lat": 28.753225, "lon": 77.1177769, "satellites": 9, "altitude_gps_m": 212.989990234375, "groundspeed_mps": 0.32815611362457275}, "flight": {"mode": "STABILIZE", "armed": false}, "ekf": {"attitude": {"roll": -0.030257750302553177, "pitch": 0.0022496620658785105, "yaw": 3.0478076934814453}, "local_position": {"x": 16.8682804107666, "y": -9.431233406066895, "z": -4.0630388259887695}, "status": {"flags": 33599, "velocity_variance": 0.17444133758544922, "pos_horiz_variance": 0.008236958645284176, "pos_vert_variance": 0.05962837487459183}}, "errors": ["PreArm: Hardware safety switch", "PreArm: Internal errors 0x100000 l:66 flow_of_ctrl", "PreArm: Hardware safety switch", "PreArm: Internal errors 0x100000 l:66 flow_of_ctrl"]}
{"timestamp": "2025-12-28T10:37:48.870264Z", "telemetry": {"lat": 28.7532272, "lon": 77.1177792, "satellites": 9, "altitude_gps_m": 213.01998901367188, "groundspeed_mps": 0.272962361574173}, "flight": {"mode": "STABILIZE", "armed": false}, "ekf": {"attitude": {"roll": -0.03124118223786354, "pitch": 0.0027090541552752256, "yaw": 3.0477850437164307}, "local_position": {"x": 16.846378326416016, "y": -9.511269569396973, "z": -4.098993301391602}, "status": {"flags": 33599, "velocity_variance": 0.24154850840568542, "pos_horiz_variance": 0.0014947428135201335, "pos_vert_variance": 0.0793471559882164}}, "errors": ["PreArm: Hardware safety switch", "PreArm: Internal errors 0x100000 l:66 flow_of_ctrl", "PreArm: Hardware safety switch", "PreArm: Internal errors 0x100000 l:66 flow_of_ctrl"]}
{"timestamp": "2025-12-28T10:37:49.869813Z", "telemetry": {"lat": 28.7532285, "lon": 77.1177822, "satellites": 10, "altitude_gps_m": 213.14999389648438, "groundspeed_mps": 0.2367672324180603}, "flight": {"mode": "STABILIZE", "armed": false}, "ekf": {"attitude": {"roll": -0.03201000764966011, "pitch": 0.0027240184135735035, "yaw": 3.0477864742279053}, "local_position": {"x": 16.847827911376953, "y": -9.514744758605957, "z": -4.230249404907227}, "status": {"flags": 33599, "velocity_variance": 0.1583148092031479, "pos_horiz_variance": 0.009752233512699604, "pos_vert_variance": 0.036170266568660736}}, "errors": ["PreArm: Hardware safety switch", "PreArm: Internal errors 0x100000 l:66 flow_of_ctrl", "PreArm: Hardware safety switch", "PreArm: Internal errors 0x100000 l:66 flow_of_ctrl"]}
{"timestamp": "2025-12-28T10:37:50.868058Z", "telemetry": {"lat": 28.7532253, "lon": 77.117786, "satellites": 10, "altitude_gps_m": 213.20999145507812, "groundspeed_mps": 0.17500565946102142}, "flight": {"mode": "STABILIZE", "armed": false}, "ekf": {"attitude": {"roll": -0.03332306817173958, "pitch": 0.0020365044474601746, "yaw": 3.0478625297546387}, "local_position": {"x": 16.841352462768555, "y": -9.358366012573242, "z": -4.288563251495361}, "status": {"flags": 33599, "velocity_variance": 0.3425263464450836, "pos_horiz_variance": 0.01512179896235466, "pos_vert_variance": 0.031744543462991714}}, "errors": ["PreArm: Hardware safety switch", "PreArm: Internal errors 0x100000 l:66 flow_of_ctrl", "PreArm: Hardware safety switch", "PreArm: Internal errors 0x100000 l:66 flow_of_ctrl"]}
{"timestamp": "2025-12-28T10:37:51.868755Z", "telemetry": {"lat": 28.7532224, "lon": 77.1177893, "satellites": 10, "altitude_gps_m": 213.20999145507812, "groundspeed_mps": 0.07837264239788055}, "flight": {"mode": "STABILIZE", "armed": false}, "ekf": {"attitude": {"roll": -0.03511364385485649, "pitch": 0.0009181322529911995, "yaw": 3.047952651977539}, "local_position": {"x": 16.607789993286133, "y": -8.964190483093262, "z": -4.285278797149658}, "status": {"flags": 33599, "velocity_variance": 0.17169851064682007, "pos_horiz_variance": 0.015481078065931797, "pos_vert_variance": 0.04122762009501457}}, "errors": ["PreArm: Hardware safety switch", "PreArm: Internal errors 0x100000 l:66 flow_of_ctrl", "PreArm: Hardware safety switch", "PreArm: Internal errors 0x100000 l:66 flow_of_ctrl"]}
{"timestamp": "2025-12-28T10:37:52.867913Z", "telemetry": {"lat": 28.7532232, "lon": 77.117789, "satellites": 11, "altitude_gps_m": 213.17999267578125, "groundspeed_mps": 0.1628531515598297}, "flight": {"mode": "STABILIZE", "armed": false}, "ekf": {"attitude": {"roll": -0.035826895385980606, "pitch": 0.001393579412251711, "yaw": 3.0480031967163086}, "local_position": {"x": 16.71852684020996, "y": -8.762702941894531, "z": -4.249391078948975}, "status": {"flags": 33599, "velocity_variance": 0.16083723306655884, "pos_horiz_variance": 0.011706697754561901, "pos_vert_variance": 0.0583333894610405}}, "errors": ["PreArm: Hardware safety switch", "PreArm: Internal errors 0x100000 l:66 flow_of_ctrl", "PreArm: Hardware safety switch", "PreArm: Internal errors 0x100000 l:66 flow_of_ctrl"]}
{"timestamp": "2025-12-28T10:37:53.868553Z", "telemetry": {"lat": 28.7532256, "lon": 77.1177916, "satellites": 11, "altitude_gps_m": 213.1599884033203, "groundspeed_mps": 0.22586733102798462}, "flight": {"mode": "STABILIZE", "armed": false}, "ekf": {"attitude": {"roll": -0.03634702041745186, "pitch": 0.0012998986057937145, "yaw": 3.047922134399414}, "local_position": {"x": 16.725244522094727, "y": -8.613079071044922, "z": -4.221452713012695}, "status": {"flags": 33599, "velocity_variance": 0.18501171469688416, "pos_horiz_variance": 0.011030465364456177, "pos_vert_variance": 0.007141849957406521}}, "errors": ["PreArm: Hardware safety switch", "PreArm: Internal errors 0x100000 l:66 flow_of_ctrl", "PreArm: Hardware safety switch", "PreArm: Internal errors 0x100000 l:66 flow_of_ctrl"]}
{"timestamp": "2025-12-28T10:37:54.868891Z", "telemetry": {"lat": 28.7532294, "lon": 77.117787, "satellites": 11, "altitude_gps_m": 213.14999389648438, "groundspeed_mps": 0.34898996353149414}, "flight": {"mode": "STABILIZE", "armed": false}, "ekf": {"attitude": {"roll": -0.035713400691747665, "pitch": 0.00289992056787014, "yaw": 3.0478076934814453}, "local_position": {"x": 17.142305374145508, "y": -8.570719718933105, "z": -4.255463123321533}, "status": {"flags": 33599, "velocity_variance": 0.24022987484931946, "pos_horiz_variance": 6.080746607040055e-05, "pos_vert_variance": 0.009785685688257217}}, "errors": ["PreArm: Hardware safety switch", "PreArm: Internal errors 0x100000 l:66 flow_of_ctrl", "PreArm: Hardware safety switch", "PreArm: Internal errors 0x100000 l:66 flow_of_ctrl"]}
{"timestamp": "2025-12-28T10:37:55.867998Z", "telemetry": {"lat": 28.7532317, "lon": 77.1177904, "satellites": 12, "altitude_gps_m": 213.09999084472656, "groundspeed_mps": 0.3819751441478729}, "flight": {"mode": "STABILIZE", "armed": false}, "ekf": {"attitude": {"roll": -0.036514561623334885, "pitch": 0.002121747937053442, "yaw": 3.047889471054077}, "local_position": {"x": 17.43094825744629, "y": -8.467889785766602, "z": -4.17213773727417}, "status": {"flags": 33599, "velocity_variance": 0.16057763993740082, "pos_horiz_variance": 0.003879522206261754, "pos_vert_variance": 0.020570620894432068}}, "errors": ["PreArm: Hardware safety switch", "PreArm: Internal errors 0x100000 l:66 flow_of_ctrl", "PreArm: Hardware safety switch", "PreArm: Internal errors 0x100000 l:66 flow_of_ctrl"]}
{"timestamp": "2025-12-28T10:37:56.868777Z", "telemetry": {"lat": 28.7532329, "lon": 77.1177961, "satellites": 12, "altitude_gps_m": 213.04998779296875, "groundspeed_mps": 0.40223428606987}, "flight": {"mode": "STABILIZE", "armed": false}, "ekf": {"attitude": {"roll": -0.037139344960451126, "pitch": 0.0009512072429060936, "yaw": 3.04785418510437}, "local_position": {"x": 17.435726165771484, "y": -8.05553150177002, "z": -4.125205993652344}, "status": {"flags": 33599, "velocity_variance": 0.08631549030542374, "pos_horiz_variance": 0.008787334896624088, "pos_vert_variance": 0.06677224487066269}}, "errors": ["PreArm: Hardware safety switch", "PreArm: Internal errors 0x100000 l:66 flow_of_ctrl", "PreArm: Hardware safety switch", "PreArm: Internal errors 0x100000 l:66 flow_of_ctrl"]}
{"timestamp": "2025-12-28T10:37:57.867952Z", "telemetry": {"lat": 28.7532333, "lon": 77.117792, "satellites": 12, "altitude_gps_m": 213.01998901367188, "groundspeed_mps": 0.4300915002822876}, "flight": {"mode": "STABILIZE", "armed": false}, "ekf": {"attitude": {"roll": -0.03605194017291069, "pitch": 0.0009471550583839417, "yaw": 3.0479788780212402}, "local_position": {"x": 17.768272399902344, "y": -7.961578369140625, "z": -4.111180782318115}, "status": {"flags": 33599, "velocity_variance": 0.243362694978714, "pos_horiz_variance": 0.004896044731140137, "pos_vert_variance": 0.019811060279607773}}, "errors": ["PreArm: Hardware safety switch", "PreArm: Internal errors 0x100000 l:66 flow_of_ctrl", "PreArm: Hardware safety switch", "PreArm: Internal errors 0x100000 l:66 flow_of_ctrl"]}
{"timestamp": "2025-12-28T10:37:58.874855Z", "telemetry": {"lat": 28.7532355, "lon": 77.117788, "satellites": 12, "altitude_gps_m": 213.02999877929688, "groundspeed_mps": 0.4102892279624939}, "flight": {"mode": "STABILIZE", "armed": false}, "ekf": {"attitude": {"roll": -0.034826572984457016, "pitch": 0.0009761601686477661, "yaw": 3.0480434894561768}, "local_position": {"x": 17.939525604248047, "y": -8.133727073669434, "z": -4.104849815368652}, "status": {"flags": 33599, "velocity_variance": 0.14280833303928375, "pos_horiz_variance": 0.008757270872592926, "pos_vert_variance": 0.09789587557315826}}, "errors": ["PreArm: Hardware safety switch", "PreArm: Internal errors 0x100000 l:66 flow_of_ctrl", "PreArm: Hardware safety switch", "PreArm: Internal errors 0x100000 l:66 flow_of_ctrl"]}
{"timestamp": "2025-12-28T10:37:59.869656Z", "telemetry": {"lat": 28.7532426, "lon": 77.117784, "satellites": 11, "altitude_gps_m": 213.05999755859375, "groundspeed_mps": 0.4659595191478729}, "flight": {"mode": "STABILIZE", "armed": false}, "ekf": {"attitude": {"roll": -0.03351083770394325, "pitch": 0.0017289025709033012, "yaw": 3.0479440689086914}, "local_position": {"x": 18.442243576049805, "y": -8.41179370880127, "z": -4.128495216369629}, "status": {"flags": 33599, "velocity_variance": 0.2865124046802521, "pos_horiz_variance": 0.012862254865467548, "pos_vert_variance": 0.01981430873274803}}, "errors": ["PreArm: Hardware safety switch", "PreArm: Internal errors 0x100000 l:66 flow_of_ctrl", "PreArm: Hardware safety switch", "PreArm: Internal errors 0x100000 l:66 flow_of_ctrl"]}
{"timestamp": "2025-12-28T10:38:00.867910Z", "telemetry": {"lat": 28.7532447, "lon": 77.1177829, "satellites": 11, "altitude_gps_m": 213.02999877929688, "groundspeed_mps": 0.45276153087615967}, "flight": {"mode": "STABILIZE", "armed": false}, "ekf": {"attitude": {"roll": -0.03250158950686455, "pitch": 0.0005465121939778328, "yaw": 3.0479822158813477}, "local_position": {"x": 18.754804611206055, "y": -8.668641090393066, "z": -4.111533164978027}, "status": {"flags": 33599, "velocity_variance": 0.22780798375606537, "pos_horiz_variance": 0.009320583194494247, "pos_vert_variance": 0.03229907155036926}}, "errors": ["PreArm: Hardware safety switch", "PreArm: Internal errors 0x100000 l:66 flow_of_ctrl", "PreArm: Hardware safety switch", "PreArm: Internal errors 0x100000 l:66 flow_of_ctrl"]}
{"timestamp": "2025-12-28T10:38:01.868333Z", "telemetry": {"lat": 28.7532453, "lon": 77.1177864, "satellites": 11, "altitude_gps_m": 213.01998901367188, "groundspeed_mps": 0.3935171961784363}, "flight": {"mode": "STABILIZE", "armed": false}, "ekf": {"attitude": {"roll": -0.032669465988874435, "pitch": -0.0007819551974534988, "yaw": 3.047905206680298}, "local_position": {"x": 18.829120635986328, "y": -8.624381065368652, "z": -4.0983805656433105}, "status": {"flags": 33599, "velocity_variance": 0.039411760866642, "pos_horiz_variance": 0.0038371779955923557, "pos_vert_variance": 0.09227817505598068}}, "errors": ["PreArm: Hardware safety switch", "PreArm: Internal errors 0x100000 l:66 flow_of_ctrl", "PreArm: Hardware safety switch", "PreArm: Internal errors 0x100000 l:66 flow_of_ctrl"]}
