{"timestamp": "2026-01-15T12:54:35.982832Z", "telemetry": {"lat": 28.7530518, "lon": 77.1179464, "satellites": 9, "altitude_gps_m": 210.9199981689453, "groundspeed_mps": 0.029451757669448853}, "flight": {"mode": "STABILIZE", "armed": false}, "ekf": {"attitude": {"roll": 0.05193333700299263, "pitch": -0.006168235559016466, "yaw": -1.9050503969192505}, "local_position": {"x": -4.055821418762207, "y": 5.634464263916016, "z": 1.407840371131897}, "status": {"flags": 33599, "velocity_variance": 0.27831748127937317, "pos_horiz_variance": 0.008821243420243263, "pos_vert_variance": 0.00023294637503568083}}, "errors": []}
{"timestamp": "2026-01-15T12:54:36.968653Z", "telemetry": {"lat": 28.7530527, "lon": 77.117946, "satellites": 9, "altitude_gps_m": 210.9099884033203, "groundspeed_mps": 0.015472150407731533}, "flight": {"mode": "STABILIZE", "armed": false}, "ekf": {"attitude": {"roll": 0.05249469354748726, "pitch": -0.006454370450228453, "yaw": -1.905336618423462}, "local_position": {"x": -3.985649585723877, "y": 5.651090145111084, "z": 1.4192100763320923}, "status": {"flags": 33599, "velocity_variance": 0.07350564002990723, "pos_horiz_variance": 0.008150693960487843, "pos_vert_variance": 0.07347270846366882}}, "errors": []}
{"timestamp": "2026-01-15T12:54:37.988703Z", "telemetry": {"lat": 28.7530538, "lon": 77.1179428, "satellites": 9, "altitude_gps_m": 210.8699951171875, "groundspeed_mps": 0.06761019676923752}, "flight": {"mode": "STABILIZE", "armed": false}, "ekf": {"attitude": {"roll": 0.053134702146053314, "pitch": -0.007100291084498167, "yaw": -1.9056370258331299}, "local_position": {"x": -3.9466021060943604, "y": 5.551539421081543, "z": 1.4543933868408203}, "status": {"flags": 33599, "velocity_variance": 0.08208531886339188, "pos_horiz_variance": 0.0019936650060117245, "pos_vert_variance": 0.05392619967460632}}, "errors": []}
{"timestamp": "2026-01-15T12:54:38.990804Z", "telemetry": {"lat": 28.753054, "lon": 77.117941, "satellites": 9, "altitude_gps_m": 210.87998962402344, "groundspeed_mps": 0.26708006858825684}, "flight": {"mode": "STABILIZE", "armed": false}, "ekf": {"attitude": {"roll": 0.055139776319265366, "pitch": -0.008222784847021103, "yaw": -1.9061814546585083}, "local_position": {"x": -3.837937831878662, "y": 5.3711628913879395, "z": 1.446031928062439}, "status": {"flags": 33599, "velocity_variance": 0.13390998542308807, "pos_horiz_variance": 0.002601073822006583, "pos_vert_variance": 0.033118296414613724}}, "errors": []}
{"timestamp": "2026-01-15T12:54:39.997024Z", "telemetry": {"lat": 28.7530587, "lon": 77.1179297, "satellites": 9, "altitude_gps_m": 210.88999938964844, "groundspeed_mps": 0.42608582973480225}, "flight": {"mode": "STABILIZE", "armed": false}, "ekf": {"attitude": {"roll": 0.05640808865427971, "pitch": -0.009696012362837791, "yaw": -1.9064557552337646}, "local_position": {"x": -3.2300028800964355, "y": 4.518949508666992, "z": 1.4374091625213623}, "status": {"flags": 33599, "velocity_variance": 0.0815989077091217, "pos_horiz_variance": 0.007158368825912476, "pos_vert_variance": 0.005507415626198053}}, "errors": []}
{"timestamp": "2026-01-15T12:54:41.020904Z", "telemetry": {"lat": 28.7530602, "lon": 77.1179271, "satellites": 9, "altitude_gps_m": 210.8699951171875, "groundspeed_mps": 0.5067230463027954}, "flight": {"mode": "STABILIZE", "armed": false}, "ekf": {"attitude": {"roll": 0.05686560645699501, "pitch": -0.009765295311808586, "yaw": -1.9068446159362793}, "local_position": {"x": -3.016954183578491, "y": 4.124088764190674, "z": 1.4559648036956787}, "status": {"flags": 33599, "velocity_variance": 0.1315099000930786, "pos_horiz_variance": 0.006584162823855877, "pos_vert_variance": 0.018223125487565994}}, "errors": []}
{"timestamp": "2026-01-15T12:54:42.004914Z", "telemetry": {"lat": 28.7530607, "lon": 77.1179251, "satellites": 9, "altitude_gps_m": 210.75, "groundspeed_mps": 0.5515884160995483}, "flight": {"mode": "STABILIZE", "armed": false}, "ekf": {"attitude": {"roll": 0.056533683091402054, "pitch": -0.01006581261754036, "yaw": -1.9071928262710571}, "local_position": {"x": -2.9141597747802734, "y": 3.7637887001037598, "z": 1.5758028030395508}, "status": {"flags": 33599, "velocity_variance": 0.2225162237882614, "pos_horiz_variance": 0.00637135049328208, "pos_vert_variance": 0.06937174499034882}}, "errors": []}
{"timestamp": "2026-01-15T12:54:42.994792Z", "telemetry": {"lat": 28.7530606, "lon": 77.1179249, "satellites": 9, "altitude_gps_m": 211.22000122070312, "groundspeed_mps": 0.5076420903205872}, "flight": {"mode": "STABILIZE", "armed": false}, "ekf": {"attitude": {"roll": 0.05467825010418892, "pitch": -0.00955921970307827, "yaw": -1.9076836109161377}, "local_position": {"x": -2.8770909309387207, "y": 3.602349281311035, "z": 1.0459222793579102}, "status": {"flags": 831, "velocity_variance": 0.11277811229228973, "pos_horiz_variance": 0.008247633464634418, "pos_vert_variance": 0.0}}, "errors": ["Glitch cleared"]}
{"timestamp": "2026-01-15T12:54:43.998330Z", "telemetry": {"lat": 28.7530596, "lon": 77.1179246, "satellites": 9, "altitude_gps_m": 211.14999389648438, "groundspeed_mps": 0.47301599383354187}, "flight": {"mode": "STABILIZE", "armed": false}, "ekf": {"attitude": {"roll": 0.05400872230529785, "pitch": -0.009139325469732285, "yaw": -1.9079704284667969}, "local_position": {"x": -2.9187047481536865, "y": 3.306870698928833, "z": 1.1718870401382446}, "status": {"flags": 831, "velocity_variance": 0.09239289909601212, "pos_horiz_variance": 0.015080956742167473, "pos_vert_variance": 0.004033577162772417}}, "errors": ["Glitch cleared"]}
{"timestamp": "2026-01-15T12:54:44.994108Z", "telemetry": {"lat": 28.7530586, "lon": 77.1179237, "satellites": 9, "altitude_gps_m": 211.02999877929688, "groundspeed_mps": 0.44742023944854736}, "flight": {"mode": "STABILIZE", "armed": false}, "ekf": {"attitude": {"roll": 0.0526314377784729, "pitch": -0.008923133835196495, "yaw": -1.9082437753677368}, "local_position": {"x": -2.9479820728302, "y": 3.065821647644043, "z": 1.2707122564315796}, "status": {"flags": 831, "velocity_variance": 0.09283765405416489, "pos_horiz_variance": 0.019035704433918, "pos_vert_variance": 0.005839774385094643}}, "errors": ["Glitch cleared"]}
{"timestamp": "2026-01-15T12:54:45.995048Z", "telemetry": {"lat": 28.7530541, "lon": 77.117933, "satellites": 9, "altitude_gps_m": 210.9199981689453, "groundspeed_mps": 0.3288505971431732}, "flight": {"mode": "STABILIZE", "armed": false}, "ekf": {"attitude": {"roll": 0.05019316449761391, "pitch": -0.007562446873635054, "yaw": -1.9084738492965698}, "local_position": {"x": -3.1982240676879883, "y": 3.071615695953369, "z": 1.389288067817688}, "status": {"flags": 831, "velocity_variance": 0.3392939567565918, "pos_horiz_variance": 0.041369616985321045, "pos_vert_variance": 0.013362230733036995}}, "errors": ["Glitch cleared"]}
{"timestamp": "2026-01-15T12:54:47.000917Z", "telemetry": {"lat": 28.7530522, "lon": 77.1179396, "satellites": 9, "altitude_gps_m": 210.88999938964844, "groundspeed_mps": 0.18855874240398407}, "flight": {"mode": "STABILIZE", "armed": false}, "ekf": {"attitude": {"roll": 0.048950862139463425, "pitch": -0.005815644282847643, "yaw": -1.9087389707565308}, "local_position": {"x": -3.5418643951416016, "y": 3.5343027114868164, "z": 1.438094973564148}, "status": {"flags": 831, "velocity_variance": 0.09438277035951614, "pos_horiz_variance": 0.04574606195092201, "pos_vert_variance": 0.020228752866387367}}, "errors": ["Glitch cleared"]}
{"timestamp": "2026-01-15T12:54:47.996731Z", "telemetry": {"lat": 28.7530509, "lon": 77.1179438, "satellites": 9, "altitude_gps_m": 210.9199981689453, "groundspeed_mps": 0.10141231119632721}, "flight": {"mode": "STABILIZE", "armed": false}, "ekf": {"attitude": {"roll": 0.048061124980449677, "pitch": -0.004422142636030912, "yaw": -1.9089159965515137}, "local_position": {"x": -3.7206239700317383, "y": 3.94199275970459, "z": 1.407555103302002}, "status": {"flags": 831, "velocity_variance": 0.12268117815256119, "pos_horiz_variance": 0.04675083979964256, "pos_vert_variance": 0.025708800181746483}}, "errors": ["Glitch cleared"]}
{"timestamp": "2026-01-15T12:54:48.996986Z", "telemetry": {"lat": 28.7530493, "lon": 77.11795, "satellites": 8, "altitude_gps_m": 211.0, "groundspeed_mps": 0.17027761042118073}, "flight": {"mode": "STABILIZE", "armed": false}, "ekf": {"attitude": {"roll": 0.04674430564045906, "pitch": -0.0025312937796115875, "yaw": -1.9089277982711792}, "local_position": {"x": -3.9749345779418945, "y": 4.577110767364502, "z": 1.3234437704086304}, "status": {"flags": 831, "velocity_variance": 0.10912683606147766, "pos_horiz_variance": 0.046120114624500275, "pos_vert_variance": 0.026434950530529022}}, "errors": ["Glitch cleared"]}
{"timestamp": "2026-01-15T12:54:49.996723Z", "telemetry": {"lat": 28.7530513, "lon": 77.1179508, "satellites": 8, "altitude_gps_m": 211.239990234375, "groundspeed_mps": 0.24180443584918976}, "flight": {"mode": "STABILIZE", "armed": false}, "ekf": {"attitude": {"roll": 0.047367632389068604, "pitch": -0.0016359006986021996, "yaw": -1.909197449684143}, "local_position": {"x": -4.052811622619629, "y": 5.102389812469482, "z": 1.1382882595062256}, "status": {"flags": 831, "velocity_variance": 0.17040811479091644, "pos_horiz_variance": 0.034410834312438965, "pos_vert_variance": 0.033696144819259644}}, "errors": ["Glitch cleared"]}
{"timestamp": "2026-01-15T12:54:50.990528Z", "telemetry": {"lat": 28.7530499, "lon": 77.1179505, "satellites": 7, "altitude_gps_m": 211.3699951171875, "groundspeed_mps": 0.2762225270271301}, "flight": {"mode": "STABILIZE", "armed": false}, "ekf": {"attitude": {"roll": 0.04688667133450508, "pitch": -0.0018791663460433483, "yaw": -1.9092280864715576}, "local_position": {"x": -4.199047088623047, "y": 5.397185325622559, "z": 0.9493608474731445}, "status": {"flags": 831, "velocity_variance": 0.06384874880313873, "pos_horiz_variance": 0.025862179696559906, "pos_vert_variance": 0.029799051582813263}}, "errors": ["Glitch cleared", "PreArm: Hardware safety switch", "PreArm: Compasses inconsistent"]}
{"timestamp": "2026-01-15T12:54:51.994755Z", "telemetry": {"lat": 28.7530471, "lon": 77.1179482, "satellites": 8, "altitude_gps_m": 211.50999450683594, "groundspeed_mps": 0.349659264087677}, "flight": {"mode": "STABILIZE", "armed": false}, "ekf": {"attitude": {"roll": 0.046461038291454315, "pitch": -0.0014833342283964157, "yaw": -1.9093017578125}, "local_position": {"x": -4.473387241363525, "y": 5.779326915740967, "z": 0.8125418424606323}, "status": {"flags": 831, "velocity_variance": 0.0673956647515297, "pos_horiz_variance": 0.012677202932536602, "pos_vert_variance": 0.009928088635206223}}, "errors": ["Glitch cleared", "PreArm: Hardware safety switch", "PreArm: Compasses inconsistent"]}
{"timestamp": "2026-01-15T12:54:53.016623Z", "telemetry": {"lat": 28.753044, "lon": 77.1179396, "satellites": 8, "altitude_gps_m": 211.5, "groundspeed_mps": 0.39275455474853516}, "flight": {"mode": "STABILIZE", "armed": false}, "ekf": {"attitude": {"roll": 0.046422503888607025, "pitch": -0.0016203275881707668, "yaw": -1.9094157218933105}, "local_position": {"x": -4.6971025466918945, "y": 6.036240100860596, "z": 0.825263261795044}, "status": {"flags": 831, "velocity_variance": 0.09859772026538849, "pos_horiz_variance": 0.017093442380428314, "pos_vert_variance": 0.02647988498210907}}, "errors": ["Glitch cleared", "PreArm: Hardware safety switch", "PreArm: Compasses inconsistent"]}
{"timestamp": "2026-01-15T12:54:54.016581Z", "telemetry": {"lat": 28.7530441, "lon": 77.1179259, "satellites": 8, "altitude_gps_m": 211.3699951171875, "groundspeed_mps": 0.3181290626525879}, "flight": {"mode": "STABILIZE", "armed": false}, "ekf": {"attitude": {"roll": 0.04743712767958641, "pitch": -0.002692930866032839, "yaw": -1.9094940423965454}, "local_position": {"x": -4.802340030670166, "y": 5.831151962280273, "z": 0.9524768590927124}, "status": {"flags": 831, "velocity_variance": 0.09590371698141098, "pos_horiz_variance": 0.040071967989206314, "pos_vert_variance": 0.05851256102323532}}, "errors": ["Glitch cleared", "PreArm: Hardware safety switch", "PreArm: Compasses inconsistent"]}
{"timestamp": "2026-01-15T12:54:55.000578Z", "telemetry": {"lat": 28.7530457, "lon": 77.1179132, "satellites": 8, "altitude_gps_m": 211.05999755859375, "groundspeed_mps": 0.20073048770427704}, "flight": {"mode": "STABILIZE", "armed": false}, "ekf": {"attitude": {"roll": 0.048885978758335114, "pitch": -0.003474367316812277, "yaw": -1.9097634553909302}, "local_position": {"x": -4.763213634490967, "y": 5.380282878875732, "z": 1.2656155824661255}, "status": {"flags": 831, "velocity_variance": 0.07599644362926483, "pos_horiz_variance": 0.05793381482362747, "pos_vert_variance": 0.08952199667692184}}, "errors": ["Glitch cleared", "PreArm: Hardware safety switch", "PreArm: Compasses inconsistent"]}
{"timestamp": "2026-01-15T12:54:56.004955Z", "telemetry": {"lat": 28.7530444, "lon": 77.1179072, "satellites": 8, "altitude_gps_m": 211.239990234375, "groundspeed_mps": 0.1543014794588089}, "flight": {"mode": "STABILIZE", "armed": false}, "ekf": {"attitude": {"roll": 0.04901217669248581, "pitch": -0.004144091624766588, "yaw": -1.909899115562439}, "local_position": {"x": -4.876163482666016, "y": 4.92377233505249, "z": 1.0906256437301636}, "status": {"flags": 33599, "velocity_variance": 0.06684836000204086, "pos_horiz_variance": 0.06186036765575409, "pos_vert_variance": 0.001586471451446414}}, "errors": ["Glitch cleared", "PreArm: Hardware safety switch", "PreArm: Compasses inconsistent", "GPS Glitch or Compass error"]}
{"timestamp": "2026-01-15T12:54:57.004572Z", "telemetry": {"lat": 28.7530464, "lon": 77.1179076, "satellites": 9, "altitude_gps_m": 211.22999572753906, "groundspeed_mps": 0.08800188452005386}, "flight": {"mode": "STABILIZE", "armed": false}, "ekf": {"attitude": {"roll": 0.05030512437224388, "pitch": -0.004670612048357725, "yaw": -1.9099950790405273}, "local_position": {"x": -4.865286827087402, "y": 4.380771160125732, "z": 1.0962157249450684}, "status": {"flags": 33599, "velocity_variance": 0.22974371910095215, "pos_horiz_variance": 0.04985559731721878, "pos_vert_variance": 0.026818769052624702}}, "errors": ["Glitch cleared", "PreArm: Hardware safety switch", "PreArm: Compasses inconsistent", "GPS Glitch or Compass error"]}
{"timestamp": "2026-01-15T12:54:57.978562Z", "telemetry": {"lat": 28.7530474, "lon": 77.1179078, "satellites": 9, "altitude_gps_m": 211.29998779296875, "groundspeed_mps": 0.10760046541690826}, "flight": {"mode": "STABILIZE", "armed": false}, "ekf": {"attitude": {"roll": 0.05111026018857956, "pitch": -0.005218107718974352, "yaw": -1.910261869430542}, "local_position": {"x": -4.7524614334106445, "y": 3.819038152694702, "z": 1.025071382522583}, "status": {"flags": 33599, "velocity_variance": 0.021419966593384743, "pos_horiz_variance": 0.037490569055080414, "pos_vert_variance": 0.07986486703157425}}, "errors": ["Glitch cleared", "PreArm: Hardware safety switch", "PreArm: Compasses inconsistent", "GPS Glitch or Compass error"]}
{"timestamp": "2026-01-15T12:54:58.981173Z", "telemetry": {"lat": 28.7530452, "lon": 77.1179113, "satellites": 9, "altitude_gps_m": 211.22999572753906, "groundspeed_mps": 0.12932159006595612}, "flight": {"mode": "STABILIZE", "armed": false}, "ekf": {"attitude": {"roll": 0.0502205491065979, "pitch": -0.005018746014684439, "yaw": -1.9104377031326294}, "local_position": {"x": -4.921022415161133, "y": 3.548471450805664, "z": 1.0950422286987305}, "status": {"flags": 33599, "velocity_variance": 0.13738122582435608, "pos_horiz_variance": 0.024634994566440582, "pos_vert_variance": 0.037702757865190506}}, "errors": ["Glitch cleared", "PreArm: Hardware safety switch", "PreArm: Compasses inconsistent", "GPS Glitch or Compass error"]}
{"timestamp": "2026-01-15T12:54:59.979531Z", "telemetry": {"lat": 28.7530462, "lon": 77.11791, "satellites": 9, "altitude_gps_m": 211.12998962402344, "groundspeed_mps": 0.1526031494140625}, "flight": {"mode": "STABILIZE", "armed": false}, "ekf": {"attitude": {"roll": 0.050818540155887604, "pitch": -0.005415665451437235, "yaw": -1.9106221199035645}, "local_position": {"x": -4.976407527923584, "y": 3.2401740550994873, "z": 1.1995311975479126}, "status": {"flags": 33599, "velocity_variance": 0.045511070638895035, "pos_horiz_variance": 0.020365795120596886, "pos_vert_variance": 0.01362388301640749}}, "errors": ["Glitch cleared", "PreArm: Hardware safety switch", "PreArm: Compasses inconsistent", "GPS Glitch or Compass error"]}
{"timestamp": "2026-01-15T12:55:00.987092Z", "telemetry": {"lat": 28.7530481, "lon": 77.11791, "satellites": 9, "altitude_gps_m": 211.08999633789062, "groundspeed_mps": 0.13004617393016815}, "flight": {"mode": "STABILIZE", "armed": false}, "ekf": {"attitude": {"roll": 0.05127047747373581, "pitch": -0.004801799077540636, "yaw": -1.910841703414917}, "local_position": {"x": -4.8416290283203125, "y": 3.067477226257324, "z": 1.2352538108825684}, "status": {"flags": 33599, "velocity_variance": 0.03452131152153015, "pos_horiz_variance": 0.017152370885014534, "pos_vert_variance": 0.009884417988359928}}, "errors": ["Glitch cleared", "PreArm: Hardware safety switch", "PreArm: Compasses inconsistent", "GPS Glitch or Compass error"]}
{"timestamp": "2026-01-15T12:55:02.008265Z", "telemetry": {"lat": 28.7530503, "lon": 77.1179121, "satellites": 9, "altitude_gps_m": 211.12998962402344, "groundspeed_mps": 0.0849633663892746}, "flight": {"mode": "STABILIZE", "armed": false}, "ekf": {"attitude": {"roll": 0.05144442245364189, "pitch": -0.003962463233619928, "yaw": -1.9109734296798706}, "local_position": {"x": -4.743960857391357, "y": 3.0460503101348877, "z": 1.2000148296356201}, "status": {"flags": 33599, "velocity_variance": 0.1973647028207779, "pos_horiz_variance": 0.014183556661009789, "pos_vert_variance": 0.008576994761824608}}, "errors": ["Glitch cleared", "PreArm: Hardware safety switch", "PreArm: Compasses inconsistent", "GPS Glitch or Compass error"]}
{"timestamp": "2026-01-15T12:55:03.008252Z", "telemetry": {"lat": 28.7530534, "lon": 77.1179095, "satellites": 9, "altitude_gps_m": 211.1599884033203, "groundspeed_mps": 0.16482357680797577}, "flight": {"mode": "STABILIZE", "armed": false}, "ekf": {"attitude": {"roll": 0.0521332286298275, "pitch": -0.004727173130959272, "yaw": -1.911263108253479}, "local_position": {"x": -4.451366901397705, "y": 2.756226062774658, "z": 1.186516523361206}, "status": {"flags": 33599, "velocity_variance": 0.10610403120517731, "pos_horiz_variance": 0.013919010758399963, "pos_vert_variance": 0.02563241310417652}}, "errors": ["Glitch cleared", "PreArm: Hardware safety switch", "PreArm: Compasses inconsistent", "GPS Glitch or Compass error"]}
{"timestamp": "2026-01-15T12:55:04.012533Z", "telemetry": {"lat": 28.7530548, "lon": 77.1179068, "satellites": 9, "altitude_gps_m": 211.17999267578125, "groundspeed_mps": 0.20423530042171478}, "flight": {"mode": "STABILIZE", "armed": false}, "ekf": {"attitude": {"roll": 0.05234530568122864, "pitch": -0.0050463187508285046, "yaw": -1.9114867448806763}, "local_position": {"x": -4.352518081665039, "y": 2.481703996658325, "z": 1.1309973001480103}, "status": {"flags": 33599, "velocity_variance": 0.02197405882179737, "pos_horiz_variance": 0.014992926269769669, "pos_vert_variance": 0.034801553934812546}}, "errors": ["Glitch cleared", "PreArm: Hardware safety switch", "PreArm: Compasses inconsistent", "GPS Glitch or Compass error"]}
{"timestamp": "2026-01-15T12:55:05.012499Z", "telemetry": {"lat": 28.7530565, "lon": 77.1179074, "satellites": 9, "altitude_gps_m": 211.17999267578125, "groundspeed_mps": 0.22218827903270721}, "flight": {"mode": "STABILIZE", "armed": false}, "ekf": {"attitude": {"roll": 0.05232809856534004, "pitch": -0.004789944272488356, "yaw": -1.9117013216018677}, "local_position": {"x": -4.071871757507324, "y": 2.2457709312438965, "z": 1.1495224237442017}, "status": {"flags": 33599, "velocity_variance": 0.17677415907382965, "pos_horiz_variance": 0.010051061399281025, "pos_vert_variance": 0.059197332710027695}}, "errors": ["Glitch cleared", "PreArm: Hardware safety switch", "PreArm: Compasses inconsistent", "GPS Glitch or Compass error"]}
{"timestamp": "2026-01-15T12:55:06.012680Z", "telemetry": {"lat": 28.7530591, "lon": 77.1179042, "satellites": 9, "altitude_gps_m": 211.1699981689453, "groundspeed_mps": 0.2779584228992462}, "flight": {"mode": "STABILIZE", "armed": false}, "ekf": {"attitude": {"roll": 0.05317553132772446, "pitch": -0.004590012598782778, "yaw": -1.9118890762329102}, "local_position": {"x": -3.8034043312072754, "y": 2.0644712448120117, "z": 1.1556148529052734}, "status": {"flags": 33599, "velocity_variance": 0.09027225524187088, "pos_horiz_variance": 0.012021838687360287, "pos_vert_variance": 0.01920376531779766}}, "errors": ["Glitch cleared", "PreArm: Hardware safety switch", "PreArm: Compasses inconsistent", "GPS Glitch or Compass error"]}
{"timestamp": "2026-01-15T12:55:06.989192Z", "telemetry": {"lat": 28.753062, "lon": 77.1179022, "satellites": 9, "altitude_gps_m": 211.1699981689453, "groundspeed_mps": 0.3168923556804657}, "flight": {"mode": "STABILIZE", "armed": false}, "ekf": {"attitude": {"roll": 0.05324998497962952, "pitch": -0.004733353387564421, "yaw": -1.9119325876235962}, "local_position": {"x": -3.4046638011932373, "y": 1.8126527070999146, "z": 1.1584466695785522}, "status": {"flags": 33599, "velocity_variance": 0.041735049337148666, "pos_horiz_variance": 0.010685321874916553, "pos_vert_variance": 0.018360940739512444}}, "errors": ["Glitch cleared", "PreArm: Hardware safety switch", "PreArm: Compasses inconsistent", "GPS Glitch or Compass error"]}
{"timestamp": "2026-01-15T12:55:07.990325Z", "telemetry": {"lat": 28.7530581, "lon": 77.1179061, "satellites": 9, "altitude_gps_m": 211.1199951171875, "groundspeed_mps": 0.22575600445270538}, "flight": {"mode": "STABILIZE", "armed": false}, "ekf": {"attitude": {"roll": 0.05119311437010765, "pitch": -0.0047688870690763, "yaw": -1.9120573997497559}, "local_position": {"x": -3.5614092350006104, "y": 1.7006114721298218, "z": 1.2071653604507446}, "status": {"flags": 33599, "velocity_variance": 0.12218505144119263, "pos_horiz_variance": 0.006660550367087126, "pos_vert_variance": 0.0015224458184093237}}, "errors": ["Glitch cleared", "PreArm: Hardware safety switch", "PreArm: Compasses inconsistent", "GPS Glitch or Compass error"]}
{"timestamp": "2026-01-15T12:55:08.993803Z", "telemetry": {"lat": 28.7530569, "lon": 77.1179067, "satellites": 9, "altitude_gps_m": 211.0800018310547, "groundspeed_mps": 0.14600667357444763}, "flight": {"mode": "STABILIZE", "armed": false}, "ekf": {"attitude": {"roll": 0.050304144620895386, "pitch": -0.004527271259576082, "yaw": -1.912061333656311}, "local_position": {"x": -3.6243879795074463, "y": 1.6937330961227417, "z": 1.245193362236023}, "status": {"flags": 33599, "velocity_variance": 0.055173370987176895, "pos_horiz_variance": 0.008022475056350231, "pos_vert_variance": 0.0035283584147691727}}, "errors": ["Glitch cleared", "PreArm: Hardware safety switch", "PreArm: Compasses inconsistent", "GPS Glitch or Compass error"]}
{"timestamp": "2026-01-15T12:55:09.994136Z", "telemetry": {"lat": 28.7530582, "lon": 77.1179108, "satellites": 9, "altitude_gps_m": 211.0800018310547, "groundspeed_mps": 0.11468631029129028}, "flight": {"mode": "STABILIZE", "armed": false}, "ekf": {"attitude": {"roll": 0.05026042088866234, "pitch": -0.003701696638017893, "yaw": -1.9120010137557983}, "local_position": {"x": -3.522836446762085, "y": 1.8414068222045898, "z": 1.2429834604263306}, "status": {"flags": 33599, "velocity_variance": 0.26433494687080383, "pos_horiz_variance": 0.014225760474801064, "pos_vert_variance": 0.059464454650878906}}, "errors": ["Glitch cleared", "PreArm: Hardware safety switch", "PreArm: Compasses inconsistent", "GPS Glitch or Compass error"]}
{"timestamp": "2026-01-15T12:55:10.994160Z", "telemetry": {"lat": 28.7530566, "lon": 77.1179152, "satellites": 9, "altitude_gps_m": 211.0800018310547, "groundspeed_mps": 0.04078220576047897}, "flight": {"mode": "STABILIZE", "armed": false}, "ekf": {"attitude": {"roll": 0.04867848753929138, "pitch": -0.0029602586291730404, "yaw": -1.9120819568634033}, "local_position": {"x": -3.6972908973693848, "y": 2.184007406234741, "z": 1.2402212619781494}, "status": {"flags": 33599, "velocity_variance": 0.1715089976787567, "pos_horiz_variance": 0.016331929713487625, "pos_vert_variance": 0.029802918434143066}}, "errors": ["Glitch cleared", "PreArm: Hardware safety switch", "PreArm: Compasses inconsistent", "GPS Glitch or Compass error"]}
{"timestamp": "2026-01-15T12:55:12.020476Z", "telemetry": {"lat": 28.7530563, "lon": 77.1179203, "satellites": 9, "altitude_gps_m": 211.1599884033203, "groundspeed_mps": 0.18274614214897156}, "flight": {"mode": "STABILIZE", "armed": false}, "ekf": {"attitude": {"roll": 0.047396838665008545, "pitch": -0.001600245013833046, "yaw": -1.9120298624038696}, "local_position": {"x": -3.737251043319702, "y": 2.5607926845550537, "z": 1.1937799453735352}, "status": {"flags": 33599, "velocity_variance": 0.13381758332252502, "pos_horiz_variance": 0.019976962357759476, "pos_vert_variance": 0.0376727432012558}}, "errors": ["Glitch cleared", "PreArm: Hardware safety switch", "PreArm: Compasses inconsistent", "GPS Glitch or Compass error"]}
{"timestamp": "2026-01-15T12:55:12.993016Z", "telemetry": {"lat": 28.753057, "lon": 77.1179281, "satellites": 9, "altitude_gps_m": 211.19000244140625, "groundspeed_mps": 0.27700749039649963}, "flight": {"mode": "STABILIZE", "armed": false}, "ekf": {"attitude": {"roll": 0.04735143110156059, "pitch": -0.0009538829326629639, "yaw": -1.912003517150879}, "local_position": {"x": -3.7993106842041016, "y": 3.1670920848846436, "z": 1.1347984075546265}, "status": {"flags": 33599, "velocity_variance": 0.22997020184993744, "pos_horiz_variance": 0.024939939379692078, "pos_vert_variance": 0.019010694697499275}}, "errors": ["Glitch cleared", "PreArm: Hardware safety switch", "PreArm: Compasses inconsistent", "GPS Glitch or Compass error"]}
{"timestamp": "2026-01-15T12:55:13.988492Z", "telemetry": {"lat": 28.7530567, "lon": 77.1179355, "satellites": 9, "altitude_gps_m": 211.25, "groundspeed_mps": 0.4151313900947571}, "flight": {"mode": "STABILIZE", "armed": false}, "ekf": {"attitude": {"roll": 0.04636288434267044, "pitch": 3.9245933294296265e-06, "yaw": -1.9118260145187378}, "local_position": {"x": -3.8593947887420654, "y": 3.878744602203369, "z": 1.0774941444396973}, "status": {"flags": 33599, "velocity_variance": 0.07240378111600876, "pos_horiz_variance": 0.025306200608611107, "pos_vert_variance": 0.016181960701942444}}, "errors": ["Glitch cleared", "PreArm: Hardware safety switch", "PreArm: Compasses inconsistent", "GPS Glitch or Compass error"]}
{"timestamp": "2026-01-15T12:55:14.997009Z", "telemetry": {"lat": 28.7530591, "lon": 77.117939, "satellites": 9, "altitude_gps_m": 211.26998901367188, "groundspeed_mps": 0.49960848689079285}, "flight": {"mode": "STABILIZE", "armed": false}, "ekf": {"attitude": {"roll": 0.04722069203853607, "pitch": 0.0007370593957602978, "yaw": -1.911872148513794}, "local_position": {"x": -3.7324726581573486, "y": 4.536625862121582, "z": 1.0565383434295654}, "status": {"flags": 33599, "velocity_variance": 0.13142512738704681, "pos_horiz_variance": 0.01947256363928318, "pos_vert_variance": 0.010653199627995491}}, "errors": ["Glitch cleared", "PreArm: Hardware safety switch", "PreArm: Compasses inconsistent", "GPS Glitch or Compass error"]}
{"timestamp": "2026-01-15T12:55:15.995491Z", "telemetry": {"lat": 28.7530631, "lon": 77.1179442, "satellites": 8, "altitude_gps_m": 211.27999877929688, "groundspeed_mps": 0.5386381149291992}, "flight": {"mode": "STABILIZE", "armed": false}, "ekf": {"attitude": {"roll": 0.04829379916191101, "pitch": 0.0009871642105281353, "yaw": -1.9117356538772583}, "local_position": {"x": -3.3929309844970703, "y": 5.05667781829834, "z": 1.04501211643219}, "status": {"flags": 33599, "velocity_variance": 0.12960714101791382, "pos_horiz_variance": 0.020178798586130142, "pos_vert_variance": 0.03892538323998451}}, "errors": ["Glitch cleared", "PreArm: Hardware safety switch", "PreArm: Compasses inconsistent", "GPS Glitch or Compass error"]}
{"timestamp": "2026-01-15T12:55:16.999582Z", "telemetry": {"lat": 28.7530655, "lon": 77.117941, "satellites": 8, "altitude_gps_m": 211.25, "groundspeed_mps": 0.5367673635482788}, "flight": {"mode": "STABILIZE", "armed": false}, "ekf": {"attitude": {"roll": 0.04887542501091957, "pitch": 0.00038191722705960274, "yaw": -1.9116430282592773}, "local_position": {"x": -3.1511261463165283, "y": 5.43320369720459, "z": 1.0733909606933594}, "status": {"flags": 33599, "velocity_variance": 0.1333926022052765, "pos_horiz_variance": 0.011907773092389107, "pos_vert_variance": 0.036874476820230484}}, "errors": ["Glitch cleared", "PreArm: Hardware safety switch", "PreArm: Compasses inconsistent", "GPS Glitch or Compass error"]}
{"timestamp": "2026-01-15T12:55:17.996429Z", "telemetry": {"lat": 28.7530656, "lon": 77.1179386, "satellites": 8, "altitude_gps_m": 211.19000244140625, "groundspeed_mps": 0.4997209310531616}, "flight": {"mode": "STABILIZE", "armed": false}, "ekf": {"attitude": {"roll": 0.049242835491895676, "pitch": -0.0009075682610273361, "yaw": -1.9115835428237915}, "local_position": {"x": -3.085752487182617, "y": 5.730095386505127, "z": 1.13468337059021}, "status": {"flags": 33599, "velocity_variance": 0.17822425067424774, "pos_horiz_variance": 0.013249162584543228, "pos_vert_variance": 0.009827597066760063}}, "errors": ["Glitch cleared", "PreArm: Hardware safety switch", "PreArm: Compasses inconsistent", "GPS Glitch or Compass error"]}
{"timestamp": "2026-01-15T12:55:18.992664Z", "telemetry": {"lat": 28.7530689, "lon": 77.1179318, "satellites": 8, "altitude_gps_m": 211.19000244140625, "groundspeed_mps": 0.4499279856681824}, "flight": {"mode": "STABILIZE", "armed": false}, "ekf": {"attitude": {"roll": 0.050112541764974594, "pitch": -0.0017227986827492714, "yaw": -1.9118088483810425}, "local_position": {"x": -2.738727331161499, "y": 5.750561237335205, "z": 1.1360468864440918}, "status": {"flags": 33599, "velocity_variance": 0.12879987061023712, "pos_horiz_variance": 0.024791503325104713, "pos_vert_variance": 0.01092273835092783}}, "errors": ["Glitch cleared", "PreArm: Hardware safety switch", "PreArm: Compasses inconsistent", "GPS Glitch or Compass error"]}
{"timestamp": "2026-01-15T12:55:19.992738Z", "telemetry": {"lat": 28.7530683, "lon": 77.1179289, "satellites": 8, "altitude_gps_m": 211.14999389648438, "groundspeed_mps": 0.37613925337791443}, "flight": {"mode": "STABILIZE", "armed": false}, "ekf": {"attitude": {"roll": 0.050202276557683945, "pitch": -0.0029295342974364758, "yaw": -1.9119046926498413}, "local_position": {"x": -2.693740129470825, "y": 5.715151309967041, "z": 1.1792253255844116}, "status": {"flags": 33599, "velocity_variance": 0.2566734552383423, "pos_horiz_variance": 0.029981112107634544, "pos_vert_variance": 0.0023578426335006952}}, "errors": ["Glitch cleared", "PreArm: Hardware safety switch", "PreArm: Compasses inconsistent", "GPS Glitch or Compass error"]}
{"timestamp": "2026-01-15T12:55:21.005572Z", "telemetry": {"lat": 28.7530684, "lon": 77.1179283, "satellites": 8, "altitude_gps_m": 211.11000061035156, "groundspeed_mps": 0.26048752665519714}, "flight": {"mode": "STABILIZE", "armed": false}, "ekf": {"attitude": {"roll": 0.05073043704032898, "pitch": -0.004824026953428984, "yaw": -1.912002682685852}, "local_position": {"x": -2.573352813720703, "y": 5.509246349334717, "z": 1.2156245708465576}, "status": {"flags": 33599, "velocity_variance": 0.08439324796199799, "pos_horiz_variance": 0.02687695622444153, "pos_vert_variance": 0.017625635489821434}}, "errors": ["Glitch cleared", "PreArm: Hardware safety switch", "PreArm: Compasses inconsistent", "GPS Glitch or Compass error", "PreArm: Hardware safety switch"]}
{"timestamp": "2026-01-15T12:55:21.968720Z", "telemetry": {"lat": 28.7530673, "lon": 77.1179267, "satellites": 9, "altitude_gps_m": 211.14999389648438, "groundspeed_mps": 0.2184450328350067}, "flight": {"mode": "STABILIZE", "armed": false}, "ekf": {"attitude": {"roll": 0.05053720250725746, "pitch": -0.005419628228992224, "yaw": -1.9120274782180786}, "local_position": {"x": -2.5388312339782715, "y": 5.424878120422363, "z": 1.1740761995315552}, "status": {"flags": 33599, "velocity_variance": 0.061158474534749985, "pos_horiz_variance": 0.028127362951636314, "pos_vert_variance": 0.07463914901018143}}, "errors": ["Glitch cleared", "PreArm: Hardware safety switch", "PreArm: Compasses inconsistent", "GPS Glitch or Compass error", "PreArm: Hardware safety switch"]}
