{"timestamp": "2025-12-28T10:33:34.809903Z", "telemetry": {"lat": 28.7532175, "lon": 77.1178062, "satellites": 9, "altitude_gps_m": 213.0399932861328, "groundspeed_mps": 0.2644914984703064}, "flight": {"mode": null, "armed": null}, "ekf": {"attitude": {"roll": -0.032358791679143906, "pitch": -0.0035904203541576862, "yaw": 3.045491933822632}, "local_position": {"x": 15.502503395080566, "y": -6.575972080230713, "z": -4.133164882659912}, "status": {"flags": 33599, "velocity_variance": 0.19129234552383423, "pos_horiz_variance": 0.008828363381326199, "pos_vert_variance": 0.023592855781316757}}, "errors": []}
{"timestamp": "2025-12-28T10:33:35.860906Z", "telemetry": {"lat": 28.7532163, "lon": 77.1178029, "satellites": 9, "altitude_gps_m": 213.00999450683594, "groundspeed_mps": 0.21686384081840515}, "flight": {"mode": "STABILIZE", "armed": false}, "ekf": {"attitude": {"roll": -0.031917136162519455, "pitch": -0.004578170832246542, "yaw": 3.0456624031066895}, "local_position": {"x": 15.659408569335938, "y": -6.640087127685547, "z": -4.080826282501221}, "status": {"flags": 33599, "velocity_variance": 0.18713149428367615, "pos_horiz_variance": 0.011259387247264385, "pos_vert_variance": 0.026133453473448753}}, "errors": []}
{"timestamp": "2025-12-28T10:33:36.868540Z", "telemetry": {"lat": 28.7532161, "lon": 77.1178013, "satellites": 9, "altitude_gps_m": 213.11000061035156, "groundspeed_mps": 0.15148544311523438}, "flight": {"mode": "STABILIZE", "armed": false}, "ekf": {"attitude": {"roll": -0.03112001344561577, "pitch": -0.005498990882188082, "yaw": 3.045603036880493}, "local_position": {"x": 15.677156448364258, "y": -6.788663864135742, "z": -4.180690765380859}, "status": {"flags": 33599, "velocity_variance": 0.241814523935318, "pos_horiz_variance": 0.011809788644313812, "pos_vert_variance": 0.03701670467853546}}, "errors": []}
{"timestamp": "2025-12-28T10:33:37.873048Z", "telemetry": {"lat": 28.7532094, "lon": 77.1177962, "satellites": 10, "altitude_gps_m": 213.14999389648438, "groundspeed_mps": 0.060920991003513336}, "flight": {"mode": "STABILIZE", "armed": false}, "ekf": {"attitude": {"roll": -0.030154068022966385, "pitch": -0.00771216070279479, "yaw": 3.0456318855285645}, "local_position": {"x": 15.380616188049316, "y": -7.042140007019043, "z": -4.226536750793457}, "status": {"flags": 33599, "velocity_variance": 0.30080485343933105, "pos_horiz_variance": 0.022937964648008347, "pos_vert_variance": 0.023829709738492966}}, "errors": []}
{"timestamp": "2025-12-28T10:33:38.869725Z", "telemetry": {"lat": 28.7532021, "lon": 77.1177872, "satellites": 10, "altitude_gps_m": 213.0399932861328, "groundspeed_mps": 0.22383654117584229}, "flight": {"mode": "STABILIZE", "armed": false}, "ekf": {"attitude": {"roll": -0.028801728039979935, "pitch": -0.009260227903723717, "yaw": 3.0455493927001953}, "local_position": {"x": 14.977666854858398, "y": -7.393928527832031, "z": -4.148078918457031}, "status": {"flags": 33599, "velocity_variance": 0.25879696011543274, "pos_horiz_variance": 0.040561944246292114, "pos_vert_variance": 0.05927571281790733}}, "errors": []}
{"timestamp": "2025-12-28T10:33:39.868096Z", "telemetry": {"lat": 28.7531937, "lon": 77.1177746, "satellites": 11, "altitude_gps_m": 213.13999938964844, "groundspeed_mps": 0.47265610098838806}, "flight": {"mode": "STABILIZE", "armed": false}, "ekf": {"attitude": {"roll": -0.02656296268105507, "pitch": -0.010961925610899925, "yaw": 3.045468807220459}, "local_position": {"x": 14.098838806152344, "y": -8.408286094665527, "z": -4.219095706939697}, "status": {"flags": 33599, "velocity_variance": 0.1973208487033844, "pos_horiz_variance": 0.04897678270936012, "pos_vert_variance": 0.003414611564949155}}, "errors": []}
{"timestamp": "2025-12-28T10:33:40.868360Z", "telemetry": {"lat": 28.7531906, "lon": 77.1177687, "satellites": 11, "altitude_gps_m": 213.20999145507812, "groundspeed_mps": 0.6301684975624084}, "flight": {"mode": "STABILIZE", "armed": false}, "ekf": {"attitude": {"roll": -0.025952357798814774, "pitch": -0.011824911460280418, "yaw": 3.0453548431396484}, "local_position": {"x": 13.432707786560059, "y": -9.14107608795166, "z": -4.281450271606445}, "status": {"flags": 33599, "velocity_variance": 0.26646944880485535, "pos_horiz_variance": 0.04303334653377533, "pos_vert_variance": 0.08560943603515625}}, "errors": []}
{"timestamp": "2025-12-28T10:33:41.868710Z", "telemetry": {"lat": 28.7531888, "lon": 77.1177647, "satellites": 11, "altitude_gps_m": 213.239990234375, "groundspeed_mps": 0.6952616572380066}, "flight": {"mode": "STABILIZE", "armed": false}, "ekf": {"attitude": {"roll": -0.026260141283273697, "pitch": -0.011835010722279549, "yaw": 3.0450189113616943}, "local_position": {"x": 13.045064926147461, "y": -9.585323333740234, "z": -4.2945451736450195}, "status": {"flags": 33599, "velocity_variance": 0.27408677339553833, "pos_horiz_variance": 0.0392286591231823, "pos_vert_variance": 0.01836283504962921}}, "errors": []}
{"timestamp": "2025-12-28T10:33:42.868454Z", "telemetry": {"lat": 28.7531853, "lon": 77.1177563, "satellites": 11, "altitude_gps_m": 213.36000061035156, "groundspeed_mps": 0.7639669179916382}, "flight": {"mode": "STABILIZE", "armed": false}, "ekf": {"attitude": {"roll": -0.02596941962838173, "pitch": -0.011469077318906784, "yaw": 3.0448615550994873}, "local_position": {"x": 12.49390983581543, "y": -10.439375877380371, "z": -4.436327934265137}, "status": {"flags": 33599, "velocity_variance": 0.128755584359169, "pos_horiz_variance": 0.03769344091415405, "pos_vert_variance": 0.05438751354813576}}, "errors": []}
{"timestamp": "2025-12-28T10:33:43.868841Z", "telemetry": {"lat": 28.7531839, "lon": 77.1177504, "satellites": 11, "altitude_gps_m": 213.30999755859375, "groundspeed_mps": 0.8005333542823792}, "flight": {"mode": "STABILIZE", "armed": false}, "ekf": {"attitude": {"roll": -0.026252802461385727, "pitch": -0.0106270220130682, "yaw": 3.0446970462799072}, "local_position": {"x": 12.163433074951172, "y": -10.989800453186035, "z": -4.396702766418457}, "status": {"flags": 33599, "velocity_variance": 0.1683870553970337, "pos_horiz_variance": 0.03262452408671379, "pos_vert_variance": 0.030458223074674606}}, "errors": []}
{"timestamp": "2025-12-28T10:33:44.868466Z", "telemetry": {"lat": 28.7531814, "lon": 77.1177432, "satellites": 11, "altitude_gps_m": 213.29998779296875, "groundspeed_mps": 0.8384878635406494}, "flight": {"mode": "STABILIZE", "armed": false}, "ekf": {"attitude": {"roll": -0.026191893965005875, "pitch": -0.01026730053126812, "yaw": 3.0444722175598145}, "local_position": {"x": 11.80207347869873, "y": -11.70257568359375, "z": -4.361496448516846}, "status": {"flags": 33599, "velocity_variance": 0.20360276103019714, "pos_horiz_variance": 0.03180772811174393, "pos_vert_variance": 0.020250745117664337}}, "errors": []}
{"timestamp": "2025-12-28T10:33:45.868618Z", "telemetry": {"lat": 28.7531769, "lon": 77.1177341, "satellites": 11, "altitude_gps_m": 213.25999450683594, "groundspeed_mps": 0.9040746092796326}, "flight": {"mode": "STABILIZE", "armed": false}, "ekf": {"attitude": {"roll": -0.02644532546401024, "pitch": -0.010116536170244217, "yaw": 3.0443243980407715}, "local_position": {"x": 11.17015552520752, "y": -12.751194953918457, "z": -4.335513114929199}, "status": {"flags": 33599, "velocity_variance": 0.24053657054901123, "pos_horiz_variance": 0.03309445083141327, "pos_vert_variance": 0.062428805977106094}}, "errors": []}
{"timestamp": "2025-12-28T10:33:46.867970Z", "telemetry": {"lat": 28.7531734, "lon": 77.1177288, "satellites": 11, "altitude_gps_m": 213.19000244140625, "groundspeed_mps": 0.8965268731117249}, "flight": {"mode": "STABILIZE", "armed": false}, "ekf": {"attitude": {"roll": -0.02765137329697609, "pitch": -0.00985814444720745, "yaw": 3.0442166328430176}, "local_position": {"x": 10.851188659667969, "y": -13.210307121276855, "z": -4.253186225891113}, "status": {"flags": 33599, "velocity_variance": 0.18736709654331207, "pos_horiz_variance": 0.02989010699093342, "pos_vert_variance": 0.09659877419471741}}, "errors": []}
{"timestamp": "2025-12-28T10:33:47.868044Z", "telemetry": {"lat": 28.7531738, "lon": 77.1177249, "satellites": 11, "altitude_gps_m": 213.1699981689453, "groundspeed_mps": 0.8464917540550232}, "flight": {"mode": "STABILIZE", "armed": false}, "ekf": {"attitude": {"roll": -0.028820771723985672, "pitch": -0.008502479642629623, "yaw": 3.044163942337036}, "local_position": {"x": 10.431270599365234, "y": -14.002002716064453, "z": -4.240830898284912}, "status": {"flags": 33599, "velocity_variance": 0.22542059421539307, "pos_horiz_variance": 0.02566833607852459, "pos_vert_variance": 0.034202951937913895}}, "errors": []}
{"timestamp": "2025-12-28T10:33:48.873044Z", "telemetry": {"lat": 28.7531737, "lon": 77.1177221, "satellites": 11, "altitude_gps_m": 213.13999938964844, "groundspeed_mps": 0.7467944622039795}, "flight": {"mode": "STABILIZE", "armed": false}, "ekf": {"attitude": {"roll": -0.030663859099149704, "pitch": -0.0071938070468604565, "yaw": 3.044034957885742}, "local_position": {"x": 10.276756286621094, "y": -14.466756820678711, "z": -4.214130878448486}, "status": {"flags": 33599, "velocity_variance": 0.2644784152507782, "pos_horiz_variance": 0.023260448127985, "pos_vert_variance": 0.028105933219194412}}, "errors": []}
{"timestamp": "2025-12-28T10:33:49.868221Z", "telemetry": {"lat": 28.7531728, "lon": 77.1177173, "satellites": 11, "altitude_gps_m": 213.1999969482422, "groundspeed_mps": 0.6373946070671082}, "flight": {"mode": "STABILIZE", "armed": false}, "ekf": {"attitude": {"roll": -0.03175990656018257, "pitch": -0.006200478877872229, "yaw": 3.0441274642944336}, "local_position": {"x": 10.300350189208984, "y": -14.745840072631836, "z": -4.2640275955200195}, "status": {"flags": 33599, "velocity_variance": 0.21649828553199768, "pos_horiz_variance": 0.02477310039103031, "pos_vert_variance": 0.05121475085616112}}, "errors": []}
{"timestamp": "2025-12-28T10:33:50.867981Z", "telemetry": {"lat": 28.7531697, "lon": 77.1177103, "satellites": 11, "altitude_gps_m": 213.27999877929688, "groundspeed_mps": 0.6249433755874634}, "flight": {"mode": "STABILIZE", "armed": false}, "ekf": {"attitude": {"roll": -0.03211363032460213, "pitch": -0.006041814107447863, "yaw": 3.0441839694976807}, "local_position": {"x": 10.040421485900879, "y": -15.285633087158203, "z": -4.328291893005371}, "status": {"flags": 33599, "velocity_variance": 0.1942041665315628, "pos_horiz_variance": 0.026743492111563683, "pos_vert_variance": 0.008709438145160675}}, "errors": []}
{"timestamp": "2025-12-28T10:33:51.867885Z", "telemetry": {"lat": 28.7531669, "lon": 77.1177049, "satellites": 11, "altitude_gps_m": 213.29998779296875, "groundspeed_mps": 0.6018210053443909}, "flight": {"mode": "STABILIZE", "armed": false}, "ekf": {"attitude": {"roll": -0.03281513974070549, "pitch": -0.005630358587950468, "yaw": 3.044294834136963}, "local_position": {"x": 9.69362735748291, "y": -16.00017547607422, "z": -4.3753981590271}, "status": {"flags": 33599, "velocity_variance": 0.14529086649417877, "pos_horiz_variance": 0.023686153814196587, "pos_vert_variance": 0.010778171010315418}}, "errors": []}
{"timestamp": "2025-12-28T10:33:52.868592Z", "telemetry": {"lat": 28.7531644, "lon": 77.1177007, "satellites": 11, "altitude_gps_m": 213.25999450683594, "groundspeed_mps": 0.5515035390853882}, "flight": {"mode": "STABILIZE", "armed": false}, "ekf": {"attitude": {"roll": -0.03351934626698494, "pitch": -0.00517570273950696, "yaw": 3.0443356037139893}, "local_position": {"x": 9.494780540466309, "y": -16.489139556884766, "z": -4.339203834533691}, "status": {"flags": 33599, "velocity_variance": 0.1649562567472458, "pos_horiz_variance": 0.020546244457364082, "pos_vert_variance": 0.011842390522360802}}, "errors": []}
{"timestamp": "2025-12-28T10:33:53.867948Z", "telemetry": {"lat": 28.7531616, "lon": 77.117698, "satellites": 11, "altitude_gps_m": 213.25, "groundspeed_mps": 0.529200553894043}, "flight": {"mode": "STABILIZE", "armed": false}, "ekf": {"attitude": {"roll": -0.033781129866838455, "pitch": -0.005472355056554079, "yaw": 3.044515371322632}, "local_position": {"x": 9.283551216125488, "y": -16.83147621154785, "z": -4.311798095703125}, "status": {"flags": 33599, "velocity_variance": 0.17674817144870758, "pos_horiz_variance": 0.017228979617357254, "pos_vert_variance": 0.04824047163128853}}, "errors": []}
{"timestamp": "2025-12-28T10:33:54.867965Z", "telemetry": {"lat": 28.7531597, "lon": 77.1176977, "satellites": 11, "altitude_gps_m": 213.27999877929688, "groundspeed_mps": 0.4800846576690674}, "flight": {"mode": "STABILIZE", "armed": false}, "ekf": {"attitude": {"roll": -0.034923005849123, "pitch": -0.0053500947542488575, "yaw": 3.044689893722534}, "local_position": {"x": 8.907909393310547, "y": -17.270124435424805, "z": -4.353344917297363}, "status": {"flags": 33599, "velocity_variance": 0.2242918163537979, "pos_horiz_variance": 0.011892364360392094, "pos_vert_variance": 0.020968688651919365}}, "errors": []}
{"timestamp": "2025-12-28T10:33:55.868941Z", "telemetry": {"lat": 28.7531602, "lon": 77.117698, "satellites": 11, "altitude_gps_m": 213.27999877929688, "groundspeed_mps": 0.3910181224346161}, "flight": {"mode": "STABILIZE", "armed": false}, "ekf": {"attitude": {"roll": -0.035837892442941666, "pitch": -0.004935314413160086, "yaw": 3.0448100566864014}, "local_position": {"x": 8.81925106048584, "y": -17.419618606567383, "z": -4.362741947174072}, "status": {"flags": 33599, "velocity_variance": 0.17590288817882538, "pos_horiz_variance": 0.015330037102103233, "pos_vert_variance": 0.01218648161739111}}, "errors": []}
{"timestamp": "2025-12-28T10:33:56.868663Z", "telemetry": {"lat": 28.7531648, "lon": 77.1176999, "satellites": 11, "altitude_gps_m": 213.14999389648438, "groundspeed_mps": 0.2199881225824356}, "flight": {"mode": "STABILIZE", "armed": false}, "ekf": {"attitude": {"roll": -0.03751512989401817, "pitch": -0.0032299798913300037, "yaw": 3.0448803901672363}, "local_position": {"x": 8.999229431152344, "y": -17.41033172607422, "z": -4.218442440032959}, "status": {"flags": 33599, "velocity_variance": 0.08243954181671143, "pos_horiz_variance": 0.02595645748078823, "pos_vert_variance": 0.027498433366417885}}, "errors": []}
{"timestamp": "2025-12-28T10:33:57.868796Z", "telemetry": {"lat": 28.7531681, "lon": 77.117702, "satellites": 11, "altitude_gps_m": 213.01998901367188, "groundspeed_mps": 0.06479574739933014}, "flight": {"mode": "STABILIZE", "armed": false}, "ekf": {"attitude": {"roll": -0.03873008117079735, "pitch": -0.0019367164932191372, "yaw": 3.045076370239258}, "local_position": {"x": 9.299281120300293, "y": -17.368473052978516, "z": -4.093612194061279}, "status": {"flags": 33599, "velocity_variance": 0.10427018254995346, "pos_horiz_variance": 0.03170143812894821, "pos_vert_variance": 0.030817437916994095}}, "errors": []}
{"timestamp": "2025-12-28T10:33:58.872582Z", "telemetry": {"lat": 28.7531683, "lon": 77.1177014, "satellites": 11, "altitude_gps_m": 213.00999450683594, "groundspeed_mps": 0.03751887381076813}, "flight": {"mode": "STABILIZE", "armed": false}, "ekf": {"attitude": {"roll": -0.03895412012934685, "pitch": -0.0015978608280420303, "yaw": 3.0454020500183105}, "local_position": {"x": 9.45780086517334, "y": -17.31378936767578, "z": -4.0623650550842285}, "status": {"flags": 33599, "velocity_variance": 0.04993951693177223, "pos_horiz_variance": 0.026571504771709442, "pos_vert_variance": 0.020065993070602417}}, "errors": []}
{"timestamp": "2025-12-28T10:33:59.868274Z", "telemetry": {"lat": 28.7531701, "lon": 77.1177036, "satellites": 11, "altitude_gps_m": 213.0, "groundspeed_mps": 0.13325512409210205}, "flight": {"mode": "STABILIZE", "armed": false}, "ekf": {"attitude": {"roll": -0.039349090307950974, "pitch": -0.001206743996590376, "yaw": 3.0455214977264404}, "local_position": {"x": 9.743696212768555, "y": -17.180057525634766, "z": -4.0725178718566895}, "status": {"flags": 33599, "velocity_variance": 0.15391138195991516, "pos_horiz_variance": 0.026216819882392883, "pos_vert_variance": 0.03688808158040047}}, "errors": []}
{"timestamp": "2025-12-28T10:34:00.868889Z", "telemetry": {"lat": 28.7531724, "lon": 77.1177067, "satellites": 11, "altitude_gps_m": 212.989990234375, "groundspeed_mps": 0.22946655750274658}, "flight": {"mode": "STABILIZE", "armed": false}, "ekf": {"attitude": {"roll": -0.03971980884671211, "pitch": -0.0010141823440790176, "yaw": 3.045851945877075}, "local_position": {"x": 9.992790222167969, "y": -16.946842193603516, "z": -4.068376064300537}, "status": {"flags": 33599, "velocity_variance": 0.04294844716787338, "pos_horiz_variance": 0.028179608285427094, "pos_vert_variance": 0.005712650716304779}}, "errors": []}
{"timestamp": "2025-12-28T10:34:01.868928Z", "telemetry": {"lat": 28.7531742, "lon": 77.1177086, "satellites": 11, "altitude_gps_m": 212.9499969482422, "groundspeed_mps": 0.31668898463249207}, "flight": {"mode": "STABILIZE", "armed": false}, "ekf": {"attitude": {"roll": -0.039818037301301956, "pitch": -0.0009279330261051655, "yaw": 3.046161413192749}, "local_position": {"x": 10.23520278930664, "y": -16.74309539794922, "z": -4.024718284606934}, "status": {"flags": 33599, "velocity_variance": 0.12207593768835068, "pos_horiz_variance": 0.024776846170425415, "pos_vert_variance": 0.05118025839328766}}, "errors": ["PreArm: Hardware safety switch", "PreArm: Internal errors 0x100000 l:66 flow_of_ctrl"]}
{"timestamp": "2025-12-28T10:34:02.868112Z", "telemetry": {"lat": 28.7531755, "lon": 77.11771, "satellites": 11, "altitude_gps_m": 213.01998901367188, "groundspeed_mps": 0.32941359281539917}, "flight": {"mode": "STABILIZE", "armed": false}, "ekf": {"attitude": {"roll": -0.03915281966328621, "pitch": -0.0013918071053922176, "yaw": 3.0463640689849854}, "local_position": {"x": 10.471294403076172, "y": -16.520898818969727, "z": -4.095583915710449}, "status": {"flags": 33599, "velocity_variance": 0.09135861694812775, "pos_horiz_variance": 0.024561645463109016, "pos_vert_variance": 0.05159352347254753}}, "errors": ["PreArm: Hardware safety switch", "PreArm: Internal errors 0x100000 l:66 flow_of_ctrl"]}
{"timestamp": "2025-12-28T10:34:03.868159Z", "telemetry": {"lat": 28.7531772, "lon": 77.1177115, "satellites": 11, "altitude_gps_m": 213.04998779296875, "groundspeed_mps": 0.35964155197143555}, "flight": {"mode": "STABILIZE", "armed": false}, "ekf": {"attitude": {"roll": -0.038397807627916336, "pitch": -0.0016013369895517826, "yaw": 3.0464794635772705}, "local_position": {"x": 10.725750923156738, "y": -16.32000160217285, "z": -4.126809597015381}, "status": {"flags": 33599, "velocity_variance": 0.1489667296409607, "pos_horiz_variance": 0.022147350013256073, "pos_vert_variance": 0.0007794272969476879}}, "errors": ["PreArm: Hardware safety switch", "PreArm: Internal errors 0x100000 l:66 flow_of_ctrl"]}
{"timestamp": "2025-12-28T10:34:04.868403Z", "telemetry": {"lat": 28.7531811, "lon": 77.1177141, "satellites": 11, "altitude_gps_m": 213.0399932861328, "groundspeed_mps": 0.4072466492652893}, "flight": {"mode": "STABILIZE", "armed": false}, "ekf": {"attitude": {"roll": -0.038191985338926315, "pitch": -0.0013734055683016777, "yaw": 3.0466036796569824}, "local_position": {"x": 11.073960304260254, "y": -16.06706428527832, "z": -4.111832618713379}, "status": {"flags": 33599, "velocity_variance": 0.09751847386360168, "pos_horiz_variance": 0.024651840329170227, "pos_vert_variance": 0.039349257946014404}}, "errors": ["PreArm: Hardware safety switch", "PreArm: Internal errors 0x100000 l:66 flow_of_ctrl"]}
{"timestamp": "2025-12-28T10:34:05.868132Z", "telemetry": {"lat": 28.753184, "lon": 77.1177156, "satellites": 11, "altitude_gps_m": 212.97000122070312, "groundspeed_mps": 0.4528732895851135}, "flight": {"mode": "STABILIZE", "armed": false}, "ekf": {"attitude": {"roll": -0.037468086928129196, "pitch": -0.001438000239431858, "yaw": 3.0466880798339844}, "local_position": {"x": 11.498088836669922, "y": -15.818721771240234, "z": -4.045749664306641}, "status": {"flags": 33599, "velocity_variance": 0.15783651173114777, "pos_horiz_variance": 0.020436638966202736, "pos_vert_variance": 0.00839901715517044}}, "errors": ["PreArm: Hardware safety switch", "PreArm: Internal errors 0x100000 l:66 flow_of_ctrl"]}
{"timestamp": "2025-12-28T10:34:06.868765Z", "telemetry": {"lat": 28.7531874, "lon": 77.1177177, "satellites": 11, "altitude_gps_m": 212.92999267578125, "groundspeed_mps": 0.49166882038116455}, "flight": {"mode": "STABILIZE", "armed": false}, "ekf": {"attitude": {"roll": -0.03697480633854866, "pitch": -0.0012204861268401146, "yaw": 3.046769142150879}, "local_position": {"x": 11.931418418884277, "y": -15.558000564575195, "z": -4.0046796798706055}, "status": {"flags": 33599, "velocity_variance": 0.1389649510383606, "pos_horiz_variance": 0.018729891628026962, "pos_vert_variance": 0.035116393119096756}}, "errors": ["PreArm: Hardware safety switch", "PreArm: Internal errors 0x100000 l:66 flow_of_ctrl"]}
{"timestamp": "2025-12-28T10:34:07.868847Z", "telemetry": {"lat": 28.7531912, "lon": 77.1177207, "satellites": 11, "altitude_gps_m": 212.92999267578125, "groundspeed_mps": 0.5232799053192139}, "flight": {"mode": "STABILIZE", "armed": false}, "ekf": {"attitude": {"roll": -0.03650432452559471, "pitch": -0.0013114637695252895, "yaw": 3.04671311378479}, "local_position": {"x": 12.27145004272461, "y": -15.341508865356445, "z": -4.013952255249023}, "status": {"flags": 33599, "velocity_variance": 0.11021764576435089, "pos_horiz_variance": 0.021619588136672974, "pos_vert_variance": 0.035887014120817184}}, "errors": ["PreArm: Hardware safety switch", "PreArm: Internal errors 0x100000 l:66 flow_of_ctrl"]}
{"timestamp": "2025-12-28T10:34:08.868854Z", "telemetry": {"lat": 28.753195, "lon": 77.117723, "satellites": 11, "altitude_gps_m": 212.83999633789062, "groundspeed_mps": 0.5370782613754272}, "flight": {"mode": "STABILIZE", "armed": false}, "ekf": {"attitude": {"roll": -0.03612707927823067, "pitch": -0.0014335541054606438, "yaw": 3.046818971633911}, "local_position": {"x": 12.66297435760498, "y": -15.096918106079102, "z": -3.93184232711792}, "status": {"flags": 33599, "velocity_variance": 0.0627112165093422, "pos_horiz_variance": 0.01783643662929535, "pos_vert_variance": 0.010301101952791214}}, "errors": ["PreArm: Hardware safety switch", "PreArm: Internal errors 0x100000 l:66 flow_of_ctrl"]}
{"timestamp": "2025-12-28T10:34:09.872385Z", "telemetry": {"lat": 28.7531971, "lon": 77.1177241, "satellites": 11, "altitude_gps_m": 212.87998962402344, "groundspeed_mps": 0.5361558198928833}, "flight": {"mode": "STABILIZE", "armed": false}, "ekf": {"attitude": {"roll": -0.035092856734991074, "pitch": -0.001920951995998621, "yaw": 3.0470447540283203}, "local_position": {"x": 13.204057693481445, "y": -14.755266189575195, "z": -3.95135760307312}, "status": {"flags": 33599, "velocity_variance": 0.14032584428787231, "pos_horiz_variance": 0.012544682249426842, "pos_vert_variance": 0.008280693553388119}}, "errors": ["PreArm: Hardware safety switch", "PreArm: Internal errors 0x100000 l:66 flow_of_ctrl"]}
