{"timestamp": "2025-12-28T10:58:24.773336Z", "telemetry": {"lat": 28.7531164, "lon": 77.1178022, "satellites": 10, "altitude_gps_m": 214.0399932861328, "groundspeed_mps": 0.1375109851360321}, "flight": {"mode": "LOITER", "armed": false}, "ekf": {"attitude": {"roll": -0.03178419545292854, "pitch": -0.0037757852114737034, "yaw": 3.044630527496338}, "local_position": {"x": 4.041689872741699, "y": -6.907060623168945, "z": -5.131444931030273}, "status": {"flags": 33599, "velocity_variance": 0.2737995386123657, "pos_horiz_variance": 0.00988863967359066, "pos_vert_variance": 0.06732127070426941}}, "errors": []}
{"timestamp": "2025-12-28T10:58:25.826215Z", "telemetry": {"lat": 28.7531201, "lon": 77.1177992, "satellites": 10, "altitude_gps_m": 214.05999755859375, "groundspeed_mps": 0.20415104925632477}, "flight": {"mode": "LOITER", "armed": false}, "ekf": {"attitude": {"roll": -0.031355079263448715, "pitch": -0.003365569282323122, "yaw": 3.044739246368408}, "local_position": {"x": 4.436097621917725, "y": -7.194176197052002, "z": -5.134158611297607}, "status": {"flags": 33599, "velocity_variance": 0.20965710282325745, "pos_horiz_variance": 0.012450975365936756, "pos_vert_variance": 0.04449571669101715}}, "errors": []}
{"timestamp": "2025-12-28T10:58:26.868084Z", "telemetry": {"lat": 28.7531217, "lon": 77.1178001, "satellites": 10, "altitude_gps_m": 214.1599884033203, "groundspeed_mps": 0.18303515017032623}, "flight": {"mode": "LOITER", "armed": false}, "ekf": {"attitude": {"roll": -0.03199753537774086, "pitch": -0.004228242207318544, "yaw": 3.044724702835083}, "local_position": {"x": 4.6803975105285645, "y": -7.273021697998047, "z": -5.209813594818115}, "status": {"flags": 33599, "velocity_variance": 0.2702217400074005, "pos_horiz_variance": 0.011339361779391766, "pos_vert_variance": 0.05389060080051422}}, "errors": []}
{"timestamp": "2025-12-28T10:58:27.867861Z", "telemetry": {"lat": 28.7531245, "lon": 77.1177997, "satellites": 8, "altitude_gps_m": 214.1599884033203, "groundspeed_mps": 0.17342786490917206}, "flight": {"mode": "LOITER", "armed": false}, "ekf": {"attitude": {"roll": -0.03215665742754936, "pitch": -0.004251054022461176, "yaw": 3.044727325439453}, "local_position": {"x": 4.80794095993042, "y": -7.262132167816162, "z": -5.233041763305664}, "status": {"flags": 33599, "velocity_variance": 0.06825581192970276, "pos_horiz_variance": 0.014096449129283428, "pos_vert_variance": 0.020705342292785645}}, "errors": []}
{"timestamp": "2025-12-28T10:58:28.867982Z", "telemetry": {"lat": 28.7531264, "lon": 77.1178003, "satellites": 9, "altitude_gps_m": 214.1599884033203, "groundspeed_mps": 0.17157438397407532}, "flight": {"mode": "LOITER", "armed": false}, "ekf": {"attitude": {"roll": -0.03250350430607796, "pitch": -0.004456753376871347, "yaw": 3.044692277908325}, "local_position": {"x": 5.041678428649902, "y": -7.296440601348877, "z": -5.238511562347412}, "status": {"flags": 33599, "velocity_variance": 0.18379047513008118, "pos_horiz_variance": 0.013506184332072735, "pos_vert_variance": 0.0052628847770392895}}, "errors": []}
{"timestamp": "2025-12-28T10:58:29.868555Z", "telemetry": {"lat": 28.7531295, "lon": 77.1177987, "satellites": 9, "altitude_gps_m": 214.01998901367188, "groundspeed_mps": 0.22636041045188904}, "flight": {"mode": "LOITER", "armed": false}, "ekf": {"attitude": {"roll": -0.032351020723581314, "pitch": -0.0038044010289013386, "yaw": 3.044692277908325}, "local_position": {"x": 5.393238544464111, "y": -7.40223503112793, "z": -5.136177062988281}, "status": {"flags": 33599, "velocity_variance": 0.16525033116340637, "pos_horiz_variance": 0.013676688075065613, "pos_vert_variance": 0.08898989111185074}}, "errors": []}
{"timestamp": "2025-12-28T10:58:30.868272Z", "telemetry": {"lat": 28.7531311, "lon": 77.1177981, "satellites": 9, "altitude_gps_m": 214.00999450683594, "groundspeed_mps": 0.255852609872818}, "flight": {"mode": "LOITER", "armed": false}, "ekf": {"attitude": {"roll": -0.03234520182013512, "pitch": -0.0037039662711322308, "yaw": 3.0447590351104736}, "local_position": {"x": 5.703742027282715, "y": -7.4882493019104, "z": -5.068850994110107}, "status": {"flags": 33599, "velocity_variance": 0.11231017112731934, "pos_horiz_variance": 0.010980960913002491, "pos_vert_variance": 0.03645414859056473}}, "errors": []}
{"timestamp": "2025-12-28T10:58:31.867939Z", "telemetry": {"lat": 28.753132, "lon": 77.1177944, "satellites": 9, "altitude_gps_m": 214.02999877929688, "groundspeed_mps": 0.30327367782592773}, "flight": {"mode": "LOITER", "armed": false}, "ekf": {"attitude": {"roll": -0.03181329742074013, "pitch": -0.0035408693365752697, "yaw": 3.0448687076568604}, "local_position": {"x": 6.142546653747559, "y": -7.807480335235596, "z": -5.105319976806641}, "status": {"flags": 33599, "velocity_variance": 0.12947499752044678, "pos_horiz_variance": 0.004568234086036682, "pos_vert_variance": 0.006239525508135557}}, "errors": []}
{"timestamp": "2025-12-28T10:58:32.867922Z", "telemetry": {"lat": 28.7531312, "lon": 77.1177931, "satellites": 9, "altitude_gps_m": 214.0, "groundspeed_mps": 0.27311548590660095}, "flight": {"mode": "LOITER", "armed": false}, "ekf": {"attitude": {"roll": -0.03174065425992012, "pitch": -0.004824635107070208, "yaw": 3.0447967052459717}, "local_position": {"x": 6.250646591186523, "y": -7.970578193664551, "z": -5.075319290161133}, "status": {"flags": 33599, "velocity_variance": 0.11039430648088455, "pos_horiz_variance": 0.0024059463758021593, "pos_vert_variance": 0.03964069485664368}}, "errors": []}
{"timestamp": "2025-12-28T10:58:33.868380Z", "telemetry": {"lat": 28.7531309, "lon": 77.1177928, "satellites": 10, "altitude_gps_m": 213.9499969482422, "groundspeed_mps": 0.1893223226070404}, "flight": {"mode": "LOITER", "armed": false}, "ekf": {"attitude": {"roll": -0.03204698488116264, "pitch": -0.005674304906278849, "yaw": 3.0448861122131348}, "local_position": {"x": 6.213648796081543, "y": -8.032478332519531, "z": -5.038311958312988}, "status": {"flags": 33599, "velocity_variance": 0.10298503190279007, "pos_horiz_variance": 0.0015647163381800056, "pos_vert_variance": 0.017641104757785797}}, "errors": ["PreArm: Hardware safety switch", "PreArm: GPS glitching", "PreArm: Internal errors 0x100000 l:66 flow_of_ctrl"]}
{"timestamp": "2025-12-28T10:58:34.868853Z", "telemetry": {"lat": 28.7531335, "lon": 77.1177897, "satellites": 10, "altitude_gps_m": 214.0, "groundspeed_mps": 0.18040324747562408}, "flight": {"mode": "LOITER", "armed": false}, "ekf": {"attitude": {"roll": -0.03168981894850731, "pitch": -0.0058706677518785, "yaw": 3.044987440109253}, "local_position": {"x": 6.306309700012207, "y": -8.162740707397461, "z": -5.07629919052124}, "status": {"flags": 33599, "velocity_variance": 0.21742726862430573, "pos_horiz_variance": 0.005353114567697048, "pos_vert_variance": 0.061892926692962646}}, "errors": ["PreArm: Hardware safety switch", "PreArm: GPS glitching", "PreArm: Internal errors 0x100000 l:66 flow_of_ctrl"]}
{"timestamp": "2025-12-28T10:58:35.868684Z", "telemetry": {"lat": 28.7531374, "lon": 77.1177862, "satellites": 10, "altitude_gps_m": 214.0, "groundspeed_mps": 0.18506617844104767}, "flight": {"mode": "LOITER", "armed": false}, "ekf": {"attitude": {"roll": -0.03154369071125984, "pitch": -0.006140236277133226, "yaw": 3.045022964477539}, "local_position": {"x": 6.457673072814941, "y": -8.395341873168945, "z": -5.0708794593811035}, "status": {"flags": 33599, "velocity_variance": 0.037348948419094086, "pos_horiz_variance": 0.011410169303417206, "pos_vert_variance": 0.03555948659777641}}, "errors": ["PreArm: Hardware safety switch", "PreArm: GPS glitching", "PreArm: Internal errors 0x100000 l:66 flow_of_ctrl"]}
{"timestamp": "2025-12-28T10:58:36.868822Z", "telemetry": {"lat": 28.753142, "lon": 77.1177797, "satellites": 10, "altitude_gps_m": 213.92999267578125, "groundspeed_mps": 0.23915405571460724}, "flight": {"mode": "LOITER", "armed": false}, "ekf": {"attitude": {"roll": -0.030280355364084244, "pitch": -0.006616548169404268, "yaw": 3.045168876647949}, "local_position": {"x": 6.581369876861572, "y": -8.765599250793457, "z": -4.993255615234375}, "status": {"flags": 33599, "velocity_variance": 0.11080498993396759, "pos_horiz_variance": 0.021001942455768585, "pos_vert_variance": 0.049090493470430374}}, "errors": ["PreArm: Hardware safety switch", "PreArm: GPS glitching", "PreArm: Internal errors 0x100000 l:66 flow_of_ctrl"]}
{"timestamp": "2025-12-28T10:58:37.867907Z", "telemetry": {"lat": 28.7531444, "lon": 77.1177791, "satellites": 10, "altitude_gps_m": 213.8699951171875, "groundspeed_mps": 0.25918498635292053}, "flight": {"mode": "LOITER", "armed": false}, "ekf": {"attitude": {"roll": -0.03078858181834221, "pitch": -0.006130574736744165, "yaw": 3.0451602935791016}, "local_position": {"x": 6.922624111175537, "y": -9.126789093017578, "z": -4.9478020668029785}, "status": {"flags": 33599, "velocity_variance": 0.14277735352516174, "pos_horiz_variance": 0.018101075664162636, "pos_vert_variance": 0.015649138018488884}}, "errors": ["PreArm: Hardware safety switch", "PreArm: GPS glitching", "PreArm: Internal errors 0x100000 l:66 flow_of_ctrl"]}
{"timestamp": "2025-12-28T10:58:38.868809Z", "telemetry": {"lat": 28.7531465, "lon": 77.117776, "satellites": 10, "altitude_gps_m": 213.76998901367188, "groundspeed_mps": 0.2641446888446808}, "flight": {"mode": "LOITER", "armed": false}, "ekf": {"attitude": {"roll": -0.03097156062722206, "pitch": -0.00637436518445611, "yaw": 3.0452969074249268}, "local_position": {"x": 7.172868728637695, "y": -9.405674934387207, "z": -4.848071575164795}, "status": {"flags": 33599, "velocity_variance": 0.09653142839670181, "pos_horiz_variance": 0.01732894405722618, "pos_vert_variance": 0.03370034694671631}}, "errors": ["PreArm: Hardware safety switch", "PreArm: GPS glitching", "PreArm: Internal errors 0x100000 l:66 flow_of_ctrl"]}
{"timestamp": "2025-12-28T10:58:39.867865Z", "telemetry": {"lat": 28.7531479, "lon": 77.1177757, "satellites": 10, "altitude_gps_m": 213.7899932861328, "groundspeed_mps": 0.2507975399494171}, "flight": {"mode": "LOITER", "armed": false}, "ekf": {"attitude": {"roll": -0.03156356140971184, "pitch": -0.006276443134993315, "yaw": 3.0454440116882324}, "local_position": {"x": 7.456381797790527, "y": -9.54875373840332, "z": -4.833958148956299}, "status": {"flags": 33599, "velocity_variance": 0.13580667972564697, "pos_horiz_variance": 0.01501413993537426, "pos_vert_variance": 0.03782626613974571}}, "errors": ["PreArm: Hardware safety switch", "PreArm: GPS glitching", "PreArm: Internal errors 0x100000 l:66 flow_of_ctrl"]}
{"timestamp": "2025-12-28T10:58:40.867872Z", "telemetry": {"lat": 28.7531491, "lon": 77.117772, "satellites": 10, "altitude_gps_m": 213.84999084472656, "groundspeed_mps": 0.2679266035556793}, "flight": {"mode": "LOITER", "armed": false}, "ekf": {"attitude": {"roll": -0.031305547803640366, "pitch": -0.006517486181110144, "yaw": 3.045612096786499}, "local_position": {"x": 7.713011741638184, "y": -9.86696720123291, "z": -4.924192905426025}, "status": {"flags": 33599, "velocity_variance": 0.14879865944385529, "pos_horiz_variance": 0.012728415429592133, "pos_vert_variance": 0.11712384223937988}}, "errors": ["PreArm: Hardware safety switch", "PreArm: GPS glitching", "PreArm: Internal errors 0x100000 l:66 flow_of_ctrl"]}
{"timestamp": "2025-12-28T10:58:41.868373Z", "telemetry": {"lat": 28.7531519, "lon": 77.1177681, "satellites": 10, "altitude_gps_m": 213.84999084472656, "groundspeed_mps": 0.3029555678367615}, "flight": {"mode": "LOITER", "armed": false}, "ekf": {"attitude": {"roll": -0.031102042645215988, "pitch": -0.005927965510636568, "yaw": 3.0456275939941406}, "local_position": {"x": 8.0390625, "y": -10.193866729736328, "z": -4.928135395050049}, "status": {"flags": 33599, "velocity_variance": 0.03458676487207413, "pos_horiz_variance": 0.013796849176287651, "pos_vert_variance": 0.045953698456287384}}, "errors": ["PreArm: Hardware safety switch", "PreArm: GPS glitching", "PreArm: Internal errors 0x100000 l:66 flow_of_ctrl"]}
{"timestamp": "2025-12-28T10:58:42.868667Z", "telemetry": {"lat": 28.7531507, "lon": 77.1177667, "satellites": 10, "altitude_gps_m": 213.79998779296875, "groundspeed_mps": 0.28366169333457947}, "flight": {"mode": "LOITER", "armed": false}, "ekf": {"attitude": {"roll": -0.03141893818974495, "pitch": -0.006844986695796251, "yaw": 3.045804500579834}, "local_position": {"x": 8.237281799316406, "y": -10.474065780639648, "z": -4.8675537109375}, "status": {"flags": 33599, "velocity_variance": 0.1605256199836731, "pos_horiz_variance": 0.006203136872500181, "pos_vert_variance": 0.05873165279626846}}, "errors": ["PreArm: Hardware safety switch", "PreArm: GPS glitching", "PreArm: Internal errors 0x100000 l:66 flow_of_ctrl"]}
{"timestamp": "2025-12-28T10:58:43.868839Z", "telemetry": {"lat": 28.7531481, "lon": 77.1177689, "satellites": 10, "altitude_gps_m": 213.83999633789062, "groundspeed_mps": 0.221091166138649}, "flight": {"mode": "LOITER", "armed": false}, "ekf": {"attitude": {"roll": -0.0322512648999691, "pitch": -0.007033901754766703, "yaw": 3.0459306240081787}, "local_position": {"x": 8.228559494018555, "y": -10.515031814575195, "z": -4.9107184410095215}, "status": {"flags": 33599, "velocity_variance": 0.06585972011089325, "pos_horiz_variance": 0.003282776568084955, "pos_vert_variance": 0.010734647512435913}}, "errors": ["PreArm: Hardware safety switch", "PreArm: GPS glitching", "PreArm: Internal errors 0x100000 l:66 flow_of_ctrl"]}
{"timestamp": "2025-12-28T10:58:44.868614Z", "telemetry": {"lat": 28.7531517, "lon": 77.1177691, "satellites": 10, "altitude_gps_m": 213.75999450683594, "groundspeed_mps": 0.14415483176708221}, "flight": {"mode": "LOITER", "armed": false}, "ekf": {"attitude": {"roll": -0.033937688916921616, "pitch": -0.006882601883262396, "yaw": 3.0458552837371826}, "local_position": {"x": 8.376404762268066, "y": -10.437164306640625, "z": -4.836039066314697}, "status": {"flags": 33599, "velocity_variance": 0.22446544468402863, "pos_horiz_variance": 0.002469022758305073, "pos_vert_variance": 0.06823281943798065}}, "errors": ["PreArm: Hardware safety switch", "PreArm: GPS glitching", "PreArm: Internal errors 0x100000 l:66 flow_of_ctrl"]}
{"timestamp": "2025-12-28T10:58:45.868576Z", "telemetry": {"lat": 28.7531543, "lon": 77.1177665, "satellites": 10, "altitude_gps_m": 213.75999450683594, "groundspeed_mps": 0.156917005777359}, "flight": {"mode": "LOITER", "armed": false}, "ekf": {"attitude": {"roll": -0.03408068045973778, "pitch": -0.006354210432618856, "yaw": 3.046010971069336}, "local_position": {"x": 8.644806861877441, "y": -10.588374137878418, "z": -4.845927715301514}, "status": {"flags": 33599, "velocity_variance": 0.3294963538646698, "pos_horiz_variance": 0.0036487814504653215, "pos_vert_variance": 0.00703258765861392}}, "errors": ["PreArm: Hardware safety switch", "PreArm: GPS glitching", "PreArm: Internal errors 0x100000 l:66 flow_of_ctrl"]}
{"timestamp": "2025-12-28T10:58:46.868056Z", "telemetry": {"lat": 28.7531593, "lon": 77.1177639, "satellites": 10, "altitude_gps_m": 213.72000122070312, "groundspeed_mps": 0.21834620833396912}, "flight": {"mode": "LOITER", "armed": false}, "ekf": {"attitude": {"roll": -0.03386404737830162, "pitch": -0.005617090035229921, "yaw": 3.0461437702178955}, "local_position": {"x": 9.063803672790527, "y": -10.750665664672852, "z": -4.805795192718506}, "status": {"flags": 33599, "velocity_variance": 0.23529794812202454, "pos_horiz_variance": 0.007079796399921179, "pos_vert_variance": 0.0007789323572069407}}, "errors": ["PreArm: Hardware safety switch", "PreArm: GPS glitching", "PreArm: Internal errors 0x100000 l:66 flow_of_ctrl"]}
{"timestamp": "2025-12-28T10:58:47.868375Z", "telemetry": {"lat": 28.7531602, "lon": 77.1177614, "satellites": 10, "altitude_gps_m": 213.75999450683594, "groundspeed_mps": 0.2630065381526947}, "flight": {"mode": "LOITER", "armed": false}, "ekf": {"attitude": {"roll": -0.032648783177137375, "pitch": -0.004830578807741404, "yaw": 3.0461840629577637}, "local_position": {"x": 9.388843536376953, "y": -11.048791885375977, "z": -4.83329439163208}, "status": {"flags": 33599, "velocity_variance": 0.14851196110248566, "pos_horiz_variance": 0.003718684194609523, "pos_vert_variance": 0.035456132143735886}}, "errors": ["PreArm: Hardware safety switch", "PreArm: GPS glitching", "PreArm: Internal errors 0x100000 l:66 flow_of_ctrl"]}
{"timestamp": "2025-12-28T10:58:48.868557Z", "telemetry": {"lat": 28.7531598, "lon": 77.1177589, "satellites": 10, "altitude_gps_m": 213.8300018310547, "groundspeed_mps": 0.2240879386663437}, "flight": {"mode": "LOITER", "armed": false}, "ekf": {"attitude": {"roll": -0.03311515226960182, "pitch": -0.005941492039710283, "yaw": 3.0463714599609375}, "local_position": {"x": 9.471463203430176, "y": -11.322908401489258, "z": -4.906405925750732}, "status": {"flags": 33599, "velocity_variance": 0.2961004078388214, "pos_horiz_variance": 0.0021452391520142555, "pos_vert_variance": 0.04900966212153435}}, "errors": ["PreArm: Hardware safety switch", "PreArm: GPS glitching", "PreArm: Internal errors 0x100000 l:66 flow_of_ctrl"]}
{"timestamp": "2025-12-28T10:58:49.868650Z", "telemetry": {"lat": 28.7531606, "lon": 77.1177543, "satellites": 10, "altitude_gps_m": 213.76998901367188, "groundspeed_mps": 0.2369244247674942}, "flight": {"mode": "LOITER", "armed": false}, "ekf": {"attitude": {"roll": -0.03245411440730095, "pitch": -0.005964948330074549, "yaw": 3.0464484691619873}, "local_position": {"x": 9.54172134399414, "y": -11.588565826416016, "z": -4.84748649597168}, "status": {"flags": 33599, "velocity_variance": 0.2441299706697464, "pos_horiz_variance": 0.005314109846949577, "pos_vert_variance": 0.059292469173669815}}, "errors": ["PreArm: Hardware safety switch", "PreArm: GPS glitching", "PreArm: Internal errors 0x100000 l:66 flow_of_ctrl"]}
{"timestamp": "2025-12-28T10:58:50.867916Z", "telemetry": {"lat": 28.7531612, "lon": 77.1177549, "satellites": 10, "altitude_gps_m": 213.80999755859375, "groundspeed_mps": 0.24749711155891418}, "flight": {"mode": "LOITER", "armed": false}, "ekf": {"attitude": {"roll": -0.03296384587883949, "pitch": -0.005743251647800207, "yaw": 3.0464911460876465}, "local_position": {"x": 9.790106773376465, "y": -11.805492401123047, "z": -4.882721424102783}, "status": {"flags": 33599, "velocity_variance": 0.16677984595298767, "pos_horiz_variance": 0.005500639323145151, "pos_vert_variance": 0.08123026043176651}}, "errors": ["PreArm: Hardware safety switch", "PreArm: GPS glitching", "PreArm: Internal errors 0x100000 l:66 flow_of_ctrl"]}
{"timestamp": "2025-12-28T10:58:51.868089Z", "telemetry": {"lat": 28.75316, "lon": 77.1177548, "satellites": 10, "altitude_gps_m": 213.75, "groundspeed_mps": 0.20485088229179382}, "flight": {"mode": "LOITER", "armed": false}, "ekf": {"attitude": {"roll": -0.03295257315039635, "pitch": -0.005875376518815756, "yaw": 3.046539783477783}, "local_position": {"x": 9.807037353515625, "y": -11.859330177307129, "z": -4.806682586669922}, "status": {"flags": 33599, "velocity_variance": 0.0737733542919159, "pos_horiz_variance": 0.008045398630201817, "pos_vert_variance": 0.009996721521019936}}, "errors": ["PreArm: Hardware safety switch", "PreArm: GPS glitching", "PreArm: Internal errors 0x100000 l:66 flow_of_ctrl"]}
{"timestamp": "2025-12-28T10:58:52.868426Z", "telemetry": {"lat": 28.7531594, "lon": 77.1177555, "satellites": 10, "altitude_gps_m": 213.75, "groundspeed_mps": 0.12604282796382904}, "flight": {"mode": "LOITER", "armed": false}, "ekf": {"attitude": {"roll": -0.03363294526934624, "pitch": -0.007084784563630819, "yaw": 3.046429395675659}, "local_position": {"x": 9.765009880065918, "y": -11.872527122497559, "z": -4.829041004180908}, "status": {"flags": 33599, "velocity_variance": 0.23317170143127441, "pos_horiz_variance": 0.010119445621967316, "pos_vert_variance": 0.013770340010523796}}, "errors": ["PreArm: Hardware safety switch", "PreArm: GPS glitching", "PreArm: Internal errors 0x100000 l:66 flow_of_ctrl"]}
{"timestamp": "2025-12-28T10:58:53.868137Z", "telemetry": {"lat": 28.7531562, "lon": 77.1177556, "satellites": 10, "altitude_gps_m": 213.80999755859375, "groundspeed_mps": 0.06414122134447098}, "flight": {"mode": "LOITER", "armed": false}, "ekf": {"attitude": {"roll": -0.033990804105997086, "pitch": -0.008451340720057487, "yaw": 3.0466580390930176}, "local_position": {"x": 9.487021446228027, "y": -11.890729904174805, "z": -4.882724285125732}, "status": {"flags": 33599, "velocity_variance": 0.2131730169057846, "pos_horiz_variance": 0.009723767638206482, "pos_vert_variance": 0.03599806874990463}}, "errors": ["PreArm: Hardware safety switch", "PreArm: GPS glitching", "PreArm: Internal errors 0x100000 l:66 flow_of_ctrl"]}
{"timestamp": "2025-12-28T10:58:54.868002Z", "telemetry": {"lat": 28.7531514, "lon": 77.1177562, "satellites": 9, "altitude_gps_m": 213.77999877929688, "groundspeed_mps": 0.20705623924732208}, "flight": {"mode": "LOITER", "armed": false}, "ekf": {"attitude": {"roll": -0.03459737077355385, "pitch": -0.010408174246549606, "yaw": 3.0467162132263184}, "local_position": {"x": 8.830349922180176, "y": -11.65036678314209, "z": -4.853151798248291}, "status": {"flags": 33599, "velocity_variance": 0.12025964260101318, "pos_horiz_variance": 0.010585680603981018, "pos_vert_variance": 0.00708727678284049}}, "errors": ["PreArm: Hardware safety switch", "PreArm: GPS glitching", "PreArm: Internal errors 0x100000 l:66 flow_of_ctrl"]}
{"timestamp": "2025-12-28T10:58:55.872245Z", "telemetry": {"lat": 28.7531465, "lon": 77.1177494, "satellites": 9, "altitude_gps_m": 213.76998901367188, "groundspeed_mps": 0.4458702802658081}, "flight": {"mode": "LOITER", "armed": false}, "ekf": {"attitude": {"roll": -0.03370342776179314, "pitch": -0.013418542221188545, "yaw": 3.0468459129333496}, "local_position": {"x": 7.907618522644043, "y": -11.85698413848877, "z": -4.841784477233887}, "status": {"flags": 33599, "velocity_variance": 0.23190440237522125, "pos_horiz_variance": 0.010769963264465332, "pos_vert_variance": 0.015344244427978992}}, "errors": ["PreArm: Hardware safety switch", "PreArm: GPS glitching", "PreArm: Internal errors 0x100000 l:66 flow_of_ctrl"]}
{"timestamp": "2025-12-28T10:58:56.868037Z", "telemetry": {"lat": 28.7531437, "lon": 77.1177384, "satellites": 9, "altitude_gps_m": 213.69000244140625, "groundspeed_mps": 0.6476012468338013}, "flight": {"mode": "LOITER", "armed": false}, "ekf": {"attitude": {"roll": -0.03137658163905144, "pitch": -0.014530079439282417, "yaw": 3.0470011234283447}, "local_position": {"x": 7.0674309730529785, "y": -12.6065034866333, "z": -4.767700672149658}, "status": {"flags": 33599, "velocity_variance": 0.26807674765586853, "pos_horiz_variance": 0.019054114818572998, "pos_vert_variance": 7.188969175331295e-05}}, "errors": ["PreArm: Hardware safety switch", "PreArm: GPS glitching", "PreArm: Internal errors 0x100000 l:66 flow_of_ctrl"]}
{"timestamp": "2025-12-28T10:58:57.868458Z", "telemetry": {"lat": 28.7531455, "lon": 77.117736, "satellites": 8, "altitude_gps_m": 213.64999389648438, "groundspeed_mps": 0.5853712558746338}, "flight": {"mode": "LOITER", "armed": false}, "ekf": {"attitude": {"roll": -0.03128307685256004, "pitch": -0.011899659410119057, "yaw": 3.047022819519043}, "local_position": {"x": 7.080132961273193, "y": -13.128711700439453, "z": -4.724316596984863}, "status": {"flags": 33599, "velocity_variance": 0.3784749507904053, "pos_horiz_variance": 0.017488649114966393, "pos_vert_variance": 0.02565765380859375}}, "errors": ["PreArm: Hardware safety switch", "PreArm: GPS glitching", "PreArm: Internal errors 0x100000 l:66 flow_of_ctrl"]}
{"timestamp": "2025-12-28T10:58:58.871028Z", "telemetry": {"lat": 28.7531467, "lon": 77.1177403, "satellites": 8, "altitude_gps_m": 213.63999938964844, "groundspeed_mps": 0.4533582329750061}, "flight": {"mode": "LOITER", "armed": false}, "ekf": {"attitude": {"roll": -0.03272632881999016, "pitch": -0.009971171617507935, "yaw": 3.047043561935425}, "local_position": {"x": 7.245795249938965, "y": -13.142721176147461, "z": -4.71855354309082}, "status": {"flags": 33599, "velocity_variance": 0.37782466411590576, "pos_horiz_variance": 0.011348176747560501, "pos_vert_variance": 0.05123477056622505}}, "errors": ["PreArm: Hardware safety switch", "PreArm: GPS glitching", "PreArm: Internal errors 0x100000 l:66 flow_of_ctrl"]}
{"timestamp": "2025-12-28T10:58:59.868703Z", "telemetry": {"lat": 28.753153, "lon": 77.1177387, "satellites": 8, "altitude_gps_m": 213.6699981689453, "groundspeed_mps": 0.31377941370010376}, "flight": {"mode": "LOITER", "armed": false}, "ekf": {"attitude": {"roll": -0.032487403601408005, "pitch": -0.007664159405976534, "yaw": 3.047015428543091}, "local_position": {"x": 7.587798595428467, "y": -13.302200317382812, "z": -4.744920253753662}, "status": {"flags": 33599, "velocity_variance": 0.23740197718143463, "pos_horiz_variance": 0.021527685225009918, "pos_vert_variance": 0.019795121625065804}}, "errors": ["PreArm: Hardware safety switch", "PreArm: GPS glitching", "PreArm: Internal errors 0x100000 l:66 flow_of_ctrl"]}
{"timestamp": "2025-12-28T10:59:00.867966Z", "telemetry": {"lat": 28.753156, "lon": 77.1177338, "satellites": 8, "altitude_gps_m": 213.6599884033203, "groundspeed_mps": 0.26569634675979614}, "flight": {"mode": "LOITER", "armed": false}, "ekf": {"attitude": {"roll": -0.03162234649062157, "pitch": -0.005840384867042303, "yaw": 3.0470564365386963}, "local_position": {"x": 7.947428226470947, "y": -13.737120628356934, "z": -4.731918811798096}, "status": {"flags": 33599, "velocity_variance": 0.18138781189918518, "pos_horiz_variance": 0.022357171401381493, "pos_vert_variance": 0.08390381932258606}}, "errors": ["PreArm: Hardware safety switch", "PreArm: GPS glitching", "PreArm: Internal errors 0x100000 l:66 flow_of_ctrl"]}
{"timestamp": "2025-12-28T10:59:01.871173Z", "telemetry": {"lat": 28.7531555, "lon": 77.1177371, "satellites": 8, "altitude_gps_m": 213.75999450683594, "groundspeed_mps": 0.19459468126296997}, "flight": {"mode": "LOITER", "armed": false}, "ekf": {"attitude": {"roll": -0.03256669268012047, "pitch": -0.005492608528584242, "yaw": 3.0470800399780273}, "local_position": {"x": 8.169246673583984, "y": -13.781418800354004, "z": -4.838714599609375}, "status": {"flags": 33599, "velocity_variance": 0.36552372574806213, "pos_horiz_variance": 0.01670488715171814, "pos_vert_variance": 0.01891349069774151}}, "errors": ["PreArm: Hardware safety switch", "PreArm: GPS glitching", "PreArm: Internal errors 0x100000 l:66 flow_of_ctrl"]}
{"timestamp": "2025-12-28T10:59:02.868669Z", "telemetry": {"lat": 28.7531524, "lon": 77.1177388, "satellites": 8, "altitude_gps_m": 213.70999145507812, "groundspeed_mps": 0.15556764602661133}, "flight": {"mode": "LOITER", "armed": false}, "ekf": {"attitude": {"roll": -0.03308626636862755, "pitch": -0.005377460736781359, "yaw": 3.047025203704834}, "local_position": {"x": 8.106929779052734, "y": -13.778823852539062, "z": -4.787014484405518}, "status": {"flags": 33599, "velocity_variance": 0.5662105083465576, "pos_horiz_variance": 0.013545195572078228, "pos_vert_variance": 0.0686270222067833}}, "errors": ["PreArm: Hardware safety switch", "PreArm: GPS glitching", "PreArm: Internal errors 0x100000 l:66 flow_of_ctrl"]}
{"timestamp": "2025-12-28T10:59:03.868816Z", "telemetry": {"lat": 28.7531486, "lon": 77.1177424, "satellites": 8, "altitude_gps_m": 213.63999938964844, "groundspeed_mps": 0.09956284612417221}, "flight": {"mode": "LOITER", "armed": false}, "ekf": {"attitude": {"roll": -0.03414912894368172, "pitch": -0.0052210190333426, "yaw": 3.0470130443573}, "local_position": {"x": 7.931038856506348, "y": -13.574392318725586, "z": -4.7507219314575195}, "status": {"flags": 33599, "velocity_variance": 0.40269792079925537, "pos_horiz_variance": 0.013159850612282753, "pos_vert_variance": 0.008410771377384663}}, "errors": ["PreArm: Hardware safety switch", "PreArm: GPS glitching", "PreArm: Internal errors 0x100000 l:66 flow_of_ctrl", "PreArm: Hardware safety switch", "PreArm: GPS glitching", "PreArm: Internal errors 0x100000 l:66 flow_of_ctrl"]}
{"timestamp": "2025-12-28T10:59:04.868806Z", "telemetry": {"lat": 28.7531515, "lon": 77.1177403, "satellites": 9, "altitude_gps_m": 213.6199951171875, "groundspeed_mps": 0.05196850374341011}, "flight": {"mode": "LOITER", "armed": false}, "ekf": {"attitude": {"roll": -0.03355489298701286, "pitch": -0.004659137222915888, "yaw": 3.0469789505004883}, "local_position": {"x": 8.148277282714844, "y": -13.603897094726562, "z": -4.701286792755127}, "status": {"flags": 33599, "velocity_variance": 0.14634177088737488, "pos_horiz_variance": 0.011195347644388676, "pos_vert_variance": 0.08885984122753143}}, "errors": ["PreArm: Hardware safety switch", "PreArm: GPS glitching", "PreArm: Internal errors 0x100000 l:66 flow_of_ctrl", "PreArm: Hardware safety switch", "PreArm: GPS glitching", "PreArm: Internal errors 0x100000 l:66 flow_of_ctrl"]}
{"timestamp": "2025-12-28T10:59:05.868834Z", "telemetry": {"lat": 28.7531488, "lon": 77.1177412, "satellites": 9, "altitude_gps_m": 213.76998901367188, "groundspeed_mps": 0.0933048203587532}, "flight": {"mode": "LOITER", "armed": false}, "ekf": {"attitude": {"roll": -0.03372786566615105, "pitch": -0.005208382848650217, "yaw": 3.047034978866577}, "local_position": {"x": 7.922536849975586, "y": -13.523975372314453, "z": -4.845500946044922}, "status": {"flags": 33599, "velocity_variance": 0.2406889796257019, "pos_horiz_variance": 0.011333874426782131, "pos_vert_variance": 0.04299873858690262}}, "errors": ["PreArm: Hardware safety switch", "PreArm: GPS glitching", "PreArm: Internal errors 0x100000 l:66 flow_of_ctrl", "PreArm: Hardware safety switch", "PreArm: GPS glitching", "PreArm: Internal errors 0x100000 l:66 flow_of_ctrl"]}
{"timestamp": "2025-12-28T10:59:06.868070Z", "telemetry": {"lat": 28.7531495, "lon": 77.1177426, "satellites": 9, "altitude_gps_m": 213.64999389648438, "groundspeed_mps": 0.06641172617673874}, "flight": {"mode": "LOITER", "armed": false}, "ekf": {"attitude": {"roll": -0.03426768258213997, "pitch": -0.004613905679434538, "yaw": 3.0471394062042236}, "local_position": {"x": 7.992790699005127, "y": -13.386466979980469, "z": -4.7226128578186035}, "status": {"flags": 33599, "velocity_variance": 0.10101775825023651, "pos_horiz_variance": 0.010631532408297062, "pos_vert_variance": 0.01251766923815012}}, "errors": ["PreArm: Hardware safety switch", "PreArm: GPS glitching", "PreArm: Internal errors 0x100000 l:66 flow_of_ctrl", "PreArm: Hardware safety switch", "PreArm: GPS glitching", "PreArm: Internal errors 0x100000 l:66 flow_of_ctrl"]}
{"timestamp": "2025-12-28T10:59:07.868446Z", "telemetry": {"lat": 28.753154, "lon": 77.1177396, "satellites": 9, "altitude_gps_m": 213.67999267578125, "groundspeed_mps": 0.05176735669374466}, "flight": {"mode": "LOITER", "armed": false}, "ekf": {"attitude": {"roll": -0.03339264169335365, "pitch": -0.0033051944337785244, "yaw": 3.0471935272216797}, "local_position": {"x": 8.322005271911621, "y": -13.472493171691895, "z": -4.758032321929932}, "status": {"flags": 33599, "velocity_variance": 0.3557782769203186, "pos_horiz_variance": 0.010660910047590733, "pos_vert_variance": 0.007653404027223587}}, "errors": ["PreArm: Hardware safety switch", "PreArm: GPS glitching", "PreArm: Internal errors 0x100000 l:66 flow_of_ctrl", "PreArm: Hardware safety switch", "PreArm: GPS glitching", "PreArm: Internal errors 0x100000 l:66 flow_of_ctrl"]}
{"timestamp": "2025-12-28T10:59:08.868467Z", "telemetry": {"lat": 28.7531613, "lon": 77.1177303, "satellites": 9, "altitude_gps_m": 213.77999877929688, "groundspeed_mps": 0.18380795419216156}, "flight": {"mode": "LOITER", "armed": false}, "ekf": {"attitude": {"roll": -0.031752388924360275, "pitch": -0.0018429369665682316, "yaw": 3.047258138656616}, "local_position": {"x": 8.7791109085083, "y": -13.873544692993164, "z": -4.85447883605957}, "status": {"flags": 33599, "velocity_variance": 0.18289130926132202, "pos_horiz_variance": 0.018142370507121086, "pos_vert_variance": 0.044275280088186264}}, "errors": ["PreArm: Hardware safety switch", "PreArm: GPS glitching", "PreArm: Internal errors 0x100000 l:66 flow_of_ctrl", "PreArm: Hardware safety switch", "PreArm: GPS glitching", "PreArm: Internal errors 0x100000 l:66 flow_of_ctrl"]}
{"timestamp": "2025-12-28T10:59:09.868673Z", "telemetry": {"lat": 28.7531621, "lon": 77.1177293, "satellites": 9, "altitude_gps_m": 213.739990234375, "groundspeed_mps": 0.26001718640327454}, "flight": {"mode": "LOITER", "armed": false}, "ekf": {"attitude": {"roll": -0.03139739856123924, "pitch": -0.0012165568768978119, "yaw": 3.047264575958252}, "local_position": {"x": 9.143147468566895, "y": -14.157122611999512, "z": -4.817956447601318}, "status": {"flags": 33599, "velocity_variance": 0.2058149129152298, "pos_horiz_variance": 0.01305142417550087, "pos_vert_variance": 0.005823394749313593}}, "errors": ["PreArm: Hardware safety switch", "PreArm: GPS glitching", "PreArm: Internal errors 0x100000 l:66 flow_of_ctrl", "PreArm: Hardware safety switch", "PreArm: GPS glitching", "PreArm: Internal errors 0x100000 l:66 flow_of_ctrl"]}
{"timestamp": "2025-12-28T10:59:10.868612Z", "telemetry": {"lat": 28.7531626, "lon": 77.1177288, "satellites": 9, "altitude_gps_m": 213.75999450683594, "groundspeed_mps": 0.2908974885940552}, "flight": {"mode": "LOITER", "armed": false}, "ekf": {"attitude": {"roll": -0.031188558787107468, "pitch": -0.0014611836522817612, "yaw": 3.0471885204315186}, "local_position": {"x": 9.40056324005127, "y": -14.33481502532959, "z": -4.837639331817627}, "status": {"flags": 33599, "velocity_variance": 0.14795100688934326, "pos_horiz_variance": 0.007553338538855314, "pos_vert_variance": 0.05480503663420677}}, "errors": ["PreArm: Hardware safety switch", "PreArm: GPS glitching", "PreArm: Internal errors 0x100000 l:66 flow_of_ctrl", "PreArm: Hardware safety switch", "PreArm: GPS glitching", "PreArm: Internal errors 0x100000 l:66 flow_of_ctrl"]}
{"timestamp": "2025-12-28T10:59:11.868661Z", "telemetry": {"lat": 28.7531592, "lon": 77.1177277, "satellites": 9, "altitude_gps_m": 213.80999755859375, "groundspeed_mps": 0.28469985723495483}, "flight": {"mode": "LOITER", "armed": false}, "ekf": {"attitude": {"roll": -0.030590947717428207, "pitch": -0.0023273779079318047, "yaw": 3.047105312347412}, "local_position": {"x": 9.42138385772705, "y": -14.585947036743164, "z": -4.887296676635742}, "status": {"flags": 33599, "velocity_variance": 0.14206993579864502, "pos_horiz_variance": 0.00153747305739671, "pos_vert_variance": 0.04497572407126427}}, "errors": ["PreArm: Hardware safety switch", "PreArm: GPS glitching", "PreArm: Internal errors 0x100000 l:66 flow_of_ctrl", "PreArm: Hardware safety switch", "PreArm: GPS glitching", "PreArm: Internal errors 0x100000 l:66 flow_of_ctrl"]}
{"timestamp": "2025-12-28T10:59:12.868876Z", "telemetry": {"lat": 28.7531543, "lon": 77.1177337, "satellites": 9, "altitude_gps_m": 213.79998779296875, "groundspeed_mps": 0.12141967564821243}, "flight": {"mode": "LOITER", "armed": false}, "ekf": {"attitude": {"roll": -0.03199043497443199, "pitch": -0.004236308392137289, "yaw": 3.0472586154937744}, "local_position": {"x": 9.063179969787598, "y": -14.341367721557617, "z": -4.878997802734375}, "status": {"flags": 33599, "velocity_variance": 0.2161725014448166, "pos_horiz_variance": 0.010866522789001465, "pos_vert_variance": 0.016490863636136055}}, "errors": ["PreArm: Hardware safety switch", "PreArm: GPS glitching", "PreArm: Internal errors 0x100000 l:66 flow_of_ctrl", "PreArm: Hardware safety switch", "PreArm: GPS glitching", "PreArm: Internal errors 0x100000 l:66 flow_of_ctrl"]}
{"timestamp": "2025-12-28T10:59:13.867992Z", "telemetry": {"lat": 28.7531645, "lon": 77.1177294, "satellites": 9, "altitude_gps_m": 213.75, "groundspeed_mps": 0.22601434588432312}, "flight": {"mode": "LOITER", "armed": false}, "ekf": {"attitude": {"roll": -0.032071586698293686, "pitch": -0.002202222589403391, "yaw": 3.0472965240478516}, "local_position": {"x": 9.452951431274414, "y": -14.406717300415039, "z": -4.851133346557617}, "status": {"flags": 33599, "velocity_variance": 0.603058397769928, "pos_horiz_variance": 0.01085546426475048, "pos_vert_variance": 0.04823961853981018}}, "errors": ["PreArm: Hardware safety switch", "PreArm: GPS glitching", "PreArm: Internal errors 0x100000 l:66 flow_of_ctrl", "PreArm: Hardware safety switch", "PreArm: GPS glitching", "PreArm: Internal errors 0x100000 l:66 flow_of_ctrl"]}
{"timestamp": "2025-12-28T10:59:14.868369Z", "telemetry": {"lat": 28.7531648, "lon": 77.1177352, "satellites": 9, "altitude_gps_m": 213.75999450683594, "groundspeed_mps": 0.20531494915485382}, "flight": {"mode": "LOITER", "armed": false}, "ekf": {"attitude": {"roll": -0.03283986821770668, "pitch": -0.0026392084546387196, "yaw": 3.0474350452423096}, "local_position": {"x": 9.680612564086914, "y": -14.129897117614746, "z": -4.841124534606934}, "status": {"flags": 33599, "velocity_variance": 0.3824878931045532, "pos_horiz_variance": 0.012039713561534882, "pos_vert_variance": 0.08097708225250244}}, "errors": ["PreArm: Hardware safety switch", "PreArm: GPS glitching", "PreArm: Internal errors 0x100000 l:66 flow_of_ctrl", "PreArm: Hardware safety switch", "PreArm: GPS glitching", "PreArm: Internal errors 0x100000 l:66 flow_of_ctrl"]}
{"timestamp": "2025-12-28T10:59:15.868729Z", "telemetry": {"lat": 28.7531692, "lon": 77.1177376, "satellites": 9, "altitude_gps_m": 213.76998901367188, "groundspeed_mps": 0.31137815117836}, "flight": {"mode": "LOITER", "armed": false}, "ekf": {"attitude": {"roll": -0.03355197235941887, "pitch": -0.00198467168956995, "yaw": 3.0475215911865234}, "local_position": {"x": 10.245878219604492, "y": -13.892971992492676, "z": -4.8460822105407715}, "status": {"flags": 33599, "velocity_variance": 0.2175644338130951, "pos_horiz_variance": 0.010478360578417778, "pos_vert_variance": 0.06185111775994301}}, "errors": ["PreArm: Hardware safety switch", "PreArm: GPS glitching", "PreArm: Internal errors 0x100000 l:66 flow_of_ctrl", "PreArm: Hardware safety switch", "PreArm: GPS glitching", "PreArm: Internal errors 0x100000 l:66 flow_of_ctrl"]}
{"timestamp": "2025-12-28T10:59:16.867994Z", "telemetry": {"lat": 28.7531706, "lon": 77.1177414, "satellites": 9, "altitude_gps_m": 213.87998962402344, "groundspeed_mps": 0.32921600341796875}, "flight": {"mode": "LOITER", "armed": false}, "ekf": {"attitude": {"roll": -0.03430934622883797, "pitch": -0.002488565631210804, "yaw": 3.0475876331329346}, "local_position": {"x": 10.49554443359375, "y": -13.59723949432373, "z": -4.95634651184082}, "status": {"flags": 33599, "velocity_variance": 0.4944387972354889, "pos_horiz_variance": 0.012071128934621811, "pos_vert_variance": 0.014661145396530628}}, "errors": ["PreArm: Hardware safety switch", "PreArm: GPS glitching", "PreArm: Internal errors 0x100000 l:66 flow_of_ctrl", "PreArm: Hardware safety switch", "PreArm: GPS glitching", "PreArm: Internal errors 0x100000 l:66 flow_of_ctrl"]}
{"timestamp": "2025-12-28T10:59:17.868391Z", "telemetry": {"lat": 28.7531756, "lon": 77.117744, "satellites": 9, "altitude_gps_m": 213.84999084472656, "groundspeed_mps": 0.4013001024723053}, "flight": {"mode": "LOITER", "armed": false}, "ekf": {"attitude": {"roll": -0.034933123737573624, "pitch": -0.002057715319097042, "yaw": 3.0476768016815186}, "local_position": {"x": 10.891039848327637, "y": -13.213761329650879, "z": -4.924032688140869}, "status": {"flags": 33599, "velocity_variance": 0.2182638794183731, "pos_horiz_variance": 0.01104990765452385, "pos_vert_variance": 0.007359004579484463}}, "errors": ["PreArm: Hardware safety switch", "PreArm: GPS glitching", "PreArm: Internal errors 0x100000 l:66 flow_of_ctrl", "PreArm: Hardware safety switch", "PreArm: GPS glitching", "PreArm: Internal errors 0x100000 l:66 flow_of_ctrl"]}
{"timestamp": "2025-12-28T10:59:18.868307Z", "telemetry": {"lat": 28.7531781, "lon": 77.1177419, "satellites": 9, "altitude_gps_m": 213.9199981689453, "groundspeed_mps": 0.3936989903450012}, "flight": {"mode": "LOITER", "armed": false}, "ekf": {"attitude": {"roll": -0.034253936260938644, "pitch": -0.0023733610287308693, "yaw": 3.0477068424224854}, "local_position": {"x": 11.20622730255127, "y": -13.173666954040527, "z": -4.98911190032959}, "status": {"flags": 33599, "velocity_variance": 0.2497873157262802, "pos_horiz_variance": 0.007039944175630808, "pos_vert_variance": 0.09485980868339539}}, "errors": ["PreArm: Hardware safety switch", "PreArm: GPS glitching", "PreArm: Internal errors 0x100000 l:66 flow_of_ctrl", "PreArm: Hardware safety switch", "PreArm: GPS glitching", "PreArm: Internal errors 0x100000 l:66 flow_of_ctrl"]}
{"timestamp": "2025-12-28T10:59:19.868259Z", "telemetry": {"lat": 28.7531753, "lon": 77.1177447, "satellites": 9, "altitude_gps_m": 213.75999450683594, "groundspeed_mps": 0.358035147190094}, "flight": {"mode": "LOITER", "armed": false}, "ekf": {"attitude": {"roll": -0.03429610654711723, "pitch": -0.0033700712956488132, "yaw": 3.047813892364502}, "local_position": {"x": 11.287620544433594, "y": -12.990757942199707, "z": -4.831645488739014}, "status": {"flags": 33599, "velocity_variance": 0.3023012578487396, "pos_horiz_variance": 0.005781515967100859, "pos_vert_variance": 0.014897666871547699}}, "errors": ["PreArm: Hardware safety switch", "PreArm: GPS glitching", "PreArm: Internal errors 0x100000 l:66 flow_of_ctrl", "PreArm: Hardware safety switch", "PreArm: GPS glitching", "PreArm: Internal errors 0x100000 l:66 flow_of_ctrl"]}
{"timestamp": "2025-12-28T10:59:20.868345Z", "telemetry": {"lat": 28.753176, "lon": 77.1177472, "satellites": 9, "altitude_gps_m": 213.72999572753906, "groundspeed_mps": 0.33709755539894104}, "flight": {"mode": "LOITER", "armed": false}, "ekf": {"attitude": {"roll": -0.03431661054491997, "pitch": -0.0038892007432878017, "yaw": 3.0479907989501953}, "local_position": {"x": 11.325626373291016, "y": -12.723747253417969, "z": -4.806187629699707}, "status": {"flags": 33599, "velocity_variance": 0.09175067394971848, "pos_horiz_variance": 0.00615796959027648, "pos_vert_variance": 0.018504897132515907}}, "errors": ["PreArm: Hardware safety switch", "PreArm: GPS glitching", "PreArm: Internal errors 0x100000 l:66 flow_of_ctrl", "PreArm: Hardware safety switch", "PreArm: GPS glitching", "PreArm: Internal errors 0x100000 l:66 flow_of_ctrl"]}
{"timestamp": "2025-12-28T10:59:21.868323Z", "telemetry": {"lat": 28.7531735, "lon": 77.1177534, "satellites": 9, "altitude_gps_m": 213.76998901367188, "groundspeed_mps": 0.3486585021018982}, "flight": {"mode": "LOITER", "armed": false}, "ekf": {"attitude": {"roll": -0.0350557379424572, "pitch": -0.005869173910468817, "yaw": 3.048215627670288}, "local_position": {"x": 11.197911262512207, "y": -12.201481819152832, "z": -4.8431267738342285}, "status": {"flags": 33599, "velocity_variance": 0.40008366107940674, "pos_horiz_variance": 0.009229459799826145, "pos_vert_variance": 0.019506040960550308}}, "errors": ["PreArm: Hardware safety switch", "PreArm: GPS glitching", "PreArm: Internal errors 0x100000 l:66 flow_of_ctrl", "PreArm: Hardware safety switch", "PreArm: GPS glitching", "PreArm: Internal errors 0x100000 l:66 flow_of_ctrl"]}
{"timestamp": "2025-12-28T10:59:22.868140Z", "telemetry": {"lat": 28.7531695, "lon": 77.1177568, "satellites": 9, "altitude_gps_m": 213.739990234375, "groundspeed_mps": 0.3667982518672943}, "flight": {"mode": "LOITER", "armed": false}, "ekf": {"attitude": {"roll": -0.034904491156339645, "pitch": -0.0075402227230370045, "yaw": 3.0483362674713135}, "local_position": {"x": 10.773366928100586, "y": -11.74273681640625, "z": -4.826740264892578}, "status": {"flags": 33599, "velocity_variance": 0.1545494943857193, "pos_horiz_variance": 0.00876106321811676, "pos_vert_variance": 0.009835745207965374}}, "errors": ["PreArm: Hardware safety switch", "PreArm: GPS glitching", "PreArm: Internal errors 0x100000 l:66 flow_of_ctrl", "PreArm: Hardware safety switch", "PreArm: GPS glitching", "PreArm: Internal errors 0x100000 l:66 flow_of_ctrl"]}
{"timestamp": "2025-12-28T10:59:23.868158Z", "telemetry": {"lat": 28.7531743, "lon": 77.1177526, "satellites": 9, "altitude_gps_m": 213.75, "groundspeed_mps": 0.3019707500934601}, "flight": {"mode": "LOITER", "armed": false}, "ekf": {"attitude": {"roll": -0.03349671885371208, "pitch": -0.007470718119293451, "yaw": 3.048434019088745}, "local_position": {"x": 10.792255401611328, "y": -11.695350646972656, "z": -4.823214530944824}, "status": {"flags": 33599, "velocity_variance": 0.29106441140174866, "pos_horiz_variance": 0.004797864705324173, "pos_vert_variance": 0.03965051844716072}}, "errors": ["PreArm: Hardware safety switch", "PreArm: GPS glitching", "PreArm: Internal errors 0x100000 l:66 flow_of_ctrl", "PreArm: Hardware safety switch", "PreArm: GPS glitching", "PreArm: Internal errors 0x100000 l:66 flow_of_ctrl"]}
{"timestamp": "2025-12-28T10:59:24.868019Z", "telemetry": {"lat": 28.7531718, "lon": 77.1177553, "satellites": 9, "altitude_gps_m": 213.77999877929688, "groundspeed_mps": 0.2909630835056305}, "flight": {"mode": "LOITER", "armed": false}, "ekf": {"attitude": {"roll": -0.03332455828785896, "pitch": -0.0074184429831802845, "yaw": 3.0484681129455566}, "local_position": {"x": 10.737669944763184, "y": -11.506214141845703, "z": -4.851694107055664}, "status": {"flags": 33599, "velocity_variance": 0.2021377980709076, "pos_horiz_variance": 0.0036583312321454287, "pos_vert_variance": 0.07765837758779526}}, "errors": ["PreArm: Hardware safety switch", "PreArm: GPS glitching", "PreArm: Internal errors 0x100000 l:66 flow_of_ctrl", "PreArm: Hardware safety switch", "PreArm: GPS glitching", "PreArm: Internal errors 0x100000 l:66 flow_of_ctrl"]}
{"timestamp": "2025-12-28T10:59:25.868088Z", "telemetry": {"lat": 28.7531672, "lon": 77.117758, "satellites": 9, "altitude_gps_m": 213.88999938964844, "groundspeed_mps": 0.28512731194496155}, "flight": {"mode": "LOITER", "armed": false}, "ekf": {"attitude": {"roll": -0.03270779177546501, "pitch": -0.008215481415390968, "yaw": 3.0484492778778076}, "local_position": {"x": 10.526313781738281, "y": -11.358741760253906, "z": -4.95821475982666}, "status": {"flags": 33599, "velocity_variance": 0.12404913455247879, "pos_horiz_variance": 0.007547988090664148, "pos_vert_variance": 0.013224147260189056}}, "errors": ["PreArm: Hardware safety switch", "PreArm: GPS glitching", "PreArm: Internal errors 0x100000 l:66 flow_of_ctrl", "PreArm: Hardware safety switch", "PreArm: GPS glitching", "PreArm: Internal errors 0x100000 l:66 flow_of_ctrl"]}
{"timestamp": "2025-12-28T10:59:26.868107Z", "telemetry": {"lat": 28.7531708, "lon": 77.1177575, "satellites": 9, "altitude_gps_m": 213.9099884033203, "groundspeed_mps": 0.2408435344696045}, "flight": {"mode": "LOITER", "armed": false}, "ekf": {"attitude": {"roll": -0.03202759101986885, "pitch": -0.007361740339547396, "yaw": 3.0484817028045654}, "local_position": {"x": 10.56773567199707, "y": -11.252429008483887, "z": -4.988273620605469}, "status": {"flags": 33599, "velocity_variance": 0.19142135977745056, "pos_horiz_variance": 0.004026350565254688, "pos_vert_variance": 0.005091548897325993}}, "errors": ["PreArm: Hardware safety switch", "PreArm: GPS glitching", "PreArm: Internal errors 0x100000 l:66 flow_of_ctrl", "PreArm: Hardware safety switch", "PreArm: GPS glitching", "PreArm: Internal errors 0x100000 l:66 flow_of_ctrl"]}
{"timestamp": "2025-12-28T10:59:27.868222Z", "telemetry": {"lat": 28.7531676, "lon": 77.1177561, "satellites": 9, "altitude_gps_m": 213.9499969482422, "groundspeed_mps": 0.24506503343582153}, "flight": {"mode": "LOITER", "armed": false}, "ekf": {"attitude": {"roll": -0.03111043944954872, "pitch": -0.008642351254820824, "yaw": 3.048513650894165}, "local_position": {"x": 10.22954273223877, "y": -11.245942115783691, "z": -5.030127048492432}, "status": {"flags": 33599, "velocity_variance": 0.24197621643543243, "pos_horiz_variance": 0.007477711420506239, "pos_vert_variance": 0.012857186608016491}}, "errors": ["PreArm: Hardware safety switch", "PreArm: GPS glitching", "PreArm: Internal errors 0x100000 l:66 flow_of_ctrl", "PreArm: Hardware safety switch", "PreArm: GPS glitching", "PreArm: Internal errors 0x100000 l:66 flow_of_ctrl"]}
{"timestamp": "2025-12-28T10:59:28.868388Z", "telemetry": {"lat": 28.7531638, "lon": 77.1177545, "satellites": 9, "altitude_gps_m": 214.0, "groundspeed_mps": 0.30070826411247253}, "flight": {"mode": "LOITER", "armed": false}, "ekf": {"attitude": {"roll": -0.03034164384007454, "pitch": -0.009800715371966362, "yaw": 3.048407554626465}, "local_position": {"x": 9.784790992736816, "y": -11.282114028930664, "z": -5.075982570648193}, "status": {"flags": 33599, "velocity_variance": 0.2032938301563263, "pos_horiz_variance": 0.009956040419638157, "pos_vert_variance": 0.005329824052751064}}, "errors": ["PreArm: Hardware safety switch", "PreArm: GPS glitching", "PreArm: Internal errors 0x100000 l:66 flow_of_ctrl", "PreArm: Hardware safety switch", "PreArm: GPS glitching", "PreArm: Internal errors 0x100000 l:66 flow_of_ctrl"]}
{"timestamp": "2025-12-28T10:59:29.868010Z", "telemetry": {"lat": 28.7531566, "lon": 77.1177551, "satellites": 9, "altitude_gps_m": 213.92999267578125, "groundspeed_mps": 0.3802584409713745}, "flight": {"mode": "LOITER", "armed": false}, "ekf": {"attitude": {"roll": -0.02968573197722435, "pitch": -0.010644974187016487, "yaw": 3.0484607219696045}, "local_position": {"x": 9.273478507995605, "y": -11.302191734313965, "z": -5.007882595062256}, "status": {"flags": 33599, "velocity_variance": 0.48256197571754456, "pos_horiz_variance": 0.011800890788435936, "pos_vert_variance": 0.09424633532762527}}, "errors": ["PreArm: Hardware safety switch", "PreArm: GPS glitching", "PreArm: Internal errors 0x100000 l:66 flow_of_ctrl", "PreArm: Hardware safety switch", "PreArm: GPS glitching", "PreArm: Internal errors 0x100000 l:66 flow_of_ctrl"]}
{"timestamp": "2025-12-28T10:59:30.868218Z", "telemetry": {"lat": 28.7531462, "lon": 77.1177536, "satellites": 9, "altitude_gps_m": 213.94000244140625, "groundspeed_mps": 0.5551038384437561}, "flight": {"mode": "LOITER", "armed": false}, "ekf": {"attitude": {"roll": -0.02812488004565239, "pitch": -0.012474771589040756, "yaw": 3.0482678413391113}, "local_position": {"x": 8.587944984436035, "y": -11.568547248840332, "z": -5.009659767150879}, "status": {"flags": 33599, "velocity_variance": 0.4623340964317322, "pos_horiz_variance": 0.019134124740958214, "pos_vert_variance": 0.023932011798024178}}, "errors": ["PreArm: Hardware safety switch", "PreArm: GPS glitching", "PreArm: Internal errors 0x100000 l:66 flow_of_ctrl", "PreArm: Hardware safety switch", "PreArm: GPS glitching", "PreArm: Internal errors 0x100000 l:66 flow_of_ctrl"]}
{"timestamp": "2025-12-28T10:59:31.868296Z", "telemetry": {"lat": 28.7531275, "lon": 77.1177574, "satellites": 8, "altitude_gps_m": 213.8699951171875, "groundspeed_mps": 0.758602499961853}, "flight": {"mode": "LOITER", "armed": false}, "ekf": {"attitude": {"roll": -0.027957681566476822, "pitch": -0.01482933945953846, "yaw": 3.047995090484619}, "local_position": {"x": 7.216710090637207, "y": -11.653398513793945, "z": -4.946588516235352}, "status": {"flags": 33599, "velocity_variance": 0.3273635506629944, "pos_horiz_variance": 0.03119516186416149, "pos_vert_variance": 0.026373716071248055}}, "errors": ["PreArm: Hardware safety switch", "PreArm: GPS glitching", "PreArm: Internal errors 0x100000 l:66 flow_of_ctrl", "PreArm: Hardware safety switch", "PreArm: GPS glitching", "PreArm: Internal errors 0x100000 l:66 flow_of_ctrl"]}
{"timestamp": "2025-12-28T10:59:32.867947Z", "telemetry": {"lat": 28.7531182, "lon": 77.1177593, "satellites": 9, "altitude_gps_m": 213.94000244140625, "groundspeed_mps": 0.9525108337402344}, "flight": {"mode": "LOITER", "armed": false}, "ekf": {"attitude": {"roll": -0.027898047119379044, "pitch": -0.01576097309589386, "yaw": 3.0479209423065186}, "local_position": {"x": 5.881692886352539, "y": -11.497013092041016, "z": -5.01486873626709}, "status": {"flags": 33599, "velocity_variance": 0.315788596868515, "pos_horiz_variance": 0.02684829570353031, "pos_vert_variance": 0.010202002711594105}}, "errors": ["PreArm: Hardware safety switch", "PreArm: GPS glitching", "PreArm: Internal errors 0x100000 l:66 flow_of_ctrl", "PreArm: Hardware safety switch", "PreArm: GPS glitching", "PreArm: Internal errors 0x100000 l:66 flow_of_ctrl"]}
{"timestamp": "2025-12-28T10:59:33.868046Z", "telemetry": {"lat": 28.7531175, "lon": 77.1177602, "satellites": 9, "altitude_gps_m": 214.0399932861328, "groundspeed_mps": 0.9442775249481201}, "flight": {"mode": "LOITER", "armed": false}, "ekf": {"attitude": {"roll": -0.028310250490903854, "pitch": -0.014047836884856224, "yaw": 3.0477352142333984}, "local_position": {"x": 5.19810676574707, "y": -11.345375061035156, "z": -5.112743377685547}, "status": {"flags": 33599, "velocity_variance": 0.3016121983528137, "pos_horiz_variance": 0.015501894056797028, "pos_vert_variance": 0.0218494962900877}}, "errors": ["PreArm: Hardware safety switch", "PreArm: GPS glitching", "PreArm: Internal errors 0x100000 l:66 flow_of_ctrl", "PreArm: Hardware safety switch", "PreArm: GPS glitching", "PreArm: Internal errors 0x100000 l:66 flow_of_ctrl", "PreArm: Hardware safety switch", "PreArm: GPS glitching", "PreArm: Internal errors 0x100000 l:66 flow_of_ctrl"]}
{"timestamp": "2025-12-28T10:59:34.868361Z", "telemetry": {"lat": 28.7531144, "lon": 77.1177607, "satellites": 9, "altitude_gps_m": 214.1699981689453, "groundspeed_mps": 0.9196491241455078}, "flight": {"mode": "LOITER", "armed": false}, "ekf": {"attitude": {"roll": -0.028353843837976456, "pitch": -0.0133135374635458, "yaw": 3.047642946243286}, "local_position": {"x": 4.598381996154785, "y": -11.235754013061523, "z": -5.2477030754089355}, "status": {"flags": 33599, "velocity_variance": 0.3084646463394165, "pos_horiz_variance": 0.01005160715430975, "pos_vert_variance": 0.047122348099946976}}, "errors": ["PreArm: Hardware safety switch", "PreArm: GPS glitching", "PreArm: Internal errors 0x100000 l:66 flow_of_ctrl", "PreArm: Hardware safety switch", "PreArm: GPS glitching", "PreArm: Internal errors 0x100000 l:66 flow_of_ctrl", "PreArm: Hardware safety switch", "PreArm: GPS glitching", "PreArm: Internal errors 0x100000 l:66 flow_of_ctrl"]}
{"timestamp": "2025-12-28T10:59:35.867865Z", "telemetry": {"lat": 28.7531087, "lon": 77.1177635, "satellites": 8, "altitude_gps_m": 214.14999389648438, "groundspeed_mps": 0.9797516465187073}, "flight": {"mode": "LOITER", "armed": false}, "ekf": {"attitude": {"roll": -0.029461849480867386, "pitch": -0.013079501688480377, "yaw": 3.04731822013855}, "local_position": {"x": 3.6749684810638428, "y": -10.987471580505371, "z": -5.228748798370361}, "status": {"flags": 33599, "velocity_variance": 0.26815152168273926, "pos_horiz_variance": 0.00473033357411623, "pos_vert_variance": 0.023723609745502472}}, "errors": ["PreArm: Hardware safety switch", "PreArm: GPS glitching", "PreArm: Internal errors 0x100000 l:66 flow_of_ctrl", "PreArm: Hardware safety switch", "PreArm: GPS glitching", "PreArm: Internal errors 0x100000 l:66 flow_of_ctrl", "PreArm: Hardware safety switch", "PreArm: GPS glitching", "PreArm: Internal errors 0x100000 l:66 flow_of_ctrl"]}
{"timestamp": "2025-12-28T10:59:36.868829Z", "telemetry": {"lat": 28.7531106, "lon": 77.1177653, "satellites": 8, "altitude_gps_m": 214.22000122070312, "groundspeed_mps": 0.849724292755127}, "flight": {"mode": "LOITER", "armed": false}, "ekf": {"attitude": {"roll": -0.029893387109041214, "pitch": -0.010299548506736755, "yaw": 3.047222852706909}, "local_position": {"x": 3.427905559539795, "y": -10.751446723937988, "z": -5.290109634399414}, "status": {"flags": 33599, "velocity_variance": 0.26420843601226807, "pos_horiz_variance": 0.004197067581117153, "pos_vert_variance": 0.050780896097421646}}, "errors": ["PreArm: Hardware safety switch", "PreArm: GPS glitching", "PreArm: Internal errors 0x100000 l:66 flow_of_ctrl", "PreArm: Hardware safety switch", "PreArm: GPS glitching", "PreArm: Internal errors 0x100000 l:66 flow_of_ctrl", "PreArm: Hardware safety switch", "PreArm: GPS glitching", "PreArm: Internal errors 0x100000 l:66 flow_of_ctrl"]}
{"timestamp": "2025-12-28T10:59:37.868823Z", "telemetry": {"lat": 28.7531153, "lon": 77.117763, "satellites": 8, "altitude_gps_m": 214.20999145507812, "groundspeed_mps": 0.6407738327980042}, "flight": {"mode": "LOITER", "armed": false}, "ekf": {"attitude": {"roll": -0.029727760702371597, "pitch": -0.0065962993539869785, "yaw": 3.047227144241333}, "local_position": {"x": 3.2709479331970215, "y": -10.807976722717285, "z": -5.266747951507568}, "status": {"flags": 33599, "velocity_variance": 0.5201420783996582, "pos_horiz_variance": 0.018898481503129005, "pos_vert_variance": 0.00535239465534687}}, "errors": ["PreArm: Hardware safety switch", "PreArm: GPS glitching", "PreArm: Internal errors 0x100000 l:66 flow_of_ctrl", "PreArm: Hardware safety switch", "PreArm: GPS glitching", "PreArm: Internal errors 0x100000 l:66 flow_of_ctrl", "PreArm: Hardware safety switch", "PreArm: GPS glitching", "PreArm: Internal errors 0x100000 l:66 flow_of_ctrl"]}
{"timestamp": "2025-12-28T10:59:38.868102Z", "telemetry": {"lat": 28.7531169, "lon": 77.1177638, "satellites": 8, "altitude_gps_m": 214.19000244140625, "groundspeed_mps": 0.5104954242706299}, "flight": {"mode": "LOITER", "armed": false}, "ekf": {"attitude": {"roll": -0.02989577129483223, "pitch": -0.005051426123827696, "yaw": 3.047147035598755}, "local_position": {"x": 3.4835081100463867, "y": -10.830644607543945, "z": -5.266908645629883}, "status": {"flags": 33599, "velocity_variance": 0.09915010631084442, "pos_horiz_variance": 0.017999593168497086, "pos_vert_variance": 0.08815153688192368}}, "errors": ["PreArm: Hardware safety switch", "PreArm: GPS glitching", "PreArm: Internal errors 0x100000 l:66 flow_of_ctrl", "PreArm: Hardware safety switch", "PreArm: GPS glitching", "PreArm: Internal errors 0x100000 l:66 flow_of_ctrl", "PreArm: Hardware safety switch", "PreArm: GPS glitching", "PreArm: Internal errors 0x100000 l:66 flow_of_ctrl"]}
{"timestamp": "2025-12-28T10:59:39.868185Z", "telemetry": {"lat": 28.7531131, "lon": 77.117766, "satellites": 8, "altitude_gps_m": 214.12998962402344, "groundspeed_mps": 0.4192553460597992}, "flight": {"mode": "LOITER", "armed": false}, "ekf": {"attitude": {"roll": -0.030109506100416183, "pitch": -0.0041553252376616, "yaw": 3.0471692085266113}, "local_position": {"x": 3.402006149291992, "y": -10.777156829833984, "z": -5.2096333503723145}, "status": {"flags": 33599, "velocity_variance": 0.2869316041469574, "pos_horiz_variance": 0.012572571635246277, "pos_vert_variance": 0.03628990426659584}}, "errors": ["PreArm: Hardware safety switch", "PreArm: GPS glitching", "PreArm: Internal errors 0x100000 l:66 flow_of_ctrl", "PreArm: Hardware safety switch", "PreArm: GPS glitching", "PreArm: Internal errors 0x100000 l:66 flow_of_ctrl", "PreArm: Hardware safety switch", "PreArm: GPS glitching", "PreArm: Internal errors 0x100000 l:66 flow_of_ctrl"]}
{"timestamp": "2025-12-28T10:59:40.868031Z", "telemetry": {"lat": 28.7531049, "lon": 77.117768, "satellites": 8, "altitude_gps_m": 214.08999633789062, "groundspeed_mps": 0.49372032284736633}, "flight": {"mode": "LOITER", "armed": false}, "ekf": {"attitude": {"roll": -0.030362281948328018, "pitch": -0.0047264969907701015, "yaw": 3.047189950942993}, "local_position": {"x": 2.692992687225342, "y": -10.698613166809082, "z": -5.161291122436523}, "status": {"flags": 33599, "velocity_variance": 0.4476436674594879, "pos_horiz_variance": 0.007939494214951992, "pos_vert_variance": 0.058881666511297226}}, "errors": ["PreArm: Hardware safety switch", "PreArm: GPS glitching", "PreArm: Internal errors 0x100000 l:66 flow_of_ctrl", "PreArm: Hardware safety switch", "PreArm: GPS glitching", "PreArm: Internal errors 0x100000 l:66 flow_of_ctrl", "PreArm: Hardware safety switch", "PreArm: GPS glitching", "PreArm: Internal errors 0x100000 l:66 flow_of_ctrl"]}
