{"timestamp": "2025-12-15T10:54:34.679613Z", "telemetry": {"lat": 28.7525531, "lon": 77.1174906, "satellites": 0, "altitude_gps_m": -0.22999998927116394, "groundspeed_mps": 0.017486123368144035}, "flight": {"mode": "STABILIZE", "armed": false}, "ekf": {"attitude": {"roll": -0.05706707760691643, "pitch": -0.024566443637013435, "yaw": -0.9313926100730896}, "local_position": {"x": null, "y": null, "z": null}, "status": {"flags": 135, "velocity_variance": 0.0, "pos_horiz_variance": 0.003086570417508483, "pos_vert_variance": 0.11495349556207657}}, "errors": []}
{"timestamp": "2025-12-15T10:54:35.679514Z", "telemetry": {"lat": 28.7525531, "lon": 77.1174906, "satellites": 0, "altitude_gps_m": -0.22999998927116394, "groundspeed_mps": 0.021201130002737045}, "flight": {"mode": "STABILIZE", "armed": false}, "ekf": {"attitude": {"roll": -0.05677243694663048, "pitch": -0.024653807282447815, "yaw": -0.9322723746299744}, "local_position": {"x": null, "y": null, "z": null}, "status": {"flags": 135, "velocity_variance": 0.0, "pos_horiz_variance": 0.0032918942160904408, "pos_vert_variance": 0.12791620194911957}}, "errors": []}
{"timestamp": "2025-12-15T10:54:36.679925Z", "telemetry": {"lat": 28.7525531, "lon": 77.1174906, "satellites": 0, "altitude_gps_m": -0.22999998927116394, "groundspeed_mps": 0.02223195694386959}, "flight": {"mode": "STABILIZE", "armed": false}, "ekf": {"attitude": {"roll": -0.05695759132504463, "pitch": -0.02490285225212574, "yaw": -0.9340469241142273}, "local_position": {"x": null, "y": null, "z": null}, "status": {"flags": 135, "velocity_variance": 0.0, "pos_horiz_variance": 0.003992150072008371, "pos_vert_variance": 0.02437085472047329}}, "errors": []}
{"timestamp": "2025-12-15T10:54:37.679343Z", "telemetry": {"lat": 28.7525531, "lon": 77.1174906, "satellites": 0, "altitude_gps_m": -0.22999998927116394, "groundspeed_mps": 0.028473801910877228}, "flight": {"mode": "STABILIZE", "armed": false}, "ekf": {"attitude": {"roll": -0.05716792866587639, "pitch": -0.02501698210835457, "yaw": -0.9344587922096252}, "local_position": {"x": null, "y": null, "z": null}, "status": {"flags": 135, "velocity_variance": 0.0, "pos_horiz_variance": 0.00465411739423871, "pos_vert_variance": 0.017305172979831696}}, "errors": []}
{"timestamp": "2025-12-15T10:54:38.679806Z", "telemetry": {"lat": 28.7525531, "lon": 77.1174906, "satellites": 0, "altitude_gps_m": -0.22999998927116394, "groundspeed_mps": 0.033773381263017654}, "flight": {"mode": "STABILIZE", "armed": false}, "ekf": {"attitude": {"roll": -0.05730104818940163, "pitch": -0.02529258280992508, "yaw": -0.9352211356163025}, "local_position": {"x": null, "y": null, "z": null}, "status": {"flags": 135, "velocity_variance": 0.0, "pos_horiz_variance": 0.006132793612778187, "pos_vert_variance": 0.08984158933162689}}, "errors": []}
{"timestamp": "2025-12-15T10:54:39.679338Z", "telemetry": {"lat": 28.7525531, "lon": 77.1174906, "satellites": 0, "altitude_gps_m": -0.22999998927116394, "groundspeed_mps": 0.03742944449186325}, "flight": {"mode": "STABILIZE", "armed": false}, "ekf": {"attitude": {"roll": -0.057159919291734695, "pitch": -0.02534680813550949, "yaw": -0.934989333152771}, "local_position": {"x": null, "y": null, "z": null}, "status": {"flags": 135, "velocity_variance": 0.0, "pos_horiz_variance": 0.007385305128991604, "pos_vert_variance": 0.0429200753569603}}, "errors": []}
{"timestamp": "2025-12-15T10:54:40.679869Z", "telemetry": {"lat": 28.7525531, "lon": 77.1174906, "satellites": 0, "altitude_gps_m": -0.22999998927116394, "groundspeed_mps": 0.04126423969864845}, "flight": {"mode": "STABILIZE", "armed": false}, "ekf": {"attitude": {"roll": -0.05746139958500862, "pitch": -0.02536909282207489, "yaw": -0.9360324144363403}, "local_position": {"x": null, "y": null, "z": null}, "status": {"flags": 135, "velocity_variance": 0.0, "pos_horiz_variance": 0.008141845464706421, "pos_vert_variance": 0.02180078625679016}}, "errors": []}
{"timestamp": "2025-12-15T10:54:41.679569Z", "telemetry": {"lat": 28.7525531, "lon": 77.1174906, "satellites": 0, "altitude_gps_m": -0.22999998927116394, "groundspeed_mps": 0.04407525062561035}, "flight": {"mode": "STABILIZE", "armed": false}, "ekf": {"attitude": {"roll": -0.05746079608798027, "pitch": -0.025538887828588486, "yaw": -0.9363915920257568}, "local_position": {"x": null, "y": null, "z": null}, "status": {"flags": 135, "velocity_variance": 0.0, "pos_horiz_variance": 0.00885679293423891, "pos_vert_variance": 0.013434392400085926}}, "errors": []}
{"timestamp": "2025-12-15T10:54:42.685123Z", "telemetry": {"lat": 28.7525531, "lon": 77.1174906, "satellites": 0, "altitude_gps_m": -0.22999998927116394, "groundspeed_mps": 0.04660104960203171}, "flight": {"mode": "STABILIZE", "armed": false}, "ekf": {"attitude": {"roll": -0.05753648653626442, "pitch": -0.025685900822281837, "yaw": -0.9361934661865234}, "local_position": {"x": null, "y": null, "z": null}, "status": {"flags": 135, "velocity_variance": 0.0, "pos_horiz_variance": 0.009797096252441406, "pos_vert_variance": 0.20211610198020935}}, "errors": ["PreArm: RC not found", "PreArm: Hardware safety switch"]}
{"timestamp": "2025-12-15T10:54:43.680560Z", "telemetry": {"lat": 28.7525531, "lon": 77.1174906, "satellites": 0, "altitude_gps_m": -0.22999998927116394, "groundspeed_mps": 0.05106451362371445}, "flight": {"mode": "STABILIZE", "armed": false}, "ekf": {"attitude": {"roll": -0.05722682550549507, "pitch": -0.025826293975114822, "yaw": -0.9373001456260681}, "local_position": {"x": null, "y": null, "z": null}, "status": {"flags": 135, "velocity_variance": 0.0, "pos_horiz_variance": 0.010849918238818645, "pos_vert_variance": 0.021315641701221466}}, "errors": ["PreArm: RC not found", "PreArm: Hardware safety switch"]}
{"timestamp": "2025-12-15T10:54:44.680162Z", "telemetry": {"lat": 28.7525531, "lon": 77.1174906, "satellites": 0, "altitude_gps_m": -0.22999998927116394, "groundspeed_mps": 0.05349525436758995}, "flight": {"mode": "STABILIZE", "armed": false}, "ekf": {"attitude": {"roll": -0.0570586659014225, "pitch": -0.02591368556022644, "yaw": -0.93731689453125}, "local_position": {"x": null, "y": null, "z": null}, "status": {"flags": 135, "velocity_variance": 0.0, "pos_horiz_variance": 0.011622646823525429, "pos_vert_variance": 0.10154996067285538}}, "errors": ["PreArm: RC not found", "PreArm: Hardware safety switch"]}
{"timestamp": "2025-12-15T10:54:45.679492Z", "telemetry": {"lat": 28.7525531, "lon": 77.1174906, "satellites": 0, "altitude_gps_m": -0.22999998927116394, "groundspeed_mps": 0.05461646616458893}, "flight": {"mode": "STABILIZE", "armed": false}, "ekf": {"attitude": {"roll": -0.05669501796364784, "pitch": -0.026211127638816833, "yaw": -0.9367433786392212}, "local_position": {"x": null, "y": null, "z": null}, "status": {"flags": 135, "velocity_variance": 0.0, "pos_horiz_variance": 0.012102035805583, "pos_vert_variance": 0.1366139054298401}}, "errors": ["PreArm: RC not found", "PreArm: Hardware safety switch"]}
{"timestamp": "2025-12-15T10:54:46.679319Z", "telemetry": {"lat": 28.7525531, "lon": 77.1174906, "satellites": 0, "altitude_gps_m": -0.22999998927116394, "groundspeed_mps": 0.056005820631980896}, "flight": {"mode": "STABILIZE", "armed": false}, "ekf": {"attitude": {"roll": -0.05677274987101555, "pitch": -0.02644776552915573, "yaw": -0.936588704586029}, "local_position": {"x": null, "y": null, "z": null}, "status": {"flags": 135, "velocity_variance": 0.0, "pos_horiz_variance": 0.012551304884254932, "pos_vert_variance": 0.0032639713026583195}}, "errors": ["PreArm: RC not found", "PreArm: Hardware safety switch"]}
{"timestamp": "2025-12-15T10:54:47.679936Z", "telemetry": {"lat": 28.7525531, "lon": 77.1174906, "satellites": 0, "altitude_gps_m": -0.22999998927116394, "groundspeed_mps": 0.06083618476986885}, "flight": {"mode": "STABILIZE", "armed": false}, "ekf": {"attitude": {"roll": -0.05684215947985649, "pitch": -0.026651736348867416, "yaw": -0.936747133731842}, "local_position": {"x": null, "y": null, "z": null}, "status": {"flags": 135, "velocity_variance": 0.0, "pos_horiz_variance": 0.01318211667239666, "pos_vert_variance": 0.06929690390825272}}, "errors": ["PreArm: RC not found", "PreArm: Hardware safety switch"]}
{"timestamp": "2025-12-15T10:54:48.679864Z", "telemetry": {"lat": 28.7525531, "lon": 77.1174906, "satellites": 0, "altitude_gps_m": -0.22999998927116394, "groundspeed_mps": 0.06492622196674347}, "flight": {"mode": "STABILIZE", "armed": false}, "ekf": {"attitude": {"roll": -0.056908827275037766, "pitch": -0.0268461462110281, "yaw": -0.9371347427368164}, "local_position": {"x": null, "y": null, "z": null}, "status": {"flags": 135, "velocity_variance": 0.0, "pos_horiz_variance": 0.014190702699124813, "pos_vert_variance": 0.09676597267389297}}, "errors": ["PreArm: RC not found", "PreArm: Hardware safety switch"]}
{"timestamp": "2025-12-15T10:54:49.679751Z", "telemetry": {"lat": 28.7525531, "lon": 77.1174906, "satellites": 0, "altitude_gps_m": -0.22999998927116394, "groundspeed_mps": 0.06920384615659714}, "flight": {"mode": "STABILIZE", "armed": false}, "ekf": {"attitude": {"roll": -0.05685817077755928, "pitch": -0.027116652578115463, "yaw": -0.9372762441635132}, "local_position": {"x": null, "y": null, "z": null}, "status": {"flags": 135, "velocity_variance": 0.0, "pos_horiz_variance": 0.015078105032444, "pos_vert_variance": 0.019950060173869133}}, "errors": ["PreArm: RC not found", "PreArm: Hardware safety switch"]}
{"timestamp": "2025-12-15T10:54:50.679931Z", "telemetry": {"lat": 28.7525531, "lon": 77.1174906, "satellites": 0, "altitude_gps_m": -0.22999998927116394, "groundspeed_mps": 0.07099400460720062}, "flight": {"mode": "STABILIZE", "armed": false}, "ekf": {"attitude": {"roll": -0.05694787576794624, "pitch": -0.027096252888441086, "yaw": -0.937708854675293}, "local_position": {"x": null, "y": null, "z": null}, "status": {"flags": 135, "velocity_variance": 0.0, "pos_horiz_variance": 0.015936030074954033, "pos_vert_variance": 0.13241024315357208}}, "errors": ["PreArm: RC not found", "PreArm: Hardware safety switch"]}
{"timestamp": "2025-12-15T10:54:51.685510Z", "telemetry": {"lat": 28.7525531, "lon": 77.1174906, "satellites": 0, "altitude_gps_m": -0.22999998927116394, "groundspeed_mps": 0.0745968446135521}, "flight": {"mode": "STABILIZE", "armed": false}, "ekf": {"attitude": {"roll": -0.05691998824477196, "pitch": -0.027150629088282585, "yaw": -0.9370166063308716}, "local_position": {"x": null, "y": null, "z": null}, "status": {"flags": 135, "velocity_variance": 0.0, "pos_horiz_variance": 0.016669224947690964, "pos_vert_variance": 0.09351698309183121}}, "errors": ["PreArm: RC not found", "PreArm: Hardware safety switch"]}
{"timestamp": "2025-12-15T10:54:52.686934Z", "telemetry": {"lat": 28.7525531, "lon": 77.1174906, "satellites": 0, "altitude_gps_m": -0.22999998927116394, "groundspeed_mps": 0.07905881851911545}, "flight": {"mode": "STABILIZE", "armed": false}, "ekf": {"attitude": {"roll": -0.057022709399461746, "pitch": -0.027232937514781952, "yaw": -0.9368969798088074}, "local_position": {"x": null, "y": null, "z": null}, "status": {"flags": 135, "velocity_variance": 0.0, "pos_horiz_variance": 0.017487995326519012, "pos_vert_variance": 0.0915299504995346}}, "errors": ["PreArm: RC not found", "PreArm: Hardware safety switch"]}
{"timestamp": "2025-12-15T10:54:53.683034Z", "telemetry": {"lat": 28.7525531, "lon": 77.1174906, "satellites": 0, "altitude_gps_m": -0.22999998927116394, "groundspeed_mps": 0.08058968931436539}, "flight": {"mode": "STABILIZE", "armed": false}, "ekf": {"attitude": {"roll": -0.05707412585616112, "pitch": -0.027453621849417686, "yaw": -0.9366986155509949}, "local_position": {"x": null, "y": null, "z": null}, "status": {"flags": 135, "velocity_variance": 0.0, "pos_horiz_variance": 0.018550237640738487, "pos_vert_variance": 0.19738821685314178}}, "errors": ["PreArm: RC not found", "PreArm: Hardware safety switch"]}
{"timestamp": "2025-12-15T10:54:54.679300Z", "telemetry": {"lat": 28.7525531, "lon": 77.1174906, "satellites": 0, "altitude_gps_m": -0.22999998927116394, "groundspeed_mps": 0.08083004504442215}, "flight": {"mode": "STABILIZE", "armed": false}, "ekf": {"attitude": {"roll": -0.05587920919060707, "pitch": -0.027317874133586884, "yaw": -0.9368002414703369}, "local_position": {"x": null, "y": null, "z": null}, "status": {"flags": 135, "velocity_variance": 0.0, "pos_horiz_variance": 0.019108448177576065, "pos_vert_variance": 0.019320979714393616}}, "errors": ["PreArm: RC not found", "PreArm: Hardware safety switch"]}
{"timestamp": "2025-12-15T10:54:55.679185Z", "telemetry": {"lat": 28.7525531, "lon": 77.1174906, "satellites": 0, "altitude_gps_m": -0.22999998927116394, "groundspeed_mps": 0.0826101154088974}, "flight": {"mode": "STABILIZE", "armed": false}, "ekf": {"attitude": {"roll": -0.05589855834841728, "pitch": -0.02737049013376236, "yaw": -0.9367232918739319}, "local_position": {"x": null, "y": null, "z": null}, "status": {"flags": 135, "velocity_variance": 0.0, "pos_horiz_variance": 0.01939408667385578, "pos_vert_variance": 0.36966872215270996}}, "errors": ["PreArm: RC not found", "PreArm: Hardware safety switch"]}
{"timestamp": "2025-12-15T10:54:56.679620Z", "telemetry": {"lat": 28.7525531, "lon": 77.1174906, "satellites": 0, "altitude_gps_m": -0.22999998927116394, "groundspeed_mps": 0.08354131877422333}, "flight": {"mode": "STABILIZE", "armed": false}, "ekf": {"attitude": {"roll": -0.05610083416104317, "pitch": -0.02741122804582119, "yaw": -0.9371910691261292}, "local_position": {"x": null, "y": null, "z": null}, "status": {"flags": 135, "velocity_variance": 0.0, "pos_horiz_variance": 0.019843686372041702, "pos_vert_variance": 0.05844941362738609}}, "errors": ["PreArm: RC not found", "PreArm: Hardware safety switch"]}
{"timestamp": "2025-12-15T10:54:57.680241Z", "telemetry": {"lat": 28.7525531, "lon": 77.1174906, "satellites": 0, "altitude_gps_m": -0.22999998927116394, "groundspeed_mps": 0.08582653850317001}, "flight": {"mode": "STABILIZE", "armed": false}, "ekf": {"attitude": {"roll": -0.056745704263448715, "pitch": -0.027594510465860367, "yaw": -0.936836838722229}, "local_position": {"x": null, "y": null, "z": null}, "status": {"flags": 135, "velocity_variance": 0.0, "pos_horiz_variance": 0.020277198404073715, "pos_vert_variance": 0.10473606735467911}}, "errors": ["PreArm: RC not found", "PreArm: Hardware safety switch"]}
{"timestamp": "2025-12-15T10:54:58.679213Z", "telemetry": {"lat": 28.7525531, "lon": 77.1174906, "satellites": 0, "altitude_gps_m": -0.22999998927116394, "groundspeed_mps": 0.08399970829486847}, "flight": {"mode": "STABILIZE", "armed": false}, "ekf": {"attitude": {"roll": -0.056692976504564285, "pitch": -0.027709854766726494, "yaw": -0.937145471572876}, "local_position": {"x": null, "y": null, "z": null}, "status": {"flags": 135, "velocity_variance": 0.0, "pos_horiz_variance": 0.02027379907667637, "pos_vert_variance": 0.06591290980577469}}, "errors": ["PreArm: RC not found", "PreArm: Hardware safety switch"]}
{"timestamp": "2025-12-15T10:54:59.679281Z", "telemetry": {"lat": 28.7525531, "lon": 77.1174906, "satellites": 0, "altitude_gps_m": -0.22999998927116394, "groundspeed_mps": 0.08743590861558914}, "flight": {"mode": "STABILIZE", "armed": false}, "ekf": {"attitude": {"roll": -0.05619010701775551, "pitch": -0.027783691883087158, "yaw": -0.936663031578064}, "local_position": {"x": null, "y": null, "z": null}, "status": {"flags": 135, "velocity_variance": 0.0, "pos_horiz_variance": 0.0203789584338665, "pos_vert_variance": 0.2724746763706207}}, "errors": ["PreArm: RC not found", "PreArm: Hardware safety switch"]}
{"timestamp": "2025-12-15T10:55:00.679274Z", "telemetry": {"lat": 28.7525531, "lon": 77.1174906, "satellites": 0, "altitude_gps_m": -0.22999998927116394, "groundspeed_mps": 0.08867914974689484}, "flight": {"mode": "STABILIZE", "armed": false}, "ekf": {"attitude": {"roll": -0.0553458146750927, "pitch": -0.027768045663833618, "yaw": -0.9373674392700195}, "local_position": {"x": null, "y": null, "z": null}, "status": {"flags": 135, "velocity_variance": 0.0, "pos_horiz_variance": 0.02082553319633007, "pos_vert_variance": 0.05230375751852989}}, "errors": ["PreArm: RC not found", "PreArm: Hardware safety switch"]}
{"timestamp": "2025-12-15T10:55:01.679539Z", "telemetry": {"lat": 28.7525531, "lon": 77.1174906, "satellites": 0, "altitude_gps_m": -0.22999998927116394, "groundspeed_mps": 0.0894356444478035}, "flight": {"mode": "STABILIZE", "armed": false}, "ekf": {"attitude": {"roll": -0.05660166218876839, "pitch": -0.027951961383223534, "yaw": -0.9377692937850952}, "local_position": {"x": null, "y": null, "z": null}, "status": {"flags": 135, "velocity_variance": 0.0, "pos_horiz_variance": 0.021177200600504875, "pos_vert_variance": 0.2917739450931549}}, "errors": ["PreArm: RC not found", "PreArm: Hardware safety switch"]}
{"timestamp": "2025-12-15T10:55:02.685582Z", "telemetry": {"lat": 28.7525531, "lon": 77.1174906, "satellites": 0, "altitude_gps_m": -0.22999998927116394, "groundspeed_mps": 0.0911279171705246}, "flight": {"mode": "STABILIZE", "armed": false}, "ekf": {"attitude": {"roll": -0.05602104589343071, "pitch": -0.028091810643672943, "yaw": -0.9371187686920166}, "local_position": {"x": null, "y": null, "z": null}, "status": {"flags": 135, "velocity_variance": 0.0, "pos_horiz_variance": 0.0215534046292305, "pos_vert_variance": 0.06338480114936829}}, "errors": ["PreArm: RC not found", "PreArm: Hardware safety switch"]}
{"timestamp": "2025-12-15T10:55:03.679830Z", "telemetry": {"lat": 28.7525531, "lon": 77.1174906, "satellites": 0, "altitude_gps_m": -0.22999998927116394, "groundspeed_mps": 0.09461160749197006}, "flight": {"mode": "STABILIZE", "armed": false}, "ekf": {"attitude": {"roll": -0.05551544204354286, "pitch": -0.028018034994602203, "yaw": -0.9369893074035645}, "local_position": {"x": null, "y": null, "z": null}, "status": {"flags": 135, "velocity_variance": 0.0, "pos_horiz_variance": 0.02198883891105652, "pos_vert_variance": 0.0002784907992463559}}, "errors": ["PreArm: RC not found", "PreArm: Hardware safety switch"]}
{"timestamp": "2025-12-15T10:55:04.679706Z", "telemetry": {"lat": 28.7525531, "lon": 77.1174906, "satellites": 0, "altitude_gps_m": -0.22999998927116394, "groundspeed_mps": 0.09332842379808426}, "flight": {"mode": "STABILIZE", "armed": false}, "ekf": {"attitude": {"roll": -0.05573016777634621, "pitch": -0.028284534811973572, "yaw": -0.9369690418243408}, "local_position": {"x": null, "y": null, "z": null}, "status": {"flags": 135, "velocity_variance": 0.0, "pos_horiz_variance": 0.02263757959008217, "pos_vert_variance": 0.19500909745693207}}, "errors": ["PreArm: RC not found", "PreArm: Hardware safety switch"]}
{"timestamp": "2025-12-15T10:55:05.680107Z", "telemetry": {"lat": 28.7525531, "lon": 77.1174906, "satellites": 0, "altitude_gps_m": -0.22999998927116394, "groundspeed_mps": 0.09612846374511719}, "flight": {"mode": "STABILIZE", "armed": false}, "ekf": {"attitude": {"roll": -0.05569479241967201, "pitch": -0.028357552364468575, "yaw": -0.9373379945755005}, "local_position": {"x": null, "y": null, "z": null}, "status": {"flags": 135, "velocity_variance": 0.0, "pos_horiz_variance": 0.02276437170803547, "pos_vert_variance": 0.11924262344837189}}, "errors": ["PreArm: RC not found", "PreArm: Hardware safety switch"]}
{"timestamp": "2025-12-15T10:55:06.679451Z", "telemetry": {"lat": 28.7525531, "lon": 77.1174906, "satellites": 0, "altitude_gps_m": -0.22999998927116394, "groundspeed_mps": 0.10095513612031937}, "flight": {"mode": "STABILIZE", "armed": false}, "ekf": {"attitude": {"roll": -0.055692750960588455, "pitch": -0.02869819849729538, "yaw": -0.9370592832565308}, "local_position": {"x": null, "y": null, "z": null}, "status": {"flags": 135, "velocity_variance": 0.0, "pos_horiz_variance": 0.023305131122469902, "pos_vert_variance": 0.0476817823946476}}, "errors": ["PreArm: RC not found", "PreArm: Hardware safety switch"]}
{"timestamp": "2025-12-15T10:55:07.679944Z", "telemetry": {"lat": 28.7525531, "lon": 77.1174906, "satellites": 0, "altitude_gps_m": -0.22999998927116394, "groundspeed_mps": 0.10522402077913284}, "flight": {"mode": "STABILIZE", "armed": false}, "ekf": {"attitude": {"roll": -0.05569930002093315, "pitch": -0.028714753687381744, "yaw": -0.9370955228805542}, "local_position": {"x": null, "y": null, "z": null}, "status": {"flags": 135, "velocity_variance": 0.0, "pos_horiz_variance": 0.02430620603263378, "pos_vert_variance": 0.1066194698214531}}, "errors": ["PreArm: RC not found", "PreArm: Hardware safety switch"]}
{"timestamp": "2025-12-15T10:55:08.679544Z", "telemetry": {"lat": 28.7525531, "lon": 77.1174906, "satellites": 0, "altitude_gps_m": -0.22999998927116394, "groundspeed_mps": 0.10794246196746826}, "flight": {"mode": "STABILIZE", "armed": false}, "ekf": {"attitude": {"roll": -0.055063266307115555, "pitch": -0.028630994260311127, "yaw": -0.9368091821670532}, "local_position": {"x": null, "y": null, "z": null}, "status": {"flags": 135, "velocity_variance": 0.0, "pos_horiz_variance": 0.025276895612478256, "pos_vert_variance": 0.03882034122943878}}, "errors": ["PreArm: RC not found", "PreArm: Hardware safety switch"]}
{"timestamp": "2025-12-15T10:55:09.679625Z", "telemetry": {"lat": 28.7525531, "lon": 77.1174906, "satellites": 0, "altitude_gps_m": -0.22999998927116394, "groundspeed_mps": 0.10836703330278397}, "flight": {"mode": "STABILIZE", "armed": false}, "ekf": {"attitude": {"roll": -0.055281009525060654, "pitch": -0.028736699372529984, "yaw": -0.9374719262123108}, "local_position": {"x": null, "y": null, "z": null}, "status": {"flags": 135, "velocity_variance": 0.0, "pos_horiz_variance": 0.025889219716191292, "pos_vert_variance": 0.10269467532634735}}, "errors": ["PreArm: RC not found", "PreArm: Hardware safety switch"]}
{"timestamp": "2025-12-15T10:55:10.680124Z", "telemetry": {"lat": 28.7525531, "lon": 77.1174906, "satellites": 0, "altitude_gps_m": -0.22999998927116394, "groundspeed_mps": 0.11344410479068756}, "flight": {"mode": "STABILIZE", "armed": false}, "ekf": {"attitude": {"roll": -0.054938215762376785, "pitch": -0.02872818522155285, "yaw": -0.9369775056838989}, "local_position": {"x": null, "y": null, "z": null}, "status": {"flags": 135, "velocity_variance": 0.0, "pos_horiz_variance": 0.02646336890757084, "pos_vert_variance": 0.23861484229564667}}, "errors": ["PreArm: RC not found", "PreArm: Hardware safety switch"]}
{"timestamp": "2025-12-15T10:55:11.683701Z", "telemetry": {"lat": 28.7525531, "lon": 77.1174906, "satellites": 0, "altitude_gps_m": -0.22999998927116394, "groundspeed_mps": 0.1121222972869873}, "flight": {"mode": "STABILIZE", "armed": false}, "ekf": {"attitude": {"roll": -0.05521044507622719, "pitch": -0.028412971645593643, "yaw": -0.9369156956672668}, "local_position": {"x": null, "y": null, "z": null}, "status": {"flags": 135, "velocity_variance": 0.0, "pos_horiz_variance": 0.026976345106959343, "pos_vert_variance": 0.043238021433353424}}, "errors": ["PreArm: RC not found", "PreArm: Hardware safety switch"]}
{"timestamp": "2025-12-15T10:55:12.679841Z", "telemetry": {"lat": 28.7525531, "lon": 77.1174906, "satellites": 0, "altitude_gps_m": -0.22999998927116394, "groundspeed_mps": 0.1093192994594574}, "flight": {"mode": "STABILIZE", "armed": false}, "ekf": {"attitude": {"roll": -0.055355045944452286, "pitch": -0.02843511290848255, "yaw": -0.9368424415588379}, "local_position": {"x": null, "y": null, "z": null}, "status": {"flags": 135, "velocity_variance": 0.0, "pos_horiz_variance": 0.026822282001376152, "pos_vert_variance": 0.04983776435256004}}, "errors": ["PreArm: RC not found", "PreArm: Hardware safety switch"]}
{"timestamp": "2025-12-15T10:55:13.679510Z", "telemetry": {"lat": 28.7525531, "lon": 77.1174906, "satellites": 0, "altitude_gps_m": -0.22999998927116394, "groundspeed_mps": 0.1022130623459816}, "flight": {"mode": "STABILIZE", "armed": false}, "ekf": {"attitude": {"roll": -0.05458642914891243, "pitch": -0.028309963643550873, "yaw": -0.9367524981498718}, "local_position": {"x": null, "y": null, "z": null}, "status": {"flags": 135, "velocity_variance": 0.0, "pos_horiz_variance": 0.026079494506120682, "pos_vert_variance": 0.24025072157382965}}, "errors": ["PreArm: RC not found", "PreArm: Hardware safety switch", "PreArm: RC not found", "PreArm: Hardware safety switch"]}
{"timestamp": "2025-12-15T10:55:14.679485Z", "telemetry": {"lat": 28.7525531, "lon": 77.1174906, "satellites": 0, "altitude_gps_m": -0.22999998927116394, "groundspeed_mps": 0.1007404699921608}, "flight": {"mode": "STABILIZE", "armed": false}, "ekf": {"attitude": {"roll": -0.055410269647836685, "pitch": -0.02848016284406185, "yaw": -0.9368870854377747}, "local_position": {"x": null, "y": null, "z": null}, "status": {"flags": 135, "velocity_variance": 0.0, "pos_horiz_variance": 0.025161143392324448, "pos_vert_variance": 0.08597254008054733}}, "errors": ["PreArm: RC not found", "PreArm: Hardware safety switch", "PreArm: RC not found", "PreArm: Hardware safety switch"]}
{"timestamp": "2025-12-15T10:55:15.679425Z", "telemetry": {"lat": 28.7525531, "lon": 77.1174906, "satellites": 0, "altitude_gps_m": -0.22999998927116394, "groundspeed_mps": 0.1023206040263176}, "flight": {"mode": "STABILIZE", "armed": false}, "ekf": {"attitude": {"roll": -0.05553588643670082, "pitch": -0.028488319367170334, "yaw": -0.9370705485343933}, "local_position": {"x": null, "y": null, "z": null}, "status": {"flags": 135, "velocity_variance": 0.0, "pos_horiz_variance": 0.024930136278271675, "pos_vert_variance": 0.11181682348251343}}, "errors": ["PreArm: RC not found", "PreArm: Hardware safety switch", "PreArm: RC not found", "PreArm: Hardware safety switch"]}
{"timestamp": "2025-12-15T10:55:16.679435Z", "telemetry": {"lat": 28.7525531, "lon": 77.1174906, "satellites": 0, "altitude_gps_m": -0.22999998927116394, "groundspeed_mps": 0.10507848858833313}, "flight": {"mode": "STABILIZE", "armed": false}, "ekf": {"attitude": {"roll": -0.05494051054120064, "pitch": -0.02828567661345005, "yaw": -0.9371156692504883}, "local_position": {"x": null, "y": null, "z": null}, "status": {"flags": 135, "velocity_variance": 0.0, "pos_horiz_variance": 0.02501649595797062, "pos_vert_variance": 0.0294189415872097}}, "errors": ["PreArm: RC not found", "PreArm: Hardware safety switch", "PreArm: RC not found", "PreArm: Hardware safety switch"]}
{"timestamp": "2025-12-15T10:55:17.679677Z", "telemetry": {"lat": 28.7525531, "lon": 77.1174906, "satellites": 0, "altitude_gps_m": -0.22999998927116394, "groundspeed_mps": 0.10638726502656937}, "flight": {"mode": "STABILIZE", "armed": false}, "ekf": {"attitude": {"roll": -0.0552373044192791, "pitch": -0.02849307842552662, "yaw": -0.9368754625320435}, "local_position": {"x": null, "y": null, "z": null}, "status": {"flags": 135, "velocity_variance": 0.0, "pos_horiz_variance": 0.0256402138620615, "pos_vert_variance": 0.17975246906280518}}, "errors": ["PreArm: RC not found", "PreArm: Hardware safety switch", "PreArm: RC not found", "PreArm: Hardware safety switch"]}
{"timestamp": "2025-12-15T10:55:18.679847Z", "telemetry": {"lat": 28.7525531, "lon": 77.1174906, "satellites": 0, "altitude_gps_m": -0.22999998927116394, "groundspeed_mps": 0.10501504689455032}, "flight": {"mode": "STABILIZE", "armed": false}, "ekf": {"attitude": {"roll": -0.05571059510111809, "pitch": -0.02860414981842041, "yaw": -0.9372301697731018}, "local_position": {"x": null, "y": null, "z": null}, "status": {"flags": 135, "velocity_variance": 0.0, "pos_horiz_variance": 0.0258452408015728, "pos_vert_variance": 0.1356457769870758}}, "errors": ["PreArm: RC not found", "PreArm: Hardware safety switch", "PreArm: RC not found", "PreArm: Hardware safety switch"]}
{"timestamp": "2025-12-15T10:55:19.680120Z", "telemetry": {"lat": 28.7525531, "lon": 77.1174906, "satellites": 0, "altitude_gps_m": -0.22999998927116394, "groundspeed_mps": 0.10547161102294922}, "flight": {"mode": "STABILIZE", "armed": false}, "ekf": {"attitude": {"roll": -0.056003618985414505, "pitch": -0.02866349369287491, "yaw": -0.9374428391456604}, "local_position": {"x": null, "y": null, "z": null}, "status": {"flags": 135, "velocity_variance": 0.0, "pos_horiz_variance": 0.025338003411889076, "pos_vert_variance": 0.0563390776515007}}, "errors": ["PreArm: RC not found", "PreArm: Hardware safety switch", "PreArm: RC not found", "PreArm: Hardware safety switch"]}
{"timestamp": "2025-12-15T10:55:20.685129Z", "telemetry": {"lat": 28.7525531, "lon": 77.1174906, "satellites": 0, "altitude_gps_m": -0.22999998927116394, "groundspeed_mps": 0.10523968935012817}, "flight": {"mode": "STABILIZE", "armed": false}, "ekf": {"attitude": {"roll": -0.055526141077280045, "pitch": -0.028844742104411125, "yaw": -0.9370304942131042}, "local_position": {"x": null, "y": null, "z": null}, "status": {"flags": 135, "velocity_variance": 0.0, "pos_horiz_variance": 0.025482892990112305, "pos_vert_variance": 0.28446564078330994}}, "errors": ["PreArm: RC not found", "PreArm: Hardware safety switch", "PreArm: RC not found", "PreArm: Hardware safety switch"]}
{"timestamp": "2025-12-15T10:55:21.687758Z", "telemetry": {"lat": 28.7525531, "lon": 77.1174906, "satellites": 0, "altitude_gps_m": -0.22999998927116394, "groundspeed_mps": 0.10674194246530533}, "flight": {"mode": "STABILIZE", "armed": false}, "ekf": {"attitude": {"roll": -0.05514002963900566, "pitch": -0.028717776760458946, "yaw": -0.9366987347602844}, "local_position": {"x": null, "y": null, "z": null}, "status": {"flags": 135, "velocity_variance": 0.0, "pos_horiz_variance": 0.02569378726184368, "pos_vert_variance": 0.0565636120736599}}, "errors": ["PreArm: RC not found", "PreArm: Hardware safety switch", "PreArm: RC not found", "PreArm: Hardware safety switch"]}
{"timestamp": "2025-12-15T10:55:22.680987Z", "telemetry": {"lat": 28.7525531, "lon": 77.1174906, "satellites": 0, "altitude_gps_m": -0.22999998927116394, "groundspeed_mps": 0.11073792725801468}, "flight": {"mode": "STABILIZE", "armed": false}, "ekf": {"attitude": {"roll": -0.05531990900635719, "pitch": -0.028881587088108063, "yaw": -0.9372197389602661}, "local_position": {"x": null, "y": null, "z": null}, "status": {"flags": 135, "velocity_variance": 0.0, "pos_horiz_variance": 0.025966715067625046, "pos_vert_variance": 0.02338688261806965}}, "errors": ["PreArm: RC not found", "PreArm: Hardware safety switch", "PreArm: RC not found", "PreArm: Hardware safety switch"]}
{"timestamp": "2025-12-15T10:55:23.679291Z", "telemetry": {"lat": 28.7525531, "lon": 77.1174906, "satellites": 0, "altitude_gps_m": -0.22999998927116394, "groundspeed_mps": 0.11243024468421936}, "flight": {"mode": "STABILIZE", "armed": false}, "ekf": {"attitude": {"roll": -0.05534076318144798, "pitch": -0.02883627638220787, "yaw": -0.9367115497589111}, "local_position": {"x": null, "y": null, "z": null}, "status": {"flags": 135, "velocity_variance": 0.0, "pos_horiz_variance": 0.026540536433458328, "pos_vert_variance": 0.16527783870697021}}, "errors": ["PreArm: RC not found", "PreArm: Hardware safety switch", "PreArm: RC not found", "PreArm: Hardware safety switch"]}
{"timestamp": "2025-12-15T10:55:24.679397Z", "telemetry": {"lat": 28.7525531, "lon": 77.1174906, "satellites": 0, "altitude_gps_m": -0.22999998927116394, "groundspeed_mps": 0.11321812868118286}, "flight": {"mode": "STABILIZE", "armed": false}, "ekf": {"attitude": {"roll": -0.054145220667123795, "pitch": -0.028556667268276215, "yaw": -0.936627984046936}, "local_position": {"x": null, "y": null, "z": null}, "status": {"flags": 135, "velocity_variance": 0.0, "pos_horiz_variance": 0.027056517079472542, "pos_vert_variance": 0.1697441041469574}}, "errors": ["PreArm: RC not found", "PreArm: Hardware safety switch", "PreArm: RC not found", "PreArm: Hardware safety switch"]}
{"timestamp": "2025-12-15T10:55:25.679263Z", "telemetry": {"lat": 28.7525531, "lon": 77.1174906, "satellites": 0, "altitude_gps_m": -0.22999998927116394, "groundspeed_mps": 0.11054087430238724}, "flight": {"mode": "STABILIZE", "armed": false}, "ekf": {"attitude": {"roll": -0.05489673092961311, "pitch": -0.028827793896198273, "yaw": -0.936479926109314}, "local_position": {"x": null, "y": null, "z": null}, "status": {"flags": 135, "velocity_variance": 0.0, "pos_horiz_variance": 0.02718479186296463, "pos_vert_variance": 0.019372524693608284}}, "errors": ["PreArm: RC not found", "PreArm: Hardware safety switch", "PreArm: RC not found", "PreArm: Hardware safety switch"]}
{"timestamp": "2025-12-15T10:55:26.679522Z", "telemetry": {"lat": 28.7525531, "lon": 77.1174906, "satellites": 0, "altitude_gps_m": -0.22999998927116394, "groundspeed_mps": 0.11308314651250839}, "flight": {"mode": "STABILIZE", "armed": false}, "ekf": {"attitude": {"roll": -0.05495690181851387, "pitch": -0.028421200811862946, "yaw": -0.9368002414703369}, "local_position": {"x": null, "y": null, "z": null}, "status": {"flags": 135, "velocity_variance": 0.0, "pos_horiz_variance": 0.02690419927239418, "pos_vert_variance": 0.024957023561000824}}, "errors": ["PreArm: RC not found", "PreArm: Hardware safety switch", "PreArm: RC not found", "PreArm: Hardware safety switch"]}
{"timestamp": "2025-12-15T10:55:27.679972Z", "telemetry": {"lat": 28.7525531, "lon": 77.1174906, "satellites": 0, "altitude_gps_m": -0.22999998927116394, "groundspeed_mps": 0.10966382920742035}, "flight": {"mode": "STABILIZE", "armed": false}, "ekf": {"attitude": {"roll": -0.05433957651257515, "pitch": -0.02840319089591503, "yaw": -0.9369051456451416}, "local_position": {"x": null, "y": null, "z": null}, "status": {"flags": 135, "velocity_variance": 0.0, "pos_horiz_variance": 0.026684844866394997, "pos_vert_variance": 0.05698079243302345}}, "errors": ["PreArm: RC not found", "PreArm: Hardware safety switch", "PreArm: RC not found", "PreArm: Hardware safety switch"]}
{"timestamp": "2025-12-15T10:55:28.679344Z", "telemetry": {"lat": 28.7525531, "lon": 77.1174906, "satellites": 0, "altitude_gps_m": -0.22999998927116394, "groundspeed_mps": 0.1089308112859726}, "flight": {"mode": "STABILIZE", "armed": false}, "ekf": {"attitude": {"roll": -0.05508935824036598, "pitch": -0.028425754979252815, "yaw": -0.9372435212135315}, "local_position": {"x": null, "y": null, "z": null}, "status": {"flags": 135, "velocity_variance": 0.0, "pos_horiz_variance": 0.02658586949110031, "pos_vert_variance": 0.11089546233415604}}, "errors": ["PreArm: RC not found", "PreArm: Hardware safety switch", "PreArm: RC not found", "PreArm: Hardware safety switch"]}
{"timestamp": "2025-12-15T10:55:29.679358Z", "telemetry": {"lat": 28.7525531, "lon": 77.1174906, "satellites": 0, "altitude_gps_m": -0.22999998927116394, "groundspeed_mps": 0.1077595129609108}, "flight": {"mode": "STABILIZE", "armed": false}, "ekf": {"attitude": {"roll": -0.0547606535255909, "pitch": -0.0285183172672987, "yaw": -0.9368746876716614}, "local_position": {"x": null, "y": null, "z": null}, "status": {"flags": 135, "velocity_variance": 0.0, "pos_horiz_variance": 0.026444505900144577, "pos_vert_variance": 0.04373323544859886}}, "errors": ["PreArm: RC not found", "PreArm: Hardware safety switch", "PreArm: RC not found", "PreArm: Hardware safety switch"]}
{"timestamp": "2025-12-15T10:55:30.679905Z", "telemetry": {"lat": 28.7525531, "lon": 77.1174906, "satellites": 0, "altitude_gps_m": -0.22999998927116394, "groundspeed_mps": 0.1049126610159874}, "flight": {"mode": "STABILIZE", "armed": false}, "ekf": {"attitude": {"roll": -0.05436331406235695, "pitch": -0.028503287583589554, "yaw": -0.9365243911743164}, "local_position": {"x": null, "y": null, "z": null}, "status": {"flags": 135, "velocity_variance": 0.0, "pos_horiz_variance": 0.026229646056890488, "pos_vert_variance": 0.03896653279662132}}, "errors": ["PreArm: RC not found", "PreArm: Hardware safety switch", "PreArm: RC not found", "PreArm: Hardware safety switch"]}
{"timestamp": "2025-12-15T10:55:31.682103Z", "telemetry": {"lat": 28.7525531, "lon": 77.1174906, "satellites": 0, "altitude_gps_m": -0.22999998927116394, "groundspeed_mps": 0.1083197295665741}, "flight": {"mode": "STABILIZE", "armed": false}, "ekf": {"attitude": {"roll": -0.05417477712035179, "pitch": -0.02858661115169525, "yaw": -0.9370651841163635}, "local_position": {"x": null, "y": null, "z": null}, "status": {"flags": 135, "velocity_variance": 0.0, "pos_horiz_variance": 0.025813601911067963, "pos_vert_variance": 0.11864502727985382}}, "errors": ["PreArm: RC not found", "PreArm: Hardware safety switch", "PreArm: RC not found", "PreArm: Hardware safety switch"]}
{"timestamp": "2025-12-15T10:55:32.679570Z", "telemetry": {"lat": 28.7525531, "lon": 77.1174906, "satellites": 0, "altitude_gps_m": -0.22999998927116394, "groundspeed_mps": 0.10802913457155228}, "flight": {"mode": "STABILIZE", "armed": false}, "ekf": {"attitude": {"roll": -0.05453755334019661, "pitch": -0.028821364045143127, "yaw": -0.9371308088302612}, "local_position": {"x": null, "y": null, "z": null}, "status": {"flags": 135, "velocity_variance": 0.0, "pos_horiz_variance": 0.026118217036128044, "pos_vert_variance": 0.001535323797725141}}, "errors": ["PreArm: RC not found", "PreArm: Hardware safety switch", "PreArm: RC not found", "PreArm: Hardware safety switch"]}
{"timestamp": "2025-12-15T10:55:33.679689Z", "telemetry": {"lat": 28.7525531, "lon": 77.1174906, "satellites": 0, "altitude_gps_m": -0.22999998927116394, "groundspeed_mps": 0.11073531955480576}, "flight": {"mode": "STABILIZE", "armed": false}, "ekf": {"attitude": {"roll": -0.05472848191857338, "pitch": -0.028724215924739838, "yaw": -0.937387228012085}, "local_position": {"x": null, "y": null, "z": null}, "status": {"flags": 135, "velocity_variance": 0.0, "pos_horiz_variance": 0.026375381276011467, "pos_vert_variance": 0.017831450328230858}}, "errors": ["PreArm: RC not found", "PreArm: Hardware safety switch", "PreArm: RC not found", "PreArm: Hardware safety switch"]}
{"timestamp": "2025-12-15T10:55:34.679358Z", "telemetry": {"lat": 28.7525531, "lon": 77.1174906, "satellites": 0, "altitude_gps_m": -0.22999998927116394, "groundspeed_mps": 0.11262981593608856}, "flight": {"mode": "STABILIZE", "armed": false}, "ekf": {"attitude": {"roll": -0.053487326949834824, "pitch": -0.028530074283480644, "yaw": -0.9374094009399414}, "local_position": {"x": null, "y": null, "z": null}, "status": {"flags": 135, "velocity_variance": 0.0, "pos_horiz_variance": 0.026828572154045105, "pos_vert_variance": 0.06729359924793243}}, "errors": ["PreArm: RC not found", "PreArm: Hardware safety switch", "PreArm: RC not found", "PreArm: Hardware safety switch"]}
{"timestamp": "2025-12-15T10:55:35.679293Z", "telemetry": {"lat": 28.7525531, "lon": 77.1174906, "satellites": 0, "altitude_gps_m": -0.22999998927116394, "groundspeed_mps": 0.11395441740751266}, "flight": {"mode": "STABILIZE", "armed": false}, "ekf": {"attitude": {"roll": -0.05453328415751457, "pitch": -0.02871602401137352, "yaw": -0.9370629787445068}, "local_position": {"x": null, "y": null, "z": null}, "status": {"flags": 135, "velocity_variance": 0.0, "pos_horiz_variance": 0.02729795314371586, "pos_vert_variance": 0.04963339865207672}}, "errors": ["PreArm: RC not found", "PreArm: Hardware safety switch", "PreArm: RC not found", "PreArm: Hardware safety switch"]}
{"timestamp": "2025-12-15T10:55:36.679779Z", "telemetry": {"lat": 28.7525531, "lon": 77.1174906, "satellites": 0, "altitude_gps_m": -0.22999998927116394, "groundspeed_mps": 0.11192383617162704}, "flight": {"mode": "STABILIZE", "armed": false}, "ekf": {"attitude": {"roll": -0.0543028749525547, "pitch": -0.028721358627080917, "yaw": -0.9369400143623352}, "local_position": {"x": null, "y": null, "z": null}, "status": {"flags": 135, "velocity_variance": 0.0, "pos_horiz_variance": 0.027344362810254097, "pos_vert_variance": 0.04863765835762024}}, "errors": ["PreArm: RC not found", "PreArm: Hardware safety switch", "PreArm: RC not found", "PreArm: Hardware safety switch"]}
{"timestamp": "2025-12-15T10:55:37.679822Z", "telemetry": {"lat": 28.7525531, "lon": 77.1174906, "satellites": 0, "altitude_gps_m": -0.22999998927116394, "groundspeed_mps": 0.11506406217813492}, "flight": {"mode": "STABILIZE", "armed": false}, "ekf": {"attitude": {"roll": -0.05420774593949318, "pitch": -0.028670411556959152, "yaw": -0.9371242523193359}, "local_position": {"x": null, "y": null, "z": null}, "status": {"flags": 135, "velocity_variance": 0.0, "pos_horiz_variance": 0.027287691831588745, "pos_vert_variance": 0.03494413197040558}}, "errors": ["PreArm: RC not found", "PreArm: Hardware safety switch", "PreArm: RC not found", "PreArm: Hardware safety switch"]}
{"timestamp": "2025-12-15T10:55:38.679399Z", "telemetry": {"lat": 28.7525531, "lon": 77.1174906, "satellites": 0, "altitude_gps_m": -0.22999998927116394, "groundspeed_mps": 0.11099717020988464}, "flight": {"mode": "STABILIZE", "armed": false}, "ekf": {"attitude": {"roll": -0.05459042266011238, "pitch": -0.028506584465503693, "yaw": -0.9373682737350464}, "local_position": {"x": null, "y": null, "z": null}, "status": {"flags": 135, "velocity_variance": 0.0, "pos_horiz_variance": 0.02736259065568447, "pos_vert_variance": 0.11898528784513474}}, "errors": ["PreArm: RC not found", "PreArm: Hardware safety switch", "PreArm: RC not found", "PreArm: Hardware safety switch"]}
{"timestamp": "2025-12-15T10:55:39.679936Z", "telemetry": {"lat": 28.7525531, "lon": 77.1174906, "satellites": 0, "altitude_gps_m": -0.22999998927116394, "groundspeed_mps": 0.10772964358329773}, "flight": {"mode": "STABILIZE", "armed": false}, "ekf": {"attitude": {"roll": -0.05454191192984581, "pitch": -0.0283888578414917, "yaw": -0.937493085861206}, "local_position": {"x": null, "y": null, "z": null}, "status": {"flags": 135, "velocity_variance": 0.0, "pos_horiz_variance": 0.027027230709791183, "pos_vert_variance": 0.009947294369339943}}, "errors": ["PreArm: RC not found", "PreArm: Hardware safety switch", "PreArm: RC not found", "PreArm: Hardware safety switch"]}
{"timestamp": "2025-12-15T10:55:40.684580Z", "telemetry": {"lat": 28.7525531, "lon": 77.1174906, "satellites": 0, "altitude_gps_m": -0.22999998927116394, "groundspeed_mps": 0.10295262187719345}, "flight": {"mode": "STABILIZE", "armed": false}, "ekf": {"attitude": {"roll": -0.05419288948178291, "pitch": -0.028221171349287033, "yaw": -0.9376620054244995}, "local_position": {"x": null, "y": null, "z": null}, "status": {"flags": 135, "velocity_variance": 0.0, "pos_horiz_variance": 0.02635464258491993, "pos_vert_variance": 0.0075841485522687435}}, "errors": ["PreArm: RC not found", "PreArm: Hardware safety switch", "PreArm: RC not found", "PreArm: Hardware safety switch"]}
{"timestamp": "2025-12-15T10:55:41.686748Z", "telemetry": {"lat": 28.7525531, "lon": 77.1174906, "satellites": 0, "altitude_gps_m": -0.22999998927116394, "groundspeed_mps": 0.10322821140289307}, "flight": {"mode": "STABILIZE", "armed": false}, "ekf": {"attitude": {"roll": -0.05413335934281349, "pitch": -0.028374116867780685, "yaw": -0.9378184080123901}, "local_position": {"x": null, "y": null, "z": null}, "status": {"flags": 135, "velocity_variance": 0.0, "pos_horiz_variance": 0.02548789419233799, "pos_vert_variance": 0.03009941056370735}}, "errors": ["PreArm: RC not found", "PreArm: Hardware safety switch", "PreArm: RC not found", "PreArm: Hardware safety switch"]}
{"timestamp": "2025-12-15T10:55:42.679993Z", "telemetry": {"lat": 28.7525531, "lon": 77.1174906, "satellites": 0, "altitude_gps_m": -0.22999998927116394, "groundspeed_mps": 0.10438841581344604}, "flight": {"mode": "STABILIZE", "armed": false}, "ekf": {"attitude": {"roll": -0.05462752655148506, "pitch": -0.028486836701631546, "yaw": -0.9382440447807312}, "local_position": {"x": null, "y": null, "z": null}, "status": {"flags": 135, "velocity_variance": 0.0, "pos_horiz_variance": 0.025311896577477455, "pos_vert_variance": 0.06713180989027023}}, "errors": ["PreArm: RC not found", "PreArm: Hardware safety switch", "PreArm: RC not found", "PreArm: Hardware safety switch"]}
{"timestamp": "2025-12-15T10:55:43.679371Z", "telemetry": {"lat": 28.7525531, "lon": 77.1174906, "satellites": 0, "altitude_gps_m": -0.22999998927116394, "groundspeed_mps": 0.10611962527036667}, "flight": {"mode": "STABILIZE", "armed": false}, "ekf": {"attitude": {"roll": -0.05353008583188057, "pitch": -0.028101444244384766, "yaw": -0.9379253387451172}, "local_position": {"x": null, "y": null, "z": null}, "status": {"flags": 135, "velocity_variance": 0.0, "pos_horiz_variance": 0.02564236707985401, "pos_vert_variance": 0.004858442582190037}}, "errors": ["PreArm: RC not found", "PreArm: Hardware safety switch", "PreArm: RC not found", "PreArm: Hardware safety switch", "PreArm: RC not found", "PreArm: Hardware safety switch"]}
{"timestamp": "2025-12-15T10:55:44.679896Z", "telemetry": {"lat": 28.7525531, "lon": 77.1174906, "satellites": 0, "altitude_gps_m": -0.22999998927116394, "groundspeed_mps": 0.10554169863462448}, "flight": {"mode": "STABILIZE", "armed": false}, "ekf": {"attitude": {"roll": -0.053754281252622604, "pitch": -0.028153423219919205, "yaw": -0.9376607537269592}, "local_position": {"x": null, "y": null, "z": null}, "status": {"flags": 135, "velocity_variance": 0.0, "pos_horiz_variance": 0.025831423699855804, "pos_vert_variance": 0.012629103846848011}}, "errors": ["PreArm: RC not found", "PreArm: Hardware safety switch", "PreArm: RC not found", "PreArm: Hardware safety switch", "PreArm: RC not found", "PreArm: Hardware safety switch"]}
{"timestamp": "2025-12-15T10:55:45.679129Z", "telemetry": {"lat": 28.7525531, "lon": 77.1174906, "satellites": 0, "altitude_gps_m": -0.22999998927116394, "groundspeed_mps": 0.10354729741811752}, "flight": {"mode": "STABILIZE", "armed": false}, "ekf": {"attitude": {"roll": -0.054582539945840836, "pitch": -0.028301861137151718, "yaw": -0.9382882118225098}, "local_position": {"x": null, "y": null, "z": null}, "status": {"flags": 135, "velocity_variance": 0.0, "pos_horiz_variance": 0.02529376745223999, "pos_vert_variance": 0.00016730056086089462}}, "errors": ["PreArm: RC not found", "PreArm: Hardware safety switch", "PreArm: RC not found", "PreArm: Hardware safety switch", "PreArm: RC not found", "PreArm: Hardware safety switch"]}
{"timestamp": "2025-12-15T10:55:46.679940Z", "telemetry": {"lat": 28.7525531, "lon": 77.1174906, "satellites": 0, "altitude_gps_m": -0.22999998927116394, "groundspeed_mps": 0.10488513857126236}, "flight": {"mode": "STABILIZE", "armed": false}, "ekf": {"attitude": {"roll": -0.05416969582438469, "pitch": -0.028518158942461014, "yaw": -0.9377586245536804}, "local_position": {"x": null, "y": null, "z": null}, "status": {"flags": 135, "velocity_variance": 0.0, "pos_horiz_variance": 0.025050455704331398, "pos_vert_variance": 0.05987265706062317}}, "errors": ["PreArm: RC not found", "PreArm: Hardware safety switch", "PreArm: RC not found", "PreArm: Hardware safety switch", "PreArm: RC not found", "PreArm: Hardware safety switch"]}
{"timestamp": "2025-12-15T10:55:47.679369Z", "telemetry": {"lat": 28.7525531, "lon": 77.1174906, "satellites": 0, "altitude_gps_m": -0.22999998927116394, "groundspeed_mps": 0.10854320228099823}, "flight": {"mode": "STABILIZE", "armed": false}, "ekf": {"attitude": {"roll": -0.05453823134303093, "pitch": -0.028625939041376114, "yaw": -0.9379081726074219}, "local_position": {"x": null, "y": null, "z": null}, "status": {"flags": 135, "velocity_variance": 0.0, "pos_horiz_variance": 0.025482922792434692, "pos_vert_variance": 0.13049174845218658}}, "errors": ["PreArm: RC not found", "PreArm: Hardware safety switch", "PreArm: RC not found", "PreArm: Hardware safety switch", "PreArm: RC not found", "PreArm: Hardware safety switch"]}
{"timestamp": "2025-12-15T10:55:48.679159Z", "telemetry": {"lat": 28.7525531, "lon": 77.1174906, "satellites": 0, "altitude_gps_m": -0.22999998927116394, "groundspeed_mps": 0.10960952937602997}, "flight": {"mode": "STABILIZE", "armed": false}, "ekf": {"attitude": {"roll": -0.054680246859788895, "pitch": -0.028578121215105057, "yaw": -0.9379892945289612}, "local_position": {"x": null, "y": null, "z": null}, "status": {"flags": 135, "velocity_variance": 0.0, "pos_horiz_variance": 0.026104645803570747, "pos_vert_variance": 0.063694529235363}}, "errors": ["PreArm: RC not found", "PreArm: Hardware safety switch", "PreArm: RC not found", "PreArm: Hardware safety switch", "PreArm: RC not found", "PreArm: Hardware safety switch"]}
{"timestamp": "2025-12-15T10:55:49.679109Z", "telemetry": {"lat": 28.7525531, "lon": 77.1174906, "satellites": 0, "altitude_gps_m": -0.22999998927116394, "groundspeed_mps": 0.10716602206230164}, "flight": {"mode": "STABILIZE", "armed": false}, "ekf": {"attitude": {"roll": -0.053846631199121475, "pitch": -0.028482723981142044, "yaw": -0.9374511241912842}, "local_position": {"x": null, "y": null, "z": null}, "status": {"flags": 135, "velocity_variance": 0.0, "pos_horiz_variance": 0.026386132463812828, "pos_vert_variance": 0.0067098187282681465}}, "errors": ["PreArm: RC not found", "PreArm: Hardware safety switch", "PreArm: RC not found", "PreArm: Hardware safety switch", "PreArm: RC not found", "PreArm: Hardware safety switch"]}
{"timestamp": "2025-12-15T10:55:50.679316Z", "telemetry": {"lat": 28.7525531, "lon": 77.1174906, "satellites": 0, "altitude_gps_m": -0.22999998927116394, "groundspeed_mps": 0.10865781456232071}, "flight": {"mode": "STABILIZE", "armed": false}, "ekf": {"attitude": {"roll": -0.053798455744981766, "pitch": -0.028465554118156433, "yaw": -0.9375342726707458}, "local_position": {"x": null, "y": null, "z": null}, "status": {"flags": 135, "velocity_variance": 0.0, "pos_horiz_variance": 0.0261988528072834, "pos_vert_variance": 0.03815599903464317}}, "errors": ["PreArm: RC not found", "PreArm: Hardware safety switch", "PreArm: RC not found", "PreArm: Hardware safety switch", "PreArm: RC not found", "PreArm: Hardware safety switch"]}
{"timestamp": "2025-12-15T10:55:51.681663Z", "telemetry": {"lat": 28.7525531, "lon": 77.1174906, "satellites": 0, "altitude_gps_m": -0.22999998927116394, "groundspeed_mps": 0.10661289840936661}, "flight": {"mode": "STABILIZE", "armed": false}, "ekf": {"attitude": {"roll": -0.053800199180841446, "pitch": -0.028477806597948074, "yaw": -0.9377349019050598}, "local_position": {"x": null, "y": null, "z": null}, "status": {"flags": 135, "velocity_variance": 0.0, "pos_horiz_variance": 0.0260812658816576, "pos_vert_variance": 0.03009197674691677}}, "errors": ["PreArm: RC not found", "PreArm: Hardware safety switch", "PreArm: RC not found", "PreArm: Hardware safety switch", "PreArm: RC not found", "PreArm: Hardware safety switch"]}
{"timestamp": "2025-12-15T10:55:52.679807Z", "telemetry": {"lat": 28.7525531, "lon": 77.1174906, "satellites": 0, "altitude_gps_m": -0.22999998927116394, "groundspeed_mps": 0.10904690623283386}, "flight": {"mode": "STABILIZE", "armed": false}, "ekf": {"attitude": {"roll": -0.05393379554152489, "pitch": -0.028631631284952164, "yaw": -0.9378999471664429}, "local_position": {"x": null, "y": null, "z": null}, "status": {"flags": 135, "velocity_variance": 0.0, "pos_horiz_variance": 0.02615457773208618, "pos_vert_variance": 0.018005914986133575}}, "errors": ["PreArm: RC not found", "PreArm: Hardware safety switch", "PreArm: RC not found", "PreArm: Hardware safety switch", "PreArm: RC not found", "PreArm: Hardware safety switch"]}
{"timestamp": "2025-12-15T10:55:53.679975Z", "telemetry": {"lat": 28.7525531, "lon": 77.1174906, "satellites": 0, "altitude_gps_m": -0.22999998927116394, "groundspeed_mps": 0.10892496258020401}, "flight": {"mode": "STABILIZE", "armed": false}, "ekf": {"attitude": {"roll": -0.05384182557463646, "pitch": -0.028578590601682663, "yaw": -0.9373921155929565}, "local_position": {"x": null, "y": null, "z": null}, "status": {"flags": 135, "velocity_variance": 0.0, "pos_horiz_variance": 0.026363205164670944, "pos_vert_variance": 0.04529077559709549}}, "errors": ["PreArm: RC not found", "PreArm: Hardware safety switch", "PreArm: RC not found", "PreArm: Hardware safety switch", "PreArm: RC not found", "PreArm: Hardware safety switch"]}
{"timestamp": "2025-12-15T10:55:54.679915Z", "telemetry": {"lat": 28.7525531, "lon": 77.1174906, "satellites": 0, "altitude_gps_m": -0.22999998927116394, "groundspeed_mps": 0.10811438411474228}, "flight": {"mode": "STABILIZE", "armed": false}, "ekf": {"attitude": {"roll": -0.05367360636591911, "pitch": -0.028552521020174026, "yaw": -0.9372614622116089}, "local_position": {"x": null, "y": null, "z": null}, "status": {"flags": 135, "velocity_variance": 0.0, "pos_horiz_variance": 0.026279611513018608, "pos_vert_variance": 0.10972660034894943}}, "errors": ["PreArm: RC not found", "PreArm: Hardware safety switch", "PreArm: RC not found", "PreArm: Hardware safety switch", "PreArm: RC not found", "PreArm: Hardware safety switch"]}
{"timestamp": "2025-12-15T10:55:55.679277Z", "telemetry": {"lat": 28.7525531, "lon": 77.1174906, "satellites": 0, "altitude_gps_m": -0.22999998927116394, "groundspeed_mps": 0.10620046406984329}, "flight": {"mode": "STABILIZE", "armed": false}, "ekf": {"attitude": {"roll": -0.054066453129053116, "pitch": -0.028511662036180496, "yaw": -0.9376412630081177}, "local_position": {"x": null, "y": null, "z": null}, "status": {"flags": 135, "velocity_variance": 0.0, "pos_horiz_variance": 0.025947360321879387, "pos_vert_variance": 0.04660559818148613}}, "errors": ["PreArm: RC not found", "PreArm: Hardware safety switch", "PreArm: RC not found", "PreArm: Hardware safety switch", "PreArm: RC not found", "PreArm: Hardware safety switch"]}
{"timestamp": "2025-12-15T10:55:56.679303Z", "telemetry": {"lat": 28.7525531, "lon": 77.1174906, "satellites": 0, "altitude_gps_m": -0.22999998927116394, "groundspeed_mps": 0.10902642458677292}, "flight": {"mode": "STABILIZE", "armed": false}, "ekf": {"attitude": {"roll": -0.054605882614851, "pitch": -0.028575915843248367, "yaw": -0.9374716281890869}, "local_position": {"x": null, "y": null, "z": null}, "status": {"flags": 135, "velocity_variance": 0.0, "pos_horiz_variance": 0.026059623807668686, "pos_vert_variance": 0.08153533935546875}}, "errors": ["PreArm: RC not found", "PreArm: Hardware safety switch", "PreArm: RC not found", "PreArm: Hardware safety switch", "PreArm: RC not found", "PreArm: Hardware safety switch"]}
{"timestamp": "2025-12-15T10:55:57.679282Z", "telemetry": {"lat": 28.7525531, "lon": 77.1174906, "satellites": 0, "altitude_gps_m": -0.22999998927116394, "groundspeed_mps": 0.11046857386827469}, "flight": {"mode": "STABILIZE", "armed": false}, "ekf": {"attitude": {"roll": -0.0547320656478405, "pitch": -0.028570085763931274, "yaw": -0.9373978972434998}, "local_position": {"x": null, "y": null, "z": null}, "status": {"flags": 135, "velocity_variance": 0.0, "pos_horiz_variance": 0.026350777596235275, "pos_vert_variance": 0.03005579486489296}}, "errors": ["PreArm: RC not found", "PreArm: Hardware safety switch", "PreArm: RC not found", "PreArm: Hardware safety switch", "PreArm: RC not found", "PreArm: Hardware safety switch"]}
{"timestamp": "2025-12-15T10:55:58.679245Z", "telemetry": {"lat": 28.7525531, "lon": 77.1174906, "satellites": 0, "altitude_gps_m": -0.22999998927116394, "groundspeed_mps": 0.10940946638584137}, "flight": {"mode": "STABILIZE", "armed": false}, "ekf": {"attitude": {"roll": -0.05372104421257973, "pitch": -0.028253518044948578, "yaw": -0.9369757771492004}, "local_position": {"x": null, "y": null, "z": null}, "status": {"flags": 135, "velocity_variance": 0.0, "pos_horiz_variance": 0.02657816931605339, "pos_vert_variance": 0.09447664767503738}}, "errors": ["PreArm: RC not found", "PreArm: Hardware safety switch", "PreArm: RC not found", "PreArm: Hardware safety switch", "PreArm: RC not found", "PreArm: Hardware safety switch"]}
{"timestamp": "2025-12-15T10:55:59.679706Z", "telemetry": {"lat": 28.7525531, "lon": 77.1174906, "satellites": 0, "altitude_gps_m": -0.22999998927116394, "groundspeed_mps": 0.10885241627693176}, "flight": {"mode": "STABILIZE", "armed": false}, "ekf": {"attitude": {"roll": -0.054468367248773575, "pitch": -0.028392881155014038, "yaw": -0.937078058719635}, "local_position": {"x": null, "y": null, "z": null}, "status": {"flags": 135, "velocity_variance": 0.0, "pos_horiz_variance": 0.02643207088112831, "pos_vert_variance": 0.01875987835228443}}, "errors": ["PreArm: RC not found", "PreArm: Hardware safety switch", "PreArm: RC not found", "PreArm: Hardware safety switch", "PreArm: RC not found", "PreArm: Hardware safety switch"]}
{"timestamp": "2025-12-15T10:56:00.684518Z", "telemetry": {"lat": 28.7525531, "lon": 77.1174906, "satellites": 0, "altitude_gps_m": -0.22999998927116394, "groundspeed_mps": 0.1075935810804367}, "flight": {"mode": "STABILIZE", "armed": false}, "ekf": {"attitude": {"roll": -0.05501062795519829, "pitch": -0.028329363092780113, "yaw": -0.9374788999557495}, "local_position": {"x": null, "y": null, "z": null}, "status": {"flags": 135, "velocity_variance": 0.0, "pos_horiz_variance": 0.026194853708148003, "pos_vert_variance": 0.025909041985869408}}, "errors": ["PreArm: RC not found", "PreArm: Hardware safety switch", "PreArm: RC not found", "PreArm: Hardware safety switch", "PreArm: RC not found", "PreArm: Hardware safety switch"]}
{"timestamp": "2025-12-15T10:56:01.684064Z", "telemetry": {"lat": 28.7525531, "lon": 77.1174906, "satellites": 0, "altitude_gps_m": -0.22999998927116394, "groundspeed_mps": 0.10177227109670639}, "flight": {"mode": "STABILIZE", "armed": false}, "ekf": {"attitude": {"roll": -0.05487688258290291, "pitch": -0.028246713802218437, "yaw": -0.9374129176139832}, "local_position": {"x": null, "y": null, "z": null}, "status": {"flags": 135, "velocity_variance": 0.0, "pos_horiz_variance": 0.025824764743447304, "pos_vert_variance": 0.06347879767417908}}, "errors": ["PreArm: RC not found", "PreArm: Hardware safety switch", "PreArm: RC not found", "PreArm: Hardware safety switch", "PreArm: RC not found", "PreArm: Hardware safety switch"]}
{"timestamp": "2025-12-15T10:56:02.680570Z", "telemetry": {"lat": 28.7525531, "lon": 77.1174906, "satellites": 0, "altitude_gps_m": -0.22999998927116394, "groundspeed_mps": 0.1038772240281105}, "flight": {"mode": "STABILIZE", "armed": false}, "ekf": {"attitude": {"roll": -0.054261449724435806, "pitch": -0.0283160712569952, "yaw": -0.936964213848114}, "local_position": {"x": null, "y": null, "z": null}, "status": {"flags": 135, "velocity_variance": 0.0, "pos_horiz_variance": 0.02547190710902214, "pos_vert_variance": 0.02569464035332203}}, "errors": ["PreArm: RC not found", "PreArm: Hardware safety switch", "PreArm: RC not found", "PreArm: Hardware safety switch", "PreArm: RC not found", "PreArm: Hardware safety switch"]}
{"timestamp": "2025-12-15T10:56:03.681064Z", "telemetry": {"lat": 28.7525531, "lon": 77.1174906, "satellites": 0, "altitude_gps_m": -0.22999998927116394, "groundspeed_mps": 0.10587481409311295}, "flight": {"mode": "STABILIZE", "armed": false}, "ekf": {"attitude": {"roll": -0.05407096818089485, "pitch": -0.02842799574136734, "yaw": -0.9368233680725098}, "local_position": {"x": null, "y": null, "z": null}, "status": {"flags": 135, "velocity_variance": 0.0, "pos_horiz_variance": 0.025518301874399185, "pos_vert_variance": 0.09954516589641571}}, "errors": ["PreArm: RC not found", "PreArm: Hardware safety switch", "PreArm: RC not found", "PreArm: Hardware safety switch", "PreArm: RC not found", "PreArm: Hardware safety switch"]}
