{"timestamp": "2026-01-15T13:40:49.497870Z", "telemetry": {"lat": 28.7530059, "lon": 77.1179622, "satellites": 0, "altitude_gps_m": 0.28999999165534973, "groundspeed_mps": 0.07185200601816177}, "flight": {"mode": "STABILIZE", "armed": false}, "ekf": {"attitude": {"roll": 0.012990903109312057, "pitch": 0.0037703909911215305, "yaw": -0.23396161198616028}, "local_position": {"x": null, "y": null, "z": null}, "status": {"flags": 135, "velocity_variance": 0.0, "pos_horiz_variance": 0.01773979514837265, "pos_vert_variance": 0.07377590984106064}}, "errors": []}
{"timestamp": "2026-01-15T13:40:50.493435Z", "telemetry": {"lat": 28.7530059, "lon": 77.1179622, "satellites": 0, "altitude_gps_m": 0.28999999165534973, "groundspeed_mps": 0.07095807790756226}, "flight": {"mode": "STABILIZE", "armed": false}, "ekf": {"attitude": {"roll": 0.013005927205085754, "pitch": 0.0037735651712864637, "yaw": -0.23384790122509003}, "local_position": {"x": null, "y": null, "z": null}, "status": {"flags": 135, "velocity_variance": 0.0, "pos_horiz_variance": 0.017627431079745293, "pos_vert_variance": 0.04808295890688896}}, "errors": []}
{"timestamp": "2026-01-15T13:40:51.491262Z", "telemetry": {"lat": 28.7530059, "lon": 77.1179622, "satellites": 0, "altitude_gps_m": 0.28999999165534973, "groundspeed_mps": 0.07192076742649078}, "flight": {"mode": "STABILIZE", "armed": false}, "ekf": {"attitude": {"roll": 0.013009857386350632, "pitch": 0.0036336653865873814, "yaw": -0.23379123210906982}, "local_position": {"x": null, "y": null, "z": null}, "status": {"flags": 135, "velocity_variance": 0.0, "pos_horiz_variance": 0.01748904213309288, "pos_vert_variance": 0.0748683363199234}}, "errors": ["PreArm: Hardware safety switch"]}
{"timestamp": "2026-01-15T13:40:52.484362Z", "telemetry": {"lat": 28.7530059, "lon": 77.1179622, "satellites": 0, "altitude_gps_m": 0.28999999165534973, "groundspeed_mps": 0.07199249416589737}, "flight": {"mode": "STABILIZE", "armed": false}, "ekf": {"attitude": {"roll": 0.012994010001420975, "pitch": 0.003541372250765562, "yaw": -0.23367732763290405}, "local_position": {"x": null, "y": null, "z": null}, "status": {"flags": 135, "velocity_variance": 0.0, "pos_horiz_variance": 0.017619797959923744, "pos_vert_variance": 0.04096290469169617}}, "errors": ["PreArm: Hardware safety switch"]}
{"timestamp": "2026-01-15T13:40:53.489127Z", "telemetry": {"lat": 28.7530059, "lon": 77.1179622, "satellites": 0, "altitude_gps_m": 0.28999999165534973, "groundspeed_mps": 0.07324782013893127}, "flight": {"mode": "STABILIZE", "armed": false}, "ekf": {"attitude": {"roll": 0.01299683004617691, "pitch": 0.003443828783929348, "yaw": -0.2335713505744934}, "local_position": {"x": null, "y": null, "z": null}, "status": {"flags": 135, "velocity_variance": 0.0, "pos_horiz_variance": 0.01768633909523487, "pos_vert_variance": 0.035905398428440094}}, "errors": ["PreArm: Hardware safety switch"]}
{"timestamp": "2026-01-15T13:40:54.511515Z", "telemetry": {"lat": 28.7530059, "lon": 77.1179622, "satellites": 0, "altitude_gps_m": 0.28999999165534973, "groundspeed_mps": 0.0761357918381691}, "flight": {"mode": "STABILIZE", "armed": false}, "ekf": {"attitude": {"roll": 0.013013660907745361, "pitch": 0.003477519378066063, "yaw": -0.23330338299274445}, "local_position": {"x": null, "y": null, "z": null}, "status": {"flags": 135, "velocity_variance": 0.0, "pos_horiz_variance": 0.018098486587405205, "pos_vert_variance": 0.05879814550280571}}, "errors": ["PreArm: Hardware safety switch"]}
{"timestamp": "2026-01-15T13:40:55.515406Z", "telemetry": {"lat": 28.7530059, "lon": 77.1179622, "satellites": 0, "altitude_gps_m": 0.28999999165534973, "groundspeed_mps": 0.07610707730054855}, "flight": {"mode": "STABILIZE", "armed": false}, "ekf": {"attitude": {"roll": 0.012866191565990448, "pitch": 0.0037827761843800545, "yaw": -0.23301436007022858}, "local_position": {"x": null, "y": null, "z": null}, "status": {"flags": 135, "velocity_variance": 0.0, "pos_horiz_variance": 0.018694749101996422, "pos_vert_variance": 0.03704904019832611}}, "errors": ["PreArm: Hardware safety switch"]}
{"timestamp": "2026-01-15T13:40:56.514966Z", "telemetry": {"lat": 28.7530059, "lon": 77.1179622, "satellites": 0, "altitude_gps_m": 0.28999999165534973, "groundspeed_mps": 0.0719093382358551}, "flight": {"mode": "STABILIZE", "armed": false}, "ekf": {"attitude": {"roll": 0.012815367430448532, "pitch": 0.0038796807639300823, "yaw": -0.233010396361351}, "local_position": {"x": null, "y": null, "z": null}, "status": {"flags": 135, "velocity_variance": 0.0, "pos_horiz_variance": 0.01834787428379059, "pos_vert_variance": 0.029255548492074013}}, "errors": ["PreArm: Hardware safety switch"]}
{"timestamp": "2026-01-15T13:40:57.487897Z", "telemetry": {"lat": 28.7530059, "lon": 77.1179622, "satellites": 0, "altitude_gps_m": 0.28999999165534973, "groundspeed_mps": 0.06805791705846786}, "flight": {"mode": "STABILIZE", "armed": false}, "ekf": {"attitude": {"roll": 0.012821141630411148, "pitch": 0.003964783623814583, "yaw": -0.2329929918050766}, "local_position": {"x": null, "y": null, "z": null}, "status": {"flags": 135, "velocity_variance": 0.0, "pos_horiz_variance": 0.017463430762290955, "pos_vert_variance": 0.017581600695848465}}, "errors": ["PreArm: Hardware safety switch"]}
{"timestamp": "2026-01-15T13:40:58.490098Z", "telemetry": {"lat": 28.7530059, "lon": 77.1179622, "satellites": 0, "altitude_gps_m": 0.28999999165534973, "groundspeed_mps": 0.06488469243049622}, "flight": {"mode": "STABILIZE", "armed": false}, "ekf": {"attitude": {"roll": 0.01268453523516655, "pitch": 0.003958924673497677, "yaw": -0.23293434083461761}, "local_position": {"x": null, "y": null, "z": null}, "status": {"flags": 135, "velocity_variance": 0.0, "pos_horiz_variance": 0.016547217965126038, "pos_vert_variance": 0.052589308470487595}}, "errors": ["PreArm: Hardware safety switch"]}
{"timestamp": "2026-01-15T13:40:59.489220Z", "telemetry": {"lat": 28.7530059, "lon": 77.1179622, "satellites": 0, "altitude_gps_m": 0.28999999165534973, "groundspeed_mps": 0.06650913506746292}, "flight": {"mode": "STABILIZE", "armed": false}, "ekf": {"attitude": {"roll": 0.012687310576438904, "pitch": 0.003919103182852268, "yaw": -0.23292526602745056}, "local_position": {"x": null, "y": null, "z": null}, "status": {"flags": 135, "velocity_variance": 0.0, "pos_horiz_variance": 0.016258426010608673, "pos_vert_variance": 0.016723772510886192}}, "errors": ["PreArm: Hardware safety switch"]}
{"timestamp": "2026-01-15T13:41:00.488635Z", "telemetry": {"lat": 28.7530059, "lon": 77.1179622, "satellites": 0, "altitude_gps_m": 0.28999999165534973, "groundspeed_mps": 0.07012331485748291}, "flight": {"mode": "STABILIZE", "armed": false}, "ekf": {"attitude": {"roll": 0.012871649116277695, "pitch": 0.0037680347450077534, "yaw": -0.2327045202255249}, "local_position": {"x": null, "y": null, "z": null}, "status": {"flags": 135, "velocity_variance": 0.0, "pos_horiz_variance": 0.016533635556697845, "pos_vert_variance": 0.03553123399615288}}, "errors": ["PreArm: Hardware safety switch"]}
{"timestamp": "2026-01-15T13:41:01.493262Z", "telemetry": {"lat": 28.7530059, "lon": 77.1179622, "satellites": 0, "altitude_gps_m": 0.28999999165534973, "groundspeed_mps": 0.07390858232975006}, "flight": {"mode": "STABILIZE", "armed": false}, "ekf": {"attitude": {"roll": 0.012903224676847458, "pitch": 0.0036724298261106014, "yaw": -0.2327595055103302}, "local_position": {"x": null, "y": null, "z": null}, "status": {"flags": 135, "velocity_variance": 0.0, "pos_horiz_variance": 0.017009325325489044, "pos_vert_variance": 0.08142884075641632}}, "errors": ["PreArm: Hardware safety switch"]}
{"timestamp": "2026-01-15T13:41:02.495768Z", "telemetry": {"lat": 28.7530059, "lon": 77.1179622, "satellites": 0, "altitude_gps_m": 0.28999999165534973, "groundspeed_mps": 0.07491318881511688}, "flight": {"mode": "STABILIZE", "armed": false}, "ekf": {"attitude": {"roll": 0.012912236154079437, "pitch": 0.003598861861974001, "yaw": -0.23258553445339203}, "local_position": {"x": null, "y": null, "z": null}, "status": {"flags": 135, "velocity_variance": 0.0, "pos_horiz_variance": 0.017748186364769936, "pos_vert_variance": 0.03978308290243149}}, "errors": ["PreArm: Hardware safety switch"]}
{"timestamp": "2026-01-15T13:41:03.488043Z", "telemetry": {"lat": 28.7530059, "lon": 77.1179622, "satellites": 0, "altitude_gps_m": 0.28999999165534973, "groundspeed_mps": 0.07682904601097107}, "flight": {"mode": "STABILIZE", "armed": false}, "ekf": {"attitude": {"roll": 0.012969300150871277, "pitch": 0.0036069010384380817, "yaw": -0.23254160583019257}, "local_position": {"x": null, "y": null, "z": null}, "status": {"flags": 135, "velocity_variance": 0.0, "pos_horiz_variance": 0.018076488748192787, "pos_vert_variance": 0.050215598195791245}}, "errors": ["PreArm: Hardware safety switch"]}
{"timestamp": "2026-01-15T13:41:04.493476Z", "telemetry": {"lat": 28.7530059, "lon": 77.1179622, "satellites": 0, "altitude_gps_m": 0.28999999165534973, "groundspeed_mps": 0.07696838676929474}, "flight": {"mode": "STABILIZE", "armed": false}, "ekf": {"attitude": {"roll": 0.012992925941944122, "pitch": 0.0037148057017475367, "yaw": -0.23260486125946045}, "local_position": {"x": null, "y": null, "z": null}, "status": {"flags": 135, "velocity_variance": 0.0, "pos_horiz_variance": 0.01848411001265049, "pos_vert_variance": 0.06401333957910538}}, "errors": ["PreArm: Hardware safety switch"]}
{"timestamp": "2026-01-15T13:41:05.498280Z", "telemetry": {"lat": 28.7530059, "lon": 77.1179622, "satellites": 0, "altitude_gps_m": 0.28999999165534973, "groundspeed_mps": 0.07494951784610748}, "flight": {"mode": "STABILIZE", "armed": false}, "ekf": {"attitude": {"roll": 0.013088665902614594, "pitch": 0.0038620110135525465, "yaw": -0.2326362580060959}, "local_position": {"x": null, "y": null, "z": null}, "status": {"flags": 135, "velocity_variance": 0.0, "pos_horiz_variance": 0.018393736332654953, "pos_vert_variance": 0.10433516651391983}}, "errors": ["PreArm: Hardware safety switch"]}
{"timestamp": "2026-01-15T13:41:06.470766Z", "telemetry": {"lat": 28.7530059, "lon": 77.1179622, "satellites": 0, "altitude_gps_m": 0.28999999165534973, "groundspeed_mps": 0.07514926791191101}, "flight": {"mode": "STABILIZE", "armed": false}, "ekf": {"attitude": {"roll": 0.01309514045715332, "pitch": 0.003982408903539181, "yaw": -0.23256805539131165}, "local_position": {"x": null, "y": null, "z": null}, "status": {"flags": 135, "velocity_variance": 0.0, "pos_horiz_variance": 0.018272293731570244, "pos_vert_variance": 0.10000269114971161}}, "errors": ["PreArm: Hardware safety switch"]}
{"timestamp": "2026-01-15T13:41:07.480864Z", "telemetry": {"lat": 28.7530059, "lon": 77.1179622, "satellites": 0, "altitude_gps_m": 0.28999999165534973, "groundspeed_mps": 0.0741492360830307}, "flight": {"mode": "STABILIZE", "armed": false}, "ekf": {"attitude": {"roll": 0.013178136199712753, "pitch": 0.004180714953690767, "yaw": -0.23263408243656158}, "local_position": {"x": null, "y": null, "z": null}, "status": {"flags": 135, "velocity_variance": 0.0, "pos_horiz_variance": 0.018243083730340004, "pos_vert_variance": 0.016919046640396118}}, "errors": ["PreArm: Hardware safety switch"]}
{"timestamp": "2026-01-15T13:41:08.468784Z", "telemetry": {"lat": 28.7530059, "lon": 77.1179622, "satellites": 0, "altitude_gps_m": 0.28999999165534973, "groundspeed_mps": 0.07000498473644257}, "flight": {"mode": "STABILIZE", "armed": false}, "ekf": {"attitude": {"roll": 0.013119474053382874, "pitch": 0.004390949383378029, "yaw": -0.2327248454093933}, "local_position": {"x": null, "y": null, "z": null}, "status": {"flags": 135, "velocity_variance": 0.0, "pos_horiz_variance": 0.017808698117733, "pos_vert_variance": 0.06175637245178223}}, "errors": ["PreArm: Hardware safety switch"]}
