{"timestamp": "2025-12-28T10:39:12.868407Z", "telemetry": {"lat": null, "lon": null, "satellites": null, "altitude_gps_m": 213.22999572753906, "groundspeed_mps": 0.19523747265338898}, "flight": {"mode": "STABILIZE", "armed": false}, "ekf": {"attitude": {"roll": -0.03565472736954689, "pitch": -0.004384051542729139, "yaw": 3.0467827320098877}, "local_position": {"x": null, "y": null, "z": null}, "status": {"flags": null, "velocity_variance": null, "pos_horiz_variance": null, "pos_vert_variance": null}}, "errors": []}
{"timestamp": "2025-12-28T10:39:13.868640Z", "telemetry": {"lat": 28.7532291, "lon": 77.1177355, "satellites": 10, "altitude_gps_m": 213.25, "groundspeed_mps": 0.16635112464427948}, "flight": {"mode": "STABILIZE", "armed": false}, "ekf": {"attitude": {"roll": -0.03480386361479759, "pitch": -0.004274936858564615, "yaw": 3.0467936992645264}, "local_position": {"x": 17.503183364868164, "y": -13.16767692565918, "z": -4.325745582580566}, "status": {"flags": 33599, "velocity_variance": 0.34157225489616394, "pos_horiz_variance": 0.0173527542501688, "pos_vert_variance": 0.006818683817982674}}, "errors": []}
{"timestamp": "2025-12-28T10:39:14.868507Z", "telemetry": {"lat": 28.7532259, "lon": 77.1177386, "satellites": 10, "altitude_gps_m": 213.26998901367188, "groundspeed_mps": 0.15261100232601166}, "flight": {"mode": "STABILIZE", "armed": false}, "ekf": {"attitude": {"roll": -0.03451761230826378, "pitch": -0.004509946797043085, "yaw": 3.046903371810913}, "local_position": {"x": 17.4099178314209, "y": -13.178314208984375, "z": -4.342010974884033}, "status": {"flags": 33599, "velocity_variance": 0.16479267179965973, "pos_horiz_variance": 0.0188757237046957, "pos_vert_variance": 0.039481986314058304}}, "errors": []}
{"timestamp": "2025-12-28T10:39:15.868490Z", "telemetry": {"lat": 28.7532256, "lon": 77.117742, "satellites": 10, "altitude_gps_m": 213.22999572753906, "groundspeed_mps": 0.17705219984054565}, "flight": {"mode": "STABILIZE", "armed": false}, "ekf": {"attitude": {"roll": -0.03472372516989708, "pitch": -0.004492559004575014, "yaw": 3.04699444770813}, "local_position": {"x": 17.26886749267578, "y": -13.053925514221191, "z": -4.309747219085693}, "status": {"flags": 33599, "velocity_variance": 0.23039166629314423, "pos_horiz_variance": 0.015712788328528404, "pos_vert_variance": 0.02101128175854683}}, "errors": []}
{"timestamp": "2025-12-28T10:39:16.868843Z", "telemetry": {"lat": 28.7532271, "lon": 77.1177389, "satellites": 10, "altitude_gps_m": 213.22000122070312, "groundspeed_mps": 0.12318461388349533}, "flight": {"mode": "STABILIZE", "armed": false}, "ekf": {"attitude": {"roll": -0.03339892998337746, "pitch": -0.0033489693887531757, "yaw": 3.0469112396240234}, "local_position": {"x": 17.349035263061523, "y": -13.141148567199707, "z": -4.295566082000732}, "status": {"flags": 33599, "velocity_variance": 0.41095462441444397, "pos_horiz_variance": 0.014112771488726139, "pos_vert_variance": 0.03160747140645981}}, "errors": []}
{"timestamp": "2025-12-28T10:39:17.873820Z", "telemetry": {"lat": 28.75323, "lon": 77.1177371, "satellites": 10, "altitude_gps_m": 213.3699951171875, "groundspeed_mps": 0.11784297972917557}, "flight": {"mode": "STABILIZE", "armed": false}, "ekf": {"attitude": {"roll": -0.0317172072827816, "pitch": -0.0016653300262987614, "yaw": 3.046898365020752}, "local_position": {"x": 17.557682037353516, "y": -13.417014122009277, "z": -4.441237449645996}, "status": {"flags": 33599, "velocity_variance": 0.29595983028411865, "pos_horiz_variance": 0.010876985266804695, "pos_vert_variance": 0.016011584550142288}}, "errors": []}
{"timestamp": "2025-12-28T10:39:18.873892Z", "telemetry": {"lat": 28.7532305, "lon": 77.1177393, "satellites": 10, "altitude_gps_m": 213.2899932861328, "groundspeed_mps": 0.19935022294521332}, "flight": {"mode": "STABILIZE", "armed": false}, "ekf": {"attitude": {"roll": -0.03218537196516991, "pitch": -0.0007565952837467194, "yaw": 3.0468316078186035}, "local_position": {"x": 17.802398681640625, "y": -13.3818941116333, "z": -4.358652591705322}, "status": {"flags": 33599, "velocity_variance": 0.1484105885028839, "pos_horiz_variance": 0.013794690370559692, "pos_vert_variance": 0.020067784935235977}}, "errors": []}
{"timestamp": "2025-12-28T10:39:19.869771Z", "telemetry": {"lat": 28.7532271, "lon": 77.1177377, "satellites": 10, "altitude_gps_m": 213.1999969482422, "groundspeed_mps": 0.17321054637432098}, "flight": {"mode": "STABILIZE", "armed": false}, "ekf": {"attitude": {"roll": -0.03162108734250069, "pitch": -0.0014890036545693874, "yaw": 3.0468297004699707}, "local_position": {"x": 17.79164695739746, "y": -13.44130802154541, "z": -4.2917680740356445}, "status": {"flags": 33599, "velocity_variance": 0.27616193890571594, "pos_horiz_variance": 0.022926077246665955, "pos_vert_variance": 0.11729787290096283}}, "errors": []}
{"timestamp": "2025-12-28T10:39:20.867887Z", "telemetry": {"lat": 28.7532197, "lon": 77.1177353, "satellites": 10, "altitude_gps_m": 213.22999572753906, "groundspeed_mps": 0.0734253004193306}, "flight": {"mode": "STABILIZE", "armed": false}, "ekf": {"attitude": {"roll": -0.030617963522672653, "pitch": -0.0036986558698117733, "yaw": 3.046630859375}, "local_position": {"x": 17.157499313354492, "y": -13.635326385498047, "z": -4.309018135070801}, "status": {"flags": 33599, "velocity_variance": 0.2544773817062378, "pos_horiz_variance": 0.028309961780905724, "pos_vert_variance": 0.000567049253731966}}, "errors": []}
{"timestamp": "2025-12-28T10:39:21.868568Z", "telemetry": {"lat": 28.7532173, "lon": 77.1177346, "satellites": 10, "altitude_gps_m": 213.239990234375, "groundspeed_mps": 0.13626080751419067}, "flight": {"mode": "STABILIZE", "armed": false}, "ekf": {"attitude": {"roll": -0.02979521080851555, "pitch": -0.00413391413167119, "yaw": 3.0465335845947266}, "local_position": {"x": 16.83113670349121, "y": -13.859573364257812, "z": -4.314156532287598}, "status": {"flags": 33599, "velocity_variance": 0.19076165556907654, "pos_horiz_variance": 0.02857360430061817, "pos_vert_variance": 0.022396551445126534}}, "errors": []}
{"timestamp": "2025-12-28T10:39:22.868817Z", "telemetry": {"lat": 28.7532155, "lon": 77.1177372, "satellites": 10, "altitude_gps_m": 213.4099884033203, "groundspeed_mps": 0.1331307590007782}, "flight": {"mode": "STABILIZE", "armed": false}, "ekf": {"attitude": {"roll": -0.030537184327840805, "pitch": -0.004989348817616701, "yaw": 3.0464296340942383}, "local_position": {"x": 16.411386489868164, "y": -13.701643943786621, "z": -4.48648738861084}, "status": {"flags": 33599, "velocity_variance": 0.17994265258312225, "pos_horiz_variance": 0.025147108361124992, "pos_vert_variance": 0.0649130791425705}}, "errors": []}
{"timestamp": "2025-12-28T10:39:23.868465Z", "telemetry": {"lat": 28.7532134, "lon": 77.1177355, "satellites": 11, "altitude_gps_m": 213.3300018310547, "groundspeed_mps": 0.18351656198501587}, "flight": {"mode": "STABILIZE", "armed": false}, "ekf": {"attitude": {"roll": -0.030264992266893387, "pitch": -0.005492886062711477, "yaw": 3.0462255477905273}, "local_position": {"x": 16.13592529296875, "y": -13.761061668395996, "z": -4.418274402618408}, "status": {"flags": 33599, "velocity_variance": 0.03910873457789421, "pos_horiz_variance": 0.021256625652313232, "pos_vert_variance": 0.062368232756853104}}, "errors": []}
{"timestamp": "2025-12-28T10:39:24.868483Z", "telemetry": {"lat": 28.7532086, "lon": 77.117737, "satellites": 12, "altitude_gps_m": 213.29998779296875, "groundspeed_mps": 0.25004902482032776}, "flight": {"mode": "STABILIZE", "armed": false}, "ekf": {"attitude": {"roll": -0.031161043792963028, "pitch": -0.006616960745304823, "yaw": 3.046217203140259}, "local_position": {"x": 15.543195724487305, "y": -13.738348960876465, "z": -4.377696990966797}, "status": {"flags": 33599, "velocity_variance": 0.1636360138654709, "pos_horiz_variance": 0.022206544876098633, "pos_vert_variance": 0.0743170902132988}}, "errors": []}
{"timestamp": "2025-12-28T10:39:25.868657Z", "telemetry": {"lat": 28.7532069, "lon": 77.1177411, "satellites": 12, "altitude_gps_m": 213.2899932861328, "groundspeed_mps": 0.2740185856819153}, "flight": {"mode": "STABILIZE", "armed": false}, "ekf": {"attitude": {"roll": -0.03304341807961464, "pitch": -0.006716040428727865, "yaw": 3.046107292175293}, "local_position": {"x": 15.265110969543457, "y": -13.395174026489258, "z": -4.382933139801025}, "status": {"flags": 33599, "velocity_variance": 0.2052210569381714, "pos_horiz_variance": 0.021873464807868004, "pos_vert_variance": 0.006411687470972538}}, "errors": []}
{"timestamp": "2025-12-28T10:39:26.868452Z", "telemetry": {"lat": 28.7532044, "lon": 77.1177415, "satellites": 12, "altitude_gps_m": 213.3199920654297, "groundspeed_mps": 0.29723629355430603}, "flight": {"mode": "STABILIZE", "armed": false}, "ekf": {"attitude": {"roll": -0.03278696909546852, "pitch": -0.00664416654035449, "yaw": 3.0461509227752686}, "local_position": {"x": 14.955121994018555, "y": -13.032421112060547, "z": -4.373821258544922}, "status": {"flags": 33599, "velocity_variance": 0.2700810134410858, "pos_horiz_variance": 0.017434295266866684, "pos_vert_variance": 0.0021543765906244516}}, "errors": []}
{"timestamp": "2025-12-28T10:39:27.868656Z", "telemetry": {"lat": 28.7532031, "lon": 77.1177328, "satellites": 11, "altitude_gps_m": 213.25999450683594, "groundspeed_mps": 0.279928058385849}, "flight": {"mode": "STABILIZE", "armed": false}, "ekf": {"attitude": {"roll": -0.03064686432480812, "pitch": -0.006277599837630987, "yaw": 3.046114444732666}, "local_position": {"x": 14.556584358215332, "y": -13.44787883758545, "z": -4.336674690246582}, "status": {"flags": 33599, "velocity_variance": 0.3089138865470886, "pos_horiz_variance": 0.017832068726420403, "pos_vert_variance": 0.04219721630215645}}, "errors": []}
{"timestamp": "2025-12-28T10:39:28.873968Z", "telemetry": {"lat": 28.7532016, "lon": 77.117726, "satellites": 11, "altitude_gps_m": 213.22999572753906, "groundspeed_mps": 0.3400779664516449}, "flight": {"mode": "STABILIZE", "armed": false}, "ekf": {"attitude": {"roll": -0.02877601608633995, "pitch": -0.0059146578423678875, "yaw": 3.046067476272583}, "local_position": {"x": 14.248443603515625, "y": -14.067773818969727, "z": -4.305339813232422}, "status": {"flags": 33599, "velocity_variance": 0.09417163580656052, "pos_horiz_variance": 0.01732776127755642, "pos_vert_variance": 0.057180728763341904}}, "errors": []}
{"timestamp": "2025-12-28T10:39:29.870330Z", "telemetry": {"lat": 28.7531989, "lon": 77.1177292, "satellites": 10, "altitude_gps_m": 213.29998779296875, "groundspeed_mps": 0.3139473795890808}, "flight": {"mode": "STABILIZE", "armed": false}, "ekf": {"attitude": {"roll": -0.029422271996736526, "pitch": -0.005328812170773745, "yaw": 3.0461394786834717}, "local_position": {"x": 14.057519912719727, "y": -14.18325138092041, "z": -4.368590831756592}, "status": {"flags": 33599, "velocity_variance": 0.10608614236116409, "pos_horiz_variance": 0.012059938162565231, "pos_vert_variance": 0.07864327728748322}}, "errors": []}
{"timestamp": "2025-12-28T10:39:30.870134Z", "telemetry": {"lat": 28.753195, "lon": 77.117732, "satellites": 10, "altitude_gps_m": 213.25, "groundspeed_mps": 0.3092682361602783}, "flight": {"mode": "STABILIZE", "armed": false}, "ekf": {"attitude": {"roll": -0.029899802058935165, "pitch": -0.00520325219258666, "yaw": 3.0459015369415283}, "local_position": {"x": 13.758403778076172, "y": -14.23172378540039, "z": -4.324954032897949}, "status": {"flags": 33599, "velocity_variance": 0.1728476583957672, "pos_horiz_variance": 0.014381792396306992, "pos_vert_variance": 0.0048743076622486115}}, "errors": []}
{"timestamp": "2025-12-28T10:39:31.868155Z", "telemetry": {"lat": 28.7531922, "lon": 77.1177363, "satellites": 10, "altitude_gps_m": 213.1999969482422, "groundspeed_mps": 0.30944719910621643}, "flight": {"mode": "STABILIZE", "armed": false}, "ekf": {"attitude": {"roll": -0.03128853067755699, "pitch": -0.005764670204371214, "yaw": 3.0457677841186523}, "local_position": {"x": 13.437775611877441, "y": -14.027554512023926, "z": -4.294322967529297}, "status": {"flags": 33599, "velocity_variance": 0.272994726896286, "pos_horiz_variance": 0.01719582825899124, "pos_vert_variance": 0.020459482446312904}}, "errors": []}
{"timestamp": "2025-12-28T10:39:32.868027Z", "telemetry": {"lat": 28.7531883, "lon": 77.117737, "satellites": 10, "altitude_gps_m": 213.1599884033203, "groundspeed_mps": 0.3110051155090332}, "flight": {"mode": "STABILIZE", "armed": false}, "ekf": {"attitude": {"roll": -0.03128115460276604, "pitch": -0.005179140251129866, "yaw": 3.0456531047821045}, "local_position": {"x": 13.002348899841309, "y": -13.936833381652832, "z": -4.232263565063477}, "status": {"flags": 33599, "velocity_variance": 0.18466214835643768, "pos_horiz_variance": 0.016911225393414497, "pos_vert_variance": 0.0312928706407547}}, "errors": ["PreArm: Hardware safety switch"]}
{"timestamp": "2025-12-28T10:39:33.868789Z", "telemetry": {"lat": 28.753184, "lon": 77.1177398, "satellites": 10, "altitude_gps_m": 213.19000244140625, "groundspeed_mps": 0.3183619976043701}, "flight": {"mode": "STABILIZE", "armed": false}, "ekf": {"attitude": {"roll": -0.03173671290278435, "pitch": -0.005225473549216986, "yaw": 3.0455610752105713}, "local_position": {"x": 12.561131477355957, "y": -13.761733055114746, "z": -4.26658296585083}, "status": {"flags": 33599, "velocity_variance": 0.1437639594078064, "pos_horiz_variance": 0.020038453862071037, "pos_vert_variance": 0.006149608641862869}}, "errors": ["PreArm: Hardware safety switch"]}
{"timestamp": "2025-12-28T10:39:34.867939Z", "telemetry": {"lat": 28.7531843, "lon": 77.1177403, "satellites": 10, "altitude_gps_m": 213.17999267578125, "groundspeed_mps": 0.24539530277252197}, "flight": {"mode": "STABILIZE", "armed": false}, "ekf": {"attitude": {"roll": -0.032200705260038376, "pitch": -0.00404879217967391, "yaw": 3.0453901290893555}, "local_position": {"x": 12.475841522216797, "y": -13.669659614562988, "z": -4.2634172439575195}, "status": {"flags": 33599, "velocity_variance": 0.07505779713392258, "pos_horiz_variance": 0.017132218927145004, "pos_vert_variance": 0.0226804930716753}}, "errors": ["PreArm: Hardware safety switch"]}
{"timestamp": "2025-12-28T10:39:35.868060Z", "telemetry": {"lat": 28.7531824, "lon": 77.1177414, "satellites": 10, "altitude_gps_m": 213.239990234375, "groundspeed_mps": 0.21687543392181396}, "flight": {"mode": "STABILIZE", "armed": false}, "ekf": {"attitude": {"roll": -0.032589685171842575, "pitch": -0.0036032437346875668, "yaw": 3.0453591346740723}, "local_position": {"x": 12.282410621643066, "y": -13.521584510803223, "z": -4.309295654296875}, "status": {"flags": 33599, "velocity_variance": 0.07703011482954025, "pos_horiz_variance": 0.015620865859091282, "pos_vert_variance": 0.01892784982919693}}, "errors": ["PreArm: Hardware safety switch"]}
{"timestamp": "2025-12-28T10:39:36.868688Z", "telemetry": {"lat": 28.7531817, "lon": 77.1177429, "satellites": 11, "altitude_gps_m": 213.26998901367188, "groundspeed_mps": 0.17740467190742493}, "flight": {"mode": "STABILIZE", "armed": false}, "ekf": {"attitude": {"roll": -0.032801780849695206, "pitch": -0.0028101070784032345, "yaw": 3.0452544689178467}, "local_position": {"x": 12.113637924194336, "y": -13.266924858093262, "z": -4.3426432609558105}, "status": {"flags": 33599, "velocity_variance": 0.22959107160568237, "pos_horiz_variance": 0.012117204256355762, "pos_vert_variance": 0.0633418932557106}}, "errors": ["PreArm: Hardware safety switch"]}
{"timestamp": "2025-12-28T10:39:37.868420Z", "telemetry": {"lat": 28.7531815, "lon": 77.1177389, "satellites": 11, "altitude_gps_m": 213.36000061035156, "groundspeed_mps": 0.09805215895175934}, "flight": {"mode": "STABILIZE", "armed": false}, "ekf": {"attitude": {"roll": -0.03117215260863304, "pitch": -0.001870876643806696, "yaw": 3.0453426837921143}, "local_position": {"x": 12.076590538024902, "y": -13.48155689239502, "z": -4.411581993103027}, "status": {"flags": 33599, "velocity_variance": 0.11818757653236389, "pos_horiz_variance": 0.009046579711139202, "pos_vert_variance": 0.03923352435231209}}, "errors": ["PreArm: Hardware safety switch"]}
{"timestamp": "2025-12-28T10:39:38.868675Z", "telemetry": {"lat": 28.7531801, "lon": 77.1177423, "satellites": 12, "altitude_gps_m": 213.25, "groundspeed_mps": 0.06528808921575546}, "flight": {"mode": "STABILIZE", "armed": false}, "ekf": {"attitude": {"roll": -0.031745459884405136, "pitch": -0.001785301137715578, "yaw": 3.0453333854675293}, "local_position": {"x": 11.997736930847168, "y": -13.448895454406738, "z": -4.3456339836120605}, "status": {"flags": 33599, "velocity_variance": 0.15222899615764618, "pos_horiz_variance": 0.013977493159472942, "pos_vert_variance": 0.008951597847044468}}, "errors": ["PreArm: Hardware safety switch"]}
{"timestamp": "2025-12-28T10:39:39.876333Z", "telemetry": {"lat": 28.7531832, "lon": 77.1177394, "satellites": 12, "altitude_gps_m": 213.27999877929688, "groundspeed_mps": 0.023207848891615868}, "flight": {"mode": "STABILIZE", "armed": false}, "ekf": {"attitude": {"roll": -0.031259533017873764, "pitch": -0.0011060605756938457, "yaw": 3.0453076362609863}, "local_position": {"x": 11.915691375732422, "y": -13.387445449829102, "z": -4.354459285736084}, "status": {"flags": 33599, "velocity_variance": 0.17458897829055786, "pos_horiz_variance": 0.0032362197525799274, "pos_vert_variance": 0.060379281640052795}}, "errors": ["PreArm: Hardware safety switch"]}
{"timestamp": "2025-12-28T10:39:40.869717Z", "telemetry": {"lat": 28.7531853, "lon": 77.1177365, "satellites": 11, "altitude_gps_m": 213.22000122070312, "groundspeed_mps": 0.07234969735145569}, "flight": {"mode": "STABILIZE", "armed": false}, "ekf": {"attitude": {"roll": -0.03085670992732048, "pitch": -0.0003016935661435127, "yaw": 3.0452258586883545}, "local_position": {"x": 12.006671905517578, "y": -13.392367362976074, "z": -4.302698135375977}, "status": {"flags": 33599, "velocity_variance": 0.23037786781787872, "pos_horiz_variance": 0.007192982826381922, "pos_vert_variance": 2.563159796409309e-05}}, "errors": ["PreArm: Hardware safety switch"]}
{"timestamp": "2025-12-28T10:39:41.868589Z", "telemetry": {"lat": 28.7531894, "lon": 77.1177295, "satellites": 12, "altitude_gps_m": 213.239990234375, "groundspeed_mps": 0.20921224355697632}, "flight": {"mode": "STABILIZE", "armed": false}, "ekf": {"attitude": {"roll": -0.0298757366836071, "pitch": 0.0005343961529433727, "yaw": 3.0452637672424316}, "local_position": {"x": 12.281953811645508, "y": -13.823304176330566, "z": -4.296983242034912}, "status": {"flags": 33599, "velocity_variance": 0.18365009129047394, "pos_horiz_variance": 0.015328440815210342, "pos_vert_variance": 0.0016185137210413814}}, "errors": ["PreArm: Hardware safety switch"]}
{"timestamp": "2025-12-28T10:39:42.869353Z", "telemetry": {"lat": 28.753194, "lon": 77.1177264, "satellites": 12, "altitude_gps_m": 213.14999389648438, "groundspeed_mps": 0.3010106384754181}, "flight": {"mode": "STABILIZE", "armed": false}, "ekf": {"attitude": {"roll": -0.03022443875670433, "pitch": 0.0016159065999090672, "yaw": 3.0452957153320312}, "local_position": {"x": 12.756404876708984, "y": -14.137252807617188, "z": -4.221733093261719}, "status": {"flags": 33599, "velocity_variance": 0.13628661632537842, "pos_horiz_variance": 0.018510431051254272, "pos_vert_variance": 0.05266204848885536}}, "errors": ["PreArm: Hardware safety switch"]}
{"timestamp": "2025-12-28T10:39:43.869286Z", "telemetry": {"lat": 28.7531974, "lon": 77.1177235, "satellites": 12, "altitude_gps_m": 213.08999633789062, "groundspeed_mps": 0.39587581157684326}, "flight": {"mode": "STABILIZE", "armed": false}, "ekf": {"attitude": {"roll": -0.030396271497011185, "pitch": 0.002061711624264717, "yaw": 3.0451197624206543}, "local_position": {"x": 13.137048721313477, "y": -14.30817985534668, "z": -4.171498775482178}, "status": {"flags": 33599, "velocity_variance": 0.2024299055337906, "pos_horiz_variance": 0.0166461281478405, "pos_vert_variance": 0.02952086739242077}}, "errors": ["PreArm: Hardware safety switch"]}
{"timestamp": "2025-12-28T10:39:44.868479Z", "telemetry": {"lat": 28.7531971, "lon": 77.1177225, "satellites": 12, "altitude_gps_m": 213.1599884033203, "groundspeed_mps": 0.39450526237487793}, "flight": {"mode": "STABILIZE", "armed": false}, "ekf": {"attitude": {"roll": -0.03064480796456337, "pitch": 0.0011740787886083126, "yaw": 3.0450613498687744}, "local_position": {"x": 13.427738189697266, "y": -14.60370922088623, "z": -4.237297534942627}, "status": {"flags": 33599, "velocity_variance": 0.09821248799562454, "pos_horiz_variance": 0.011264530941843987, "pos_vert_variance": 0.015464462339878082}}, "errors": ["PreArm: Hardware safety switch"]}
{"timestamp": "2025-12-28T10:39:45.867869Z", "telemetry": {"lat": 28.7531961, "lon": 77.1177252, "satellites": 12, "altitude_gps_m": 213.12998962402344, "groundspeed_mps": 0.34145838022232056}, "flight": {"mode": "STABILIZE", "armed": false}, "ekf": {"attitude": {"roll": -0.03175945207476616, "pitch": 7.706508040428162e-05, "yaw": 3.0449628829956055}, "local_position": {"x": 13.529579162597656, "y": -14.583959579467773, "z": -4.201239585876465}, "status": {"flags": 33599, "velocity_variance": 0.226463183760643, "pos_horiz_variance": 0.003342240583151579, "pos_vert_variance": 0.02199830487370491}}, "errors": ["PreArm: Hardware safety switch"]}
{"timestamp": "2025-12-28T10:39:46.868792Z", "telemetry": {"lat": 28.753197, "lon": 77.1177219, "satellites": 12, "altitude_gps_m": 213.19000244140625, "groundspeed_mps": 0.32711395621299744}, "flight": {"mode": "STABILIZE", "armed": false}, "ekf": {"attitude": {"roll": -0.031025167554616928, "pitch": -0.0005175378173589706, "yaw": 3.04495906829834}, "local_position": {"x": 13.541390419006348, "y": -14.690044403076172, "z": -4.248431205749512}, "status": {"flags": 33599, "velocity_variance": 0.2633873224258423, "pos_horiz_variance": 0.008992324583232403, "pos_vert_variance": 0.02395215444266796}}, "errors": ["PreArm: Hardware safety switch"]}
{"timestamp": "2025-12-28T10:39:47.868961Z", "telemetry": {"lat": 28.7532019, "lon": 77.1177148, "satellites": 12, "altitude_gps_m": 213.14999389648438, "groundspeed_mps": 0.4010249674320221}, "flight": {"mode": "STABILIZE", "armed": false}, "ekf": {"attitude": {"roll": -0.0304238460958004, "pitch": -0.00045825354754924774, "yaw": 3.0449929237365723}, "local_position": {"x": 13.906526565551758, "y": -15.277763366699219, "z": -4.226299285888672}, "status": {"flags": 33599, "velocity_variance": 0.07763403654098511, "pos_horiz_variance": 0.013849451206624508, "pos_vert_variance": 0.04139312356710434}}, "errors": ["PreArm: Hardware safety switch"]}
{"timestamp": "2025-12-28T10:39:48.868067Z", "telemetry": {"lat": 28.7532065, "lon": 77.1177117, "satellites": 11, "altitude_gps_m": 213.1599884033203, "groundspeed_mps": 0.4628899395465851}, "flight": {"mode": "STABILIZE", "armed": false}, "ekf": {"attitude": {"roll": -0.030121061950922012, "pitch": -0.00040105078369379044, "yaw": 3.044889450073242}, "local_position": {"x": 14.326708793640137, "y": -15.647038459777832, "z": -4.239134311676025}, "status": {"flags": 33599, "velocity_variance": 0.2494659125804901, "pos_horiz_variance": 0.014267055317759514, "pos_vert_variance": 0.034316182136535645}}, "errors": ["PreArm: Hardware safety switch"]}
{"timestamp": "2025-12-28T10:39:49.873460Z", "telemetry": {"lat": 28.7532088, "lon": 77.1177131, "satellites": 12, "altitude_gps_m": 213.1599884033203, "groundspeed_mps": 0.4543803930282593}, "flight": {"mode": "STABILIZE", "armed": false}, "ekf": {"attitude": {"roll": -0.03110406920313835, "pitch": -0.0010516257025301456, "yaw": 3.044917106628418}, "local_position": {"x": 14.624174118041992, "y": -15.824628829956055, "z": -4.251352787017822}, "status": {"flags": 33599, "velocity_variance": 0.46400225162506104, "pos_horiz_variance": 0.009071970358490944, "pos_vert_variance": 0.04987386614084244}}, "errors": ["PreArm: Hardware safety switch"]}
{"timestamp": "2025-12-28T10:39:50.874086Z", "telemetry": {"lat": 28.7532087, "lon": 77.1177118, "satellites": 12, "altitude_gps_m": 213.1699981689453, "groundspeed_mps": 0.3723164200782776}, "flight": {"mode": "STABILIZE", "armed": false}, "ekf": {"attitude": {"roll": -0.031233657151460648, "pitch": -0.002737978007644415, "yaw": 3.0448360443115234}, "local_position": {"x": 14.763731002807617, "y": -15.85549259185791, "z": -4.240468502044678}, "status": {"flags": 33599, "velocity_variance": 0.2598415017127991, "pos_horiz_variance": 0.005367777775973082, "pos_vert_variance": 0.0025448056403547525}}, "errors": ["PreArm: Hardware safety switch"]}
{"timestamp": "2025-12-28T10:39:51.869550Z", "telemetry": {"lat": 28.7532107, "lon": 77.1177083, "satellites": 11, "altitude_gps_m": 213.22000122070312, "groundspeed_mps": 0.379616916179657}, "flight": {"mode": "STABILIZE", "armed": false}, "ekf": {"attitude": {"roll": -0.03110235556960106, "pitch": -0.002650184091180563, "yaw": 3.0448641777038574}, "local_position": {"x": 14.864906311035156, "y": -16.086999893188477, "z": -4.289435863494873}, "status": {"flags": 33599, "velocity_variance": 0.14265850186347961, "pos_horiz_variance": 0.005192164331674576, "pos_vert_variance": 0.013624588027596474}}, "errors": ["PreArm: Hardware safety switch"]}
{"timestamp": "2025-12-28T10:39:52.867961Z", "telemetry": {"lat": 28.7532115, "lon": 77.1177103, "satellites": 11, "altitude_gps_m": 213.20999145507812, "groundspeed_mps": 0.3407805562019348}, "flight": {"mode": "STABILIZE", "armed": false}, "ekf": {"attitude": {"roll": -0.03240233287215233, "pitch": -0.003333951812237501, "yaw": 3.044923782348633}, "local_position": {"x": 15.17915153503418, "y": -16.24233055114746, "z": -4.293794631958008}, "status": {"flags": 33599, "velocity_variance": 0.18077269196510315, "pos_horiz_variance": 0.001959719695150852, "pos_vert_variance": 0.0597921758890152}}, "errors": ["PreArm: Hardware safety switch"]}
{"timestamp": "2025-12-28T10:39:53.868840Z", "telemetry": {"lat": 28.7532153, "lon": 77.117708, "satellites": 11, "altitude_gps_m": 213.13999938964844, "groundspeed_mps": 0.34000277519226074}, "flight": {"mode": "STABILIZE", "armed": false}, "ekf": {"attitude": {"roll": -0.03297658637166023, "pitch": -0.002934169489890337, "yaw": 3.0449931621551514}, "local_position": {"x": 15.411453247070312, "y": -16.24055290222168, "z": -4.230929851531982}, "status": {"flags": 33599, "velocity_variance": 0.12230665981769562, "pos_horiz_variance": 0.005496843717992306, "pos_vert_variance": 0.038262270390987396}}, "errors": ["PreArm: Hardware safety switch"]}
{"timestamp": "2025-12-28T10:39:54.868759Z", "telemetry": {"lat": 28.7532208, "lon": 77.1177094, "satellites": 11, "altitude_gps_m": 213.09999084472656, "groundspeed_mps": 0.3743399679660797}, "flight": {"mode": "STABILIZE", "armed": false}, "ekf": {"attitude": {"roll": -0.03377031907439232, "pitch": -0.0026162518188357353, "yaw": 3.045098304748535}, "local_position": {"x": 16.013317108154297, "y": -16.22317123413086, "z": -4.176660537719727}, "status": {"flags": 33599, "velocity_variance": 0.46781542897224426, "pos_horiz_variance": 0.0059848083183169365, "pos_vert_variance": 0.016314396634697914}}, "errors": ["PreArm: Hardware safety switch"]}
{"timestamp": "2025-12-28T10:39:55.868650Z", "telemetry": {"lat": 28.7532228, "lon": 77.1177114, "satellites": 12, "altitude_gps_m": 213.22000122070312, "groundspeed_mps": 0.38421177864074707}, "flight": {"mode": "STABILIZE", "armed": false}, "ekf": {"attitude": {"roll": -0.03372768685221672, "pitch": -0.0030212230049073696, "yaw": 3.0450191497802734}, "local_position": {"x": 16.302101135253906, "y": -16.27540397644043, "z": -4.255788803100586}, "status": {"flags": 33599, "velocity_variance": 0.4711005985736847, "pos_horiz_variance": 0.004277318716049194, "pos_vert_variance": 0.05678798258304596}}, "errors": ["PreArm: Hardware safety switch"]}
{"timestamp": "2025-12-28T10:39:56.867905Z", "telemetry": {"lat": 28.7532254, "lon": 77.117717, "satellites": 12, "altitude_gps_m": 213.2899932861328, "groundspeed_mps": 0.4223451018333435}, "flight": {"mode": "STABILIZE", "armed": false}, "ekf": {"attitude": {"roll": -0.035244133323431015, "pitch": -0.0029432247392833233, "yaw": 3.0449531078338623}, "local_position": {"x": 16.717714309692383, "y": -16.048948287963867, "z": -4.381923198699951}, "status": {"flags": 33599, "velocity_variance": 0.519270122051239, "pos_horiz_variance": 0.015118967741727829, "pos_vert_variance": 0.046859011054039}}, "errors": ["PreArm: Hardware safety switch"]}
{"timestamp": "2025-12-28T10:39:57.868744Z", "telemetry": {"lat": 28.7532277, "lon": 77.1177236, "satellites": 12, "altitude_gps_m": 213.3199920654297, "groundspeed_mps": 0.4263877868652344}, "flight": {"mode": "STABILIZE", "armed": false}, "ekf": {"attitude": {"roll": -0.036002267152071, "pitch": -0.00429777754470706, "yaw": 3.0450825691223145}, "local_position": {"x": 17.123994827270508, "y": -15.370293617248535, "z": -4.398225784301758}, "status": {"flags": 33599, "velocity_variance": 0.49355748295783997, "pos_horiz_variance": 0.01569289155304432, "pos_vert_variance": 0.02580224722623825}}, "errors": ["PreArm: Hardware safety switch"]}
{"timestamp": "2025-12-28T10:39:58.867942Z", "telemetry": {"lat": 28.7532328, "lon": 77.1177227, "satellites": 11, "altitude_gps_m": 213.4199981689453, "groundspeed_mps": 0.4419363737106323}, "flight": {"mode": "STABILIZE", "armed": false}, "ekf": {"attitude": {"roll": -0.03574858233332634, "pitch": -0.004427996929734945, "yaw": 3.0453622341156006}, "local_position": {"x": 17.5126895904541, "y": -15.150147438049316, "z": -4.497665882110596}, "status": {"flags": 33599, "velocity_variance": 0.3261365592479706, "pos_horiz_variance": 0.009403357282280922, "pos_vert_variance": 0.04199259355664253}}, "errors": ["PreArm: Hardware safety switch"]}
{"timestamp": "2025-12-28T10:39:59.868566Z", "telemetry": {"lat": 28.7532366, "lon": 77.117723, "satellites": 11, "altitude_gps_m": 213.45999145507812, "groundspeed_mps": 0.4643365442752838}, "flight": {"mode": "STABILIZE", "armed": false}, "ekf": {"attitude": {"roll": -0.03646275773644447, "pitch": -0.0049333288334310055, "yaw": 3.0455262660980225}, "local_position": {"x": 17.703353881835938, "y": -14.773744583129883, "z": -4.522157669067383}, "status": {"flags": 33599, "velocity_variance": 0.43748146295547485, "pos_horiz_variance": 0.006708821281790733, "pos_vert_variance": 0.022256281226873398}}, "errors": ["PreArm: Hardware safety switch"]}
{"timestamp": "2025-12-28T10:40:00.872914Z", "telemetry": {"lat": 28.7532342, "lon": 77.1177228, "satellites": 11, "altitude_gps_m": 213.51998901367188, "groundspeed_mps": 0.4036724865436554}, "flight": {"mode": "STABILIZE", "armed": false}, "ekf": {"attitude": {"roll": -0.036441702395677567, "pitch": -0.0070782979018986225, "yaw": 3.045776128768921}, "local_position": {"x": 17.783916473388672, "y": -14.518721580505371, "z": -4.599087238311768}, "status": {"flags": 33599, "velocity_variance": 0.4490104913711548, "pos_horiz_variance": 0.006461125332862139, "pos_vert_variance": 0.020321311429142952}}, "errors": ["PreArm: Hardware safety switch"]}
{"timestamp": "2025-12-28T10:40:01.869586Z", "telemetry": {"lat": 28.7532343, "lon": 77.1177231, "satellites": 11, "altitude_gps_m": 213.47999572753906, "groundspeed_mps": 0.40232884883880615}, "flight": {"mode": "STABILIZE", "armed": false}, "ekf": {"attitude": {"roll": -0.036760177463293076, "pitch": -0.00850655511021614, "yaw": 3.0460457801818848}, "local_position": {"x": 17.59292984008789, "y": -14.185799598693848, "z": -4.554931640625}, "status": {"flags": 33599, "velocity_variance": 0.11315134167671204, "pos_horiz_variance": 0.014056991785764694, "pos_vert_variance": 0.09304969757795334}}, "errors": ["PreArm: Hardware safety switch"]}
{"timestamp": "2025-12-28T10:40:02.868374Z", "telemetry": {"lat": 28.7532356, "lon": 77.117717, "satellites": 10, "altitude_gps_m": 213.47000122070312, "groundspeed_mps": 0.28928667306900024}, "flight": {"mode": "STABILIZE", "armed": false}, "ekf": {"attitude": {"roll": -0.03495090827345848, "pitch": -0.008922712877392769, "yaw": 3.0462987422943115}, "local_position": {"x": 17.65106964111328, "y": -14.343647003173828, "z": -4.550894737243652}, "status": {"flags": 33599, "velocity_variance": 0.21188399195671082, "pos_horiz_variance": 0.02583893947303295, "pos_vert_variance": 0.007531024515628815}}, "errors": ["PreArm: Hardware safety switch", "PreArm: Hardware safety switch", "PreArm: Internal errors 0x100000 l:66 flow_of_ctrl"]}
{"timestamp": "2025-12-28T10:40:03.868663Z", "telemetry": {"lat": 28.7532351, "lon": 77.1177165, "satellites": 11, "altitude_gps_m": 213.37998962402344, "groundspeed_mps": 0.262442022562027}, "flight": {"mode": "STABILIZE", "armed": false}, "ekf": {"attitude": {"roll": -0.035000402480363846, "pitch": -0.009252656251192093, "yaw": 3.0462465286254883}, "local_position": {"x": 17.59462547302246, "y": -14.498122215270996, "z": -4.456598281860352}, "status": {"flags": 33599, "velocity_variance": 0.16706086695194244, "pos_horiz_variance": 0.0242027435451746, "pos_vert_variance": 0.01792612299323082}}, "errors": ["PreArm: Hardware safety switch", "PreArm: Hardware safety switch", "PreArm: Internal errors 0x100000 l:66 flow_of_ctrl"]}
{"timestamp": "2025-12-28T10:40:04.868396Z", "telemetry": {"lat": 28.7532357, "lon": 77.1177161, "satellites": 11, "altitude_gps_m": 213.36000061035156, "groundspeed_mps": 0.2534365952014923}, "flight": {"mode": "STABILIZE", "armed": false}, "ekf": {"attitude": {"roll": -0.03448790684342384, "pitch": -0.009830880910158157, "yaw": 3.0464112758636475}, "local_position": {"x": 17.563037872314453, "y": -14.521806716918945, "z": -4.440886974334717}, "status": {"flags": 33599, "velocity_variance": 0.10767190158367157, "pos_horiz_variance": 0.026003938168287277, "pos_vert_variance": 0.0293416790664196}}, "errors": ["PreArm: Hardware safety switch", "PreArm: Hardware safety switch", "PreArm: Internal errors 0x100000 l:66 flow_of_ctrl"]}
{"timestamp": "2025-12-28T10:40:05.868797Z", "telemetry": {"lat": 28.753236, "lon": 77.1177153, "satellites": 11, "altitude_gps_m": 213.3699951171875, "groundspeed_mps": 0.2366591840982437}, "flight": {"mode": "STABILIZE", "armed": false}, "ekf": {"attitude": {"roll": -0.033871252089738846, "pitch": -0.010269096121191978, "yaw": 3.0464582443237305}, "local_position": {"x": 17.499481201171875, "y": -14.633028984069824, "z": -4.442958354949951}, "status": {"flags": 33599, "velocity_variance": 0.18006913363933563, "pos_horiz_variance": 0.026169054210186005, "pos_vert_variance": 0.006132718175649643}}, "errors": ["PreArm: Hardware safety switch", "PreArm: Hardware safety switch", "PreArm: Internal errors 0x100000 l:66 flow_of_ctrl"]}
{"timestamp": "2025-12-28T10:40:06.868503Z", "telemetry": {"lat": 28.7532376, "lon": 77.1177135, "satellites": 11, "altitude_gps_m": 213.30999755859375, "groundspeed_mps": 0.19211016595363617}, "flight": {"mode": "STABILIZE", "armed": false}, "ekf": {"attitude": {"roll": -0.03305646404623985, "pitch": -0.009511210024356842, "yaw": 3.0465288162231445}, "local_position": {"x": 17.53421974182129, "y": -14.839940071105957, "z": -4.378330707550049}, "status": {"flags": 33599, "velocity_variance": 0.1532164067029953, "pos_horiz_variance": 0.02728988416492939, "pos_vert_variance": 0.06668604910373688}}, "errors": ["PreArm: Hardware safety switch", "PreArm: Hardware safety switch", "PreArm: Internal errors 0x100000 l:66 flow_of_ctrl"]}
{"timestamp": "2025-12-28T10:40:07.868583Z", "telemetry": {"lat": 28.7532403, "lon": 77.1177101, "satellites": 11, "altitude_gps_m": 213.22999572753906, "groundspeed_mps": 0.08344777673482895}, "flight": {"mode": "STABILIZE", "armed": false}, "ekf": {"attitude": {"roll": -0.031787510961294174, "pitch": -0.008426325395703316, "yaw": 3.046691656112671}, "local_position": {"x": 17.732213973999023, "y": -15.132922172546387, "z": -4.3144731521606445}, "status": {"flags": 33599, "velocity_variance": 0.2703801095485687, "pos_horiz_variance": 0.03026893176138401, "pos_vert_variance": 0.056723859161138535}}, "errors": ["PreArm: Hardware safety switch", "PreArm: Hardware safety switch", "PreArm: Internal errors 0x100000 l:66 flow_of_ctrl"]}
{"timestamp": "2025-12-28T10:40:08.868653Z", "telemetry": {"lat": 28.7532393, "lon": 77.1177094, "satellites": 10, "altitude_gps_m": 213.26998901367188, "groundspeed_mps": 0.08895915746688843}, "flight": {"mode": "STABILIZE", "armed": false}, "ekf": {"attitude": {"roll": -0.0319216214120388, "pitch": -0.00848505087196827, "yaw": 3.0465171337127686}, "local_position": {"x": 17.8016357421875, "y": -15.414872169494629, "z": -4.361936569213867}, "status": {"flags": 33599, "velocity_variance": 0.11759130656719208, "pos_horiz_variance": 0.02421681210398674, "pos_vert_variance": 0.07972414791584015}}, "errors": ["PreArm: Hardware safety switch", "PreArm: Hardware safety switch", "PreArm: Internal errors 0x100000 l:66 flow_of_ctrl"]}
{"timestamp": "2025-12-28T10:40:09.868626Z", "telemetry": {"lat": 28.7532438, "lon": 77.1177057, "satellites": 10, "altitude_gps_m": 213.26998901367188, "groundspeed_mps": 0.07722068578004837}, "flight": {"mode": "STABILIZE", "armed": false}, "ekf": {"attitude": {"roll": -0.03072936460375786, "pitch": -0.007128802593797445, "yaw": 3.0466620922088623}, "local_position": {"x": 18.088666915893555, "y": -15.782411575317383, "z": -4.343416690826416}, "status": {"flags": 33599, "velocity_variance": 0.13189005851745605, "pos_horiz_variance": 0.027201833203434944, "pos_vert_variance": 0.06468063592910767}}, "errors": ["PreArm: Hardware safety switch", "PreArm: Hardware safety switch", "PreArm: Internal errors 0x100000 l:66 flow_of_ctrl"]}
{"timestamp": "2025-12-28T10:40:10.872488Z", "telemetry": {"lat": 28.7532506, "lon": 77.1177032, "satellites": 10, "altitude_gps_m": 213.25999450683594, "groundspeed_mps": 0.1629408597946167}, "flight": {"mode": "STABILIZE", "armed": false}, "ekf": {"attitude": {"roll": -0.030349131673574448, "pitch": -0.005025803577154875, "yaw": 3.046560525894165}, "local_position": {"x": 18.646671295166016, "y": -16.10356330871582, "z": -4.334156036376953}, "status": {"flags": 33599, "velocity_variance": 0.07652413100004196, "pos_horiz_variance": 0.029928967356681824, "pos_vert_variance": 0.01983637735247612}}, "errors": ["PreArm: Hardware safety switch", "PreArm: Hardware safety switch", "PreArm: Internal errors 0x100000 l:66 flow_of_ctrl"]}
{"timestamp": "2025-12-28T10:40:11.872543Z", "telemetry": {"lat": 28.7532538, "lon": 77.1177008, "satellites": 10, "altitude_gps_m": 213.1699981689453, "groundspeed_mps": 0.27148064970970154}, "flight": {"mode": "STABILIZE", "armed": false}, "ekf": {"attitude": {"roll": -0.03040922060608864, "pitch": -0.0036432300694286823, "yaw": 3.0463685989379883}, "local_position": {"x": 19.07701873779297, "y": -16.37561798095703, "z": -4.2696638107299805}, "status": {"flags": 33599, "velocity_variance": 0.24786986410617828, "pos_horiz_variance": 0.028902195394039154, "pos_vert_variance": 0.014461186714470387}}, "errors": ["PreArm: Hardware safety switch", "PreArm: Hardware safety switch", "PreArm: Internal errors 0x100000 l:66 flow_of_ctrl"]}
{"timestamp": "2025-12-28T10:40:12.868806Z", "telemetry": {"lat": 28.7532534, "lon": 77.1176986, "satellites": 10, "altitude_gps_m": 213.1199951171875, "groundspeed_mps": 0.2809830605983734}, "flight": {"mode": "STABILIZE", "armed": false}, "ekf": {"attitude": {"roll": -0.03083701804280281, "pitch": -0.004137840587645769, "yaw": 3.0462493896484375}, "local_position": {"x": 19.487524032592773, "y": -16.732528686523438, "z": -4.191089153289795}, "status": {"flags": 33599, "velocity_variance": 0.18922647833824158, "pos_horiz_variance": 0.018758907914161682, "pos_vert_variance": 0.014301041141152382}}, "errors": ["PreArm: Hardware safety switch", "PreArm: Hardware safety switch", "PreArm: Internal errors 0x100000 l:66 flow_of_ctrl"]}
{"timestamp": "2025-12-28T10:40:13.868436Z", "telemetry": {"lat": 28.7532496, "lon": 77.1177001, "satellites": 11, "altitude_gps_m": 213.00999450683594, "groundspeed_mps": 0.1768319457769394}, "flight": {"mode": "STABILIZE", "armed": false}, "ekf": {"attitude": {"roll": -0.031636010855436325, "pitch": -0.005630153696984053, "yaw": 3.0461766719818115}, "local_position": {"x": 19.377328872680664, "y": -16.78062629699707, "z": -4.0834641456604}, "status": {"flags": 33599, "velocity_variance": 0.12869621813297272, "pos_horiz_variance": 0.010808628052473068, "pos_vert_variance": 0.04989859089255333}}, "errors": ["PreArm: Hardware safety switch", "PreArm: Hardware safety switch", "PreArm: Internal errors 0x100000 l:66 flow_of_ctrl"]}
{"timestamp": "2025-12-28T10:40:14.867988Z", "telemetry": {"lat": 28.7532486, "lon": 77.1176993, "satellites": 11, "altitude_gps_m": 213.02999877929688, "groundspeed_mps": 0.16187365353107452}, "flight": {"mode": "STABILIZE", "armed": false}, "ekf": {"attitude": {"roll": -0.030948180705308914, "pitch": -0.006478351075202227, "yaw": 3.046210765838623}, "local_position": {"x": 19.304052352905273, "y": -16.937450408935547, "z": -4.104597091674805}, "status": {"flags": 33599, "velocity_variance": 0.20928257703781128, "pos_horiz_variance": 0.00795721635222435, "pos_vert_variance": 0.01046263612806797}}, "errors": ["PreArm: Hardware safety switch", "PreArm: Hardware safety switch", "PreArm: Internal errors 0x100000 l:66 flow_of_ctrl"]}
{"timestamp": "2025-12-28T10:40:15.868733Z", "telemetry": {"lat": 28.7532452, "lon": 77.1176981, "satellites": 12, "altitude_gps_m": 213.0800018310547, "groundspeed_mps": 0.18704275786876678}, "flight": {"mode": "STABILIZE", "armed": false}, "ekf": {"attitude": {"roll": -0.03048839047551155, "pitch": -0.007578895892947912, "yaw": 3.046110153198242}, "local_position": {"x": 19.07598114013672, "y": -17.158113479614258, "z": -4.162552356719971}, "status": {"flags": 33599, "velocity_variance": 0.12980972230434418, "pos_horiz_variance": 0.007506311405450106, "pos_vert_variance": 0.02375718578696251}}, "errors": ["PreArm: Hardware safety switch", "PreArm: Hardware safety switch", "PreArm: Internal errors 0x100000 l:66 flow_of_ctrl"]}
{"timestamp": "2025-12-28T10:40:16.867776Z", "telemetry": {"lat": 28.7532505, "lon": 77.1176974, "satellites": 12, "altitude_gps_m": 213.12998962402344, "groundspeed_mps": 0.17809756100177765}, "flight": {"mode": "STABILIZE", "armed": false}, "ekf": {"attitude": {"roll": -0.030623432248830795, "pitch": -0.006183227989822626, "yaw": 3.046071767807007}, "local_position": {"x": 19.16291046142578, "y": -17.330608367919922, "z": -4.186715602874756}, "status": {"flags": 33599, "velocity_variance": 0.3033429682254791, "pos_horiz_variance": 0.005510576535016298, "pos_vert_variance": 0.012073857709765434}}, "errors": ["PreArm: Hardware safety switch", "PreArm: Hardware safety switch", "PreArm: Internal errors 0x100000 l:66 flow_of_ctrl"]}
{"timestamp": "2025-12-28T10:40:17.868687Z", "telemetry": {"lat": 28.7532496, "lon": 77.117697, "satellites": 12, "altitude_gps_m": 213.0699920654297, "groundspeed_mps": 0.16225849092006683}, "flight": {"mode": "STABILIZE", "armed": false}, "ekf": {"attitude": {"roll": -0.030855659395456314, "pitch": -0.006527773570269346, "yaw": 3.045912981033325}, "local_position": {"x": 19.338659286499023, "y": -17.46009063720703, "z": -4.171539783477783}, "status": {"flags": 33599, "velocity_variance": 0.0715685561299324, "pos_horiz_variance": 0.0011409316211938858, "pos_vert_variance": 0.0011734077706933022}}, "errors": ["PreArm: Hardware safety switch", "PreArm: Hardware safety switch", "PreArm: Internal errors 0x100000 l:66 flow_of_ctrl"]}
{"timestamp": "2025-12-28T10:40:18.868418Z", "telemetry": {"lat": 28.7532462, "lon": 77.1176967, "satellites": 12, "altitude_gps_m": 213.04998779296875, "groundspeed_mps": 0.1716601699590683}, "flight": {"mode": "STABILIZE", "armed": false}, "ekf": {"attitude": {"roll": -0.030947867780923843, "pitch": -0.007734180893748999, "yaw": 3.045849323272705}, "local_position": {"x": 19.05315589904785, "y": -17.498197555541992, "z": -4.132055282592773}, "status": {"flags": 33599, "velocity_variance": 0.09121721982955933, "pos_horiz_variance": 0.0017799853812903166, "pos_vert_variance": 0.023742327466607094}}, "errors": ["PreArm: Hardware safety switch", "PreArm: Hardware safety switch", "PreArm: Internal errors 0x100000 l:66 flow_of_ctrl"]}
{"timestamp": "2025-12-28T10:40:19.868269Z", "telemetry": {"lat": 28.753249, "lon": 77.1176961, "satellites": 12, "altitude_gps_m": 213.04998779296875, "groundspeed_mps": 0.14297176897525787}, "flight": {"mode": "STABILIZE", "armed": false}, "ekf": {"attitude": {"roll": -0.031341563910245895, "pitch": -0.007268476765602827, "yaw": 3.045672655105591}, "local_position": {"x": 19.048593521118164, "y": -17.536972045898438, "z": -4.125216007232666}, "status": {"flags": 33599, "velocity_variance": 0.10875098407268524, "pos_horiz_variance": 0.005635367706418037, "pos_vert_variance": 0.05722133442759514}}, "errors": ["PreArm: Hardware safety switch", "PreArm: Hardware safety switch", "PreArm: Internal errors 0x100000 l:66 flow_of_ctrl"]}
{"timestamp": "2025-12-28T10:40:20.868268Z", "telemetry": {"lat": 28.7532515, "lon": 77.1176956, "satellites": 11, "altitude_gps_m": 213.08999633789062, "groundspeed_mps": 0.10881856083869934}, "flight": {"mode": "STABILIZE", "armed": false}, "ekf": {"attitude": {"roll": -0.0316636897623539, "pitch": -0.0066391355358064175, "yaw": 3.045588731765747}, "local_position": {"x": 19.18101692199707, "y": -17.580867767333984, "z": -4.162961006164551}, "status": {"flags": 33599, "velocity_variance": 0.10307462513446808, "pos_horiz_variance": 0.009553544223308563, "pos_vert_variance": 0.03703800588846207}}, "errors": ["PreArm: Hardware safety switch", "PreArm: Hardware safety switch", "PreArm: Internal errors 0x100000 l:66 flow_of_ctrl"]}
{"timestamp": "2025-12-28T10:40:21.871979Z", "telemetry": {"lat": 28.7532514, "lon": 77.1176962, "satellites": 12, "altitude_gps_m": 213.17999267578125, "groundspeed_mps": 0.08481402695178986}, "flight": {"mode": "STABILIZE", "armed": false}, "ekf": {"attitude": {"roll": -0.03178625926375389, "pitch": -0.006323774810880423, "yaw": 3.0455033779144287}, "local_position": {"x": 19.234249114990234, "y": -17.576955795288086, "z": -4.233055114746094}, "status": {"flags": 33599, "velocity_variance": 0.10001600533723831, "pos_horiz_variance": 0.008594396524131298, "pos_vert_variance": 0.024790579453110695}}, "errors": ["PreArm: Hardware safety switch", "PreArm: Hardware safety switch", "PreArm: Internal errors 0x100000 l:66 flow_of_ctrl"]}
{"timestamp": "2025-12-28T10:40:22.868186Z", "telemetry": {"lat": 28.7532556, "lon": 77.1176932, "satellites": 11, "altitude_gps_m": 213.20999145507812, "groundspeed_mps": 0.09853500127792358}, "flight": {"mode": "STABILIZE", "armed": false}, "ekf": {"attitude": {"roll": -0.03160033002495766, "pitch": -0.005337717477232218, "yaw": 3.045490264892578}, "local_position": {"x": 19.541536331176758, "y": -17.712156295776367, "z": -4.2875075340271}, "status": {"flags": 33599, "velocity_variance": 0.21818318963050842, "pos_horiz_variance": 0.011968514882028103, "pos_vert_variance": 0.017168179154396057}}, "errors": ["PreArm: Hardware safety switch", "PreArm: Hardware safety switch", "PreArm: Internal errors 0x100000 l:66 flow_of_ctrl"]}
{"timestamp": "2025-12-28T10:40:23.868604Z", "telemetry": {"lat": 28.7532577, "lon": 77.117692, "satellites": 12, "altitude_gps_m": 213.27999877929688, "groundspeed_mps": 0.1208471953868866}, "flight": {"mode": "STABILIZE", "armed": false}, "ekf": {"attitude": {"roll": -0.031824741512537, "pitch": -0.004835082683712244, "yaw": 3.045487880706787}, "local_position": {"x": 19.82752227783203, "y": -17.837602615356445, "z": -4.351925373077393}, "status": {"flags": 33599, "velocity_variance": 0.2618548572063446, "pos_horiz_variance": 0.011580592952668667, "pos_vert_variance": 0.03995281457901001}}, "errors": ["PreArm: Hardware safety switch", "PreArm: Hardware safety switch", "PreArm: Internal errors 0x100000 l:66 flow_of_ctrl"]}
{"timestamp": "2025-12-28T10:40:24.868111Z", "telemetry": {"lat": 28.7532581, "lon": 77.1176919, "satellites": 12, "altitude_gps_m": 213.22000122070312, "groundspeed_mps": 0.06504715234041214}, "flight": {"mode": "STABILIZE", "armed": false}, "ekf": {"attitude": {"roll": -0.032514963299036026, "pitch": -0.005560037214308977, "yaw": 3.0455739498138428}, "local_position": {"x": 19.894384384155273, "y": -17.83881378173828, "z": -4.287353038787842}, "status": {"flags": 33599, "velocity_variance": 0.24849654734134674, "pos_horiz_variance": 0.010883496142923832, "pos_vert_variance": 0.030879400670528412}}, "errors": ["PreArm: Hardware safety switch", "PreArm: Hardware safety switch", "PreArm: Internal errors 0x100000 l:66 flow_of_ctrl"]}
{"timestamp": "2025-12-28T10:40:25.868652Z", "telemetry": {"lat": 28.7532607, "lon": 77.1176917, "satellites": 12, "altitude_gps_m": 213.25, "groundspeed_mps": 0.10153493285179138}, "flight": {"mode": "STABILIZE", "armed": false}, "ekf": {"attitude": {"roll": -0.03273451700806618, "pitch": -0.00409450801089406, "yaw": 3.045560836791992}, "local_position": {"x": 19.98858642578125, "y": -17.775882720947266, "z": -4.336886882781982}, "status": {"flags": 33599, "velocity_variance": 0.24410273134708405, "pos_horiz_variance": 0.01608789525926113, "pos_vert_variance": 0.008350363001227379}}, "errors": ["PreArm: Hardware safety switch", "PreArm: Hardware safety switch", "PreArm: Internal errors 0x100000 l:66 flow_of_ctrl"]}
{"timestamp": "2025-12-28T10:40:26.868008Z", "telemetry": {"lat": 28.7532603, "lon": 77.1176889, "satellites": 12, "altitude_gps_m": 213.19000244140625, "groundspeed_mps": 0.10889176279306412}, "flight": {"mode": "STABILIZE", "armed": false}, "ekf": {"attitude": {"roll": -0.032506171613931656, "pitch": -0.004601368214935064, "yaw": 3.0456502437591553}, "local_position": {"x": 20.29047393798828, "y": -18.00367546081543, "z": -4.265050411224365}, "status": {"flags": 33599, "velocity_variance": 0.1469043642282486, "pos_horiz_variance": 0.009267866611480713, "pos_vert_variance": 0.009667178615927696}}, "errors": ["PreArm: Hardware safety switch", "PreArm: Hardware safety switch", "PreArm: Internal errors 0x100000 l:66 flow_of_ctrl"]}
{"timestamp": "2025-12-28T10:40:27.868853Z", "telemetry": {"lat": 28.7532561, "lon": 77.11769, "satellites": 11, "altitude_gps_m": 213.1599884033203, "groundspeed_mps": 0.026824861764907837}, "flight": {"mode": "STABILIZE", "armed": false}, "ekf": {"attitude": {"roll": -0.03295586630702019, "pitch": -0.005908049177378416, "yaw": 3.045707941055298}, "local_position": {"x": 20.186384201049805, "y": -18.01696014404297, "z": -4.2090373039245605}, "status": {"flags": 33599, "velocity_variance": 0.15933577716350555, "pos_horiz_variance": 0.0032152803614735603, "pos_vert_variance": 0.0684785544872284}}, "errors": ["PreArm: Hardware safety switch", "PreArm: Hardware safety switch", "PreArm: Internal errors 0x100000 l:66 flow_of_ctrl"]}
{"timestamp": "2025-12-28T10:40:28.868329Z", "telemetry": {"lat": 28.7532418, "lon": 77.1176962, "satellites": 10, "altitude_gps_m": 213.25, "groundspeed_mps": 0.16309447586536407}, "flight": {"mode": "STABILIZE", "armed": false}, "ekf": {"attitude": {"roll": -0.03303252533078194, "pitch": -0.007927294820547104, "yaw": 3.0456767082214355}, "local_position": {"x": 19.466297149658203, "y": -17.883031845092773, "z": -4.326590061187744}, "status": {"flags": 33599, "velocity_variance": 0.3068435490131378, "pos_horiz_variance": 0.025939660146832466, "pos_vert_variance": 0.009662050753831863}}, "errors": ["PreArm: Hardware safety switch", "PreArm: Hardware safety switch", "PreArm: Internal errors 0x100000 l:66 flow_of_ctrl"]}
{"timestamp": "2025-12-28T10:40:29.867964Z", "telemetry": {"lat": 28.7532382, "lon": 77.1176994, "satellites": 10, "altitude_gps_m": 213.25999450683594, "groundspeed_mps": 0.19194422662258148}, "flight": {"mode": "STABILIZE", "armed": false}, "ekf": {"attitude": {"roll": -0.033331092447042465, "pitch": -0.00775184715166688, "yaw": 3.045715808868408}, "local_position": {"x": 19.172189712524414, "y": -17.776016235351562, "z": -4.338284492492676}, "status": {"flags": 33599, "velocity_variance": 0.21093033254146576, "pos_horiz_variance": 0.03267601132392883, "pos_vert_variance": 0.04081112518906593}}, "errors": ["PreArm: Hardware safety switch", "PreArm: Hardware safety switch", "PreArm: Internal errors 0x100000 l:66 flow_of_ctrl"]}
{"timestamp": "2025-12-28T10:40:30.868810Z", "telemetry": {"lat": 28.7532326, "lon": 77.1177033, "satellites": 10, "altitude_gps_m": 213.239990234375, "groundspeed_mps": 0.3204141855239868}, "flight": {"mode": "STABILIZE", "armed": false}, "ekf": {"attitude": {"roll": -0.034098196774721146, "pitch": -0.008741257712244987, "yaw": 3.045652151107788}, "local_position": {"x": 18.688501358032227, "y": -17.557758331298828, "z": -4.322811603546143}, "status": {"flags": 33599, "velocity_variance": 0.29362034797668457, "pos_horiz_variance": 0.036762915551662445, "pos_vert_variance": 0.004407149739563465}}, "errors": ["PreArm: Hardware safety switch", "PreArm: Hardware safety switch", "PreArm: Internal errors 0x100000 l:66 flow_of_ctrl"]}
{"timestamp": "2025-12-28T10:40:31.868438Z", "telemetry": {"lat": 28.7532187, "lon": 77.1177144, "satellites": 9, "altitude_gps_m": 213.239990234375, "groundspeed_mps": 0.5681830644607544}, "flight": {"mode": "STABILIZE", "armed": false}, "ekf": {"attitude": {"roll": -0.03552250936627388, "pitch": -0.010917255654931068, "yaw": 3.0456926822662354}, "local_position": {"x": 17.42416000366211, "y": -16.772308349609375, "z": -4.312612533569336}, "status": {"flags": 33599, "velocity_variance": 0.4291074573993683, "pos_horiz_variance": 0.04860318452119827, "pos_vert_variance": 0.057200782001018524}}, "errors": ["PreArm: Hardware safety switch", "PreArm: Hardware safety switch", "PreArm: Internal errors 0x100000 l:66 flow_of_ctrl"]}
{"timestamp": "2025-12-28T10:40:32.871528Z", "telemetry": {"lat": 28.7532106, "lon": 77.1177216, "satellites": 9, "altitude_gps_m": 213.1699981689453, "groundspeed_mps": 0.7568408846855164}, "flight": {"mode": "STABILIZE", "armed": false}, "ekf": {"attitude": {"roll": -0.03690692409873009, "pitch": -0.011942137032747269, "yaw": 3.045905590057373}, "local_position": {"x": 16.394460678100586, "y": -16.060245513916016, "z": -4.246667385101318}, "status": {"flags": 33599, "velocity_variance": 0.3392573297023773, "pos_horiz_variance": 0.0472414493560791, "pos_vert_variance": 0.01622401550412178}}, "errors": ["PreArm: Hardware safety switch", "PreArm: Hardware safety switch", "PreArm: Internal errors 0x100000 l:66 flow_of_ctrl", "PreArm: Hardware safety switch", "PreArm: Internal errors 0x100000 l:66 flow_of_ctrl"]}
{"timestamp": "2025-12-28T10:40:33.868520Z", "telemetry": {"lat": 28.7532056, "lon": 77.1177261, "satellites": 8, "altitude_gps_m": 213.0699920654297, "groundspeed_mps": 0.8700733780860901}, "flight": {"mode": "STABILIZE", "armed": false}, "ekf": {"attitude": {"roll": -0.03776371106505394, "pitch": -0.011738492175936699, "yaw": 3.0458855628967285}, "local_position": {"x": 15.726324081420898, "y": -15.50580883026123, "z": -4.153380870819092}, "status": {"flags": 33599, "velocity_variance": 0.4474096894264221, "pos_horiz_variance": 0.04185644909739494, "pos_vert_variance": 0.0009169952827505767}}, "errors": ["PreArm: Hardware safety switch", "PreArm: Hardware safety switch", "PreArm: Internal errors 0x100000 l:66 flow_of_ctrl", "PreArm: Hardware safety switch", "PreArm: Internal errors 0x100000 l:66 flow_of_ctrl"]}
{"timestamp": "2025-12-28T10:40:34.868402Z", "telemetry": {"lat": 28.7531975, "lon": 77.117731, "satellites": 8, "altitude_gps_m": 213.1699981689453, "groundspeed_mps": 0.9458698630332947}, "flight": {"mode": "STABILIZE", "armed": false}, "ekf": {"attitude": {"roll": -0.03758649900555611, "pitch": -0.011620884761214256, "yaw": 3.0460331439971924}, "local_position": {"x": 14.677143096923828, "y": -14.713813781738281, "z": -4.242373466491699}, "status": {"flags": 33599, "velocity_variance": 0.36456382274627686, "pos_horiz_variance": 0.03574593365192413, "pos_vert_variance": 0.041727788746356964}}, "errors": ["PreArm: Hardware safety switch", "PreArm: Hardware safety switch", "PreArm: Internal errors 0x100000 l:66 flow_of_ctrl", "PreArm: Hardware safety switch", "PreArm: Internal errors 0x100000 l:66 flow_of_ctrl"]}
{"timestamp": "2025-12-28T10:40:35.868048Z", "telemetry": {"lat": 28.7532001, "lon": 77.1177321, "satellites": 8, "altitude_gps_m": 213.1999969482422, "groundspeed_mps": 0.8280170559883118}, "flight": {"mode": "STABILIZE", "armed": false}, "ekf": {"attitude": {"roll": -0.036954205483198166, "pitch": -0.008366227149963379, "yaw": 3.045881509780884}, "local_position": {"x": 14.475290298461914, "y": -14.30066204071045, "z": -4.278456211090088}, "status": {"flags": 33599, "velocity_variance": 0.32846418023109436, "pos_horiz_variance": 0.021081384271383286, "pos_vert_variance": 0.011438785120844841}}, "errors": ["PreArm: Hardware safety switch", "PreArm: Hardware safety switch", "PreArm: Internal errors 0x100000 l:66 flow_of_ctrl", "PreArm: Hardware safety switch", "PreArm: Internal errors 0x100000 l:66 flow_of_ctrl"]}
{"timestamp": "2025-12-28T10:40:36.868449Z", "telemetry": {"lat": 28.7531997, "lon": 77.1177327, "satellites": 8, "altitude_gps_m": 213.22999572753906, "groundspeed_mps": 0.7274549603462219}, "flight": {"mode": "STABILIZE", "armed": false}, "ekf": {"attitude": {"roll": -0.03600410744547844, "pitch": -0.006555887404829264, "yaw": 3.045901298522949}, "local_position": {"x": 14.349609375, "y": -14.069703102111816, "z": -4.295226573944092}, "status": {"flags": 33599, "velocity_variance": 0.206229567527771, "pos_horiz_variance": 0.015451187267899513, "pos_vert_variance": 0.01951577328145504}}, "errors": ["PreArm: Hardware safety switch", "PreArm: Hardware safety switch", "PreArm: Internal errors 0x100000 l:66 flow_of_ctrl", "PreArm: Hardware safety switch", "PreArm: Internal errors 0x100000 l:66 flow_of_ctrl"]}
{"timestamp": "2025-12-28T10:40:37.867943Z", "telemetry": {"lat": 28.7532026, "lon": 77.1177293, "satellites": 10, "altitude_gps_m": 213.1699981689453, "groundspeed_mps": 0.5874608755111694}, "flight": {"mode": "STABILIZE", "armed": false}, "ekf": {"attitude": {"roll": -0.03474472835659981, "pitch": -0.004256701562553644, "yaw": 3.0459177494049072}, "local_position": {"x": 14.157693862915039, "y": -13.877460479736328, "z": -4.248348236083984}, "status": {"flags": 33599, "velocity_variance": 0.1713094264268875, "pos_horiz_variance": 0.006411823444068432, "pos_vert_variance": 0.015399492345750332}}, "errors": ["PreArm: Hardware safety switch", "PreArm: Hardware safety switch", "PreArm: Internal errors 0x100000 l:66 flow_of_ctrl", "PreArm: Hardware safety switch", "PreArm: Internal errors 0x100000 l:66 flow_of_ctrl"]}
{"timestamp": "2025-12-28T10:40:38.868761Z", "telemetry": {"lat": 28.7532012, "lon": 77.1177275, "satellites": 10, "altitude_gps_m": 213.1999969482422, "groundspeed_mps": 0.5563573241233826}, "flight": {"mode": "STABILIZE", "armed": false}, "ekf": {"attitude": {"roll": -0.03375638648867607, "pitch": -0.004474715795367956, "yaw": 3.0458405017852783}, "local_position": {"x": 13.737199783325195, "y": -13.739243507385254, "z": -4.271299839019775}, "status": {"flags": 33599, "velocity_variance": 0.12888656556606293, "pos_horiz_variance": 0.01539258100092411, "pos_vert_variance": 0.00871680025011301}}, "errors": ["PreArm: Hardware safety switch", "PreArm: Hardware safety switch", "PreArm: Internal errors 0x100000 l:66 flow_of_ctrl", "PreArm: Hardware safety switch", "PreArm: Internal errors 0x100000 l:66 flow_of_ctrl"]}
