{"timestamp": "2026-01-15T12:13:06.010161Z", "telemetry": {"lat": 28.7531747, "lon": 77.1176278, "satellites": 0, "altitude_gps_m": 0.05999999865889549, "groundspeed_mps": 0.5384536385536194}, "flight": {"mode": null, "armed": null}, "ekf": {"attitude": {"roll": 0.06975166499614716, "pitch": 0.048609424382448196, "yaw": 1.1046168804168701}, "local_position": {"x": null, "y": null, "z": null}, "status": {"flags": 135, "velocity_variance": 0.0, "pos_horiz_variance": 0.006781585048884153, "pos_vert_variance": 0.055653490126132965}}, "errors": []}
{"timestamp": "2026-01-15T12:13:07.000751Z", "telemetry": {"lat": 28.7531747, "lon": 77.1176278, "satellites": 0, "altitude_gps_m": 0.05999999865889549, "groundspeed_mps": 0.6110870242118835}, "flight": {"mode": "STABILIZE", "armed": false}, "ekf": {"attitude": {"roll": -0.09464488923549652, "pitch": 0.02337624691426754, "yaw": 2.828902244567871}, "local_position": {"x": null, "y": null, "z": null}, "status": {"flags": 135, "velocity_variance": 0.0, "pos_horiz_variance": 0.17916059494018555, "pos_vert_variance": 0.048662979155778885}}, "errors": []}
{"timestamp": "2026-01-15T12:13:07.991613Z", "telemetry": {"lat": 28.7531747, "lon": 77.1176278, "satellites": 0, "altitude_gps_m": 0.05999999865889549, "groundspeed_mps": 0.5578874945640564}, "flight": {"mode": "STABILIZE", "armed": false}, "ekf": {"attitude": {"roll": -0.014501385390758514, "pitch": -0.1549452692270279, "yaw": 3.0602097511291504}, "local_position": {"x": null, "y": null, "z": null}, "status": {"flags": 135, "velocity_variance": 0.0, "pos_horiz_variance": 0.11420968919992447, "pos_vert_variance": 0.016106268391013145}}, "errors": ["PreArm: RC not found", "PreArm: Hardware safety switch"]}
{"timestamp": "2026-01-15T12:13:09.017909Z", "telemetry": {"lat": 28.7531747, "lon": 77.1176278, "satellites": 0, "altitude_gps_m": 0.05999999865889549, "groundspeed_mps": 0.44742247462272644}, "flight": {"mode": "STABILIZE", "armed": false}, "ekf": {"attitude": {"roll": 0.0018938668072223663, "pitch": -0.10795530676841736, "yaw": -3.044405460357666}, "local_position": {"x": null, "y": null, "z": null}, "status": {"flags": 135, "velocity_variance": 0.0, "pos_horiz_variance": 0.12494708597660065, "pos_vert_variance": 0.0054198275320231915}}, "errors": ["PreArm: RC not found", "PreArm: Hardware safety switch"]}
{"timestamp": "2026-01-15T12:13:10.010796Z", "telemetry": {"lat": 28.7531747, "lon": 77.1176278, "satellites": 0, "altitude_gps_m": 0.05999999865889549, "groundspeed_mps": 0.40368756651878357}, "flight": {"mode": "STABILIZE", "armed": false}, "ekf": {"attitude": {"roll": -0.007758244872093201, "pitch": -0.002180167008191347, "yaw": -3.022080659866333}, "local_position": {"x": null, "y": null, "z": null}, "status": {"flags": 135, "velocity_variance": 0.0, "pos_horiz_variance": 0.11312499642372131, "pos_vert_variance": 0.12824013829231262}}, "errors": ["PreArm: RC not found", "PreArm: Hardware safety switch"]}
{"timestamp": "2026-01-15T12:13:11.005214Z", "telemetry": {"lat": 28.7531747, "lon": 77.1176278, "satellites": 0, "altitude_gps_m": 0.05999999865889549, "groundspeed_mps": 0.490097314119339}, "flight": {"mode": "STABILIZE", "armed": false}, "ekf": {"attitude": {"roll": 0.018610065802931786, "pitch": 0.005113519262522459, "yaw": 2.4018759727478027}, "local_position": {"x": null, "y": null, "z": null}, "status": {"flags": 135, "velocity_variance": 0.0, "pos_horiz_variance": 0.10675417631864548, "pos_vert_variance": 0.005493727512657642}}, "errors": ["PreArm: RC not found", "PreArm: Hardware safety switch"]}
{"timestamp": "2026-01-15T12:13:12.019973Z", "telemetry": {"lat": 28.7531747, "lon": 77.1176278, "satellites": 0, "altitude_gps_m": 0.05999999865889549, "groundspeed_mps": 0.5385273694992065}, "flight": {"mode": "STABILIZE", "armed": false}, "ekf": {"attitude": {"roll": -0.00802113488316536, "pitch": -0.2733677327632904, "yaw": 3.0333662033081055}, "local_position": {"x": null, "y": null, "z": null}, "status": {"flags": 135, "velocity_variance": 0.0, "pos_horiz_variance": 0.07322753965854645, "pos_vert_variance": 0.026542363688349724}}, "errors": ["PreArm: RC not found", "PreArm: Hardware safety switch"]}
{"timestamp": "2026-01-15T12:13:12.980625Z", "telemetry": {"lat": 28.7531747, "lon": 77.1176278, "satellites": 0, "altitude_gps_m": 0.05999999865889549, "groundspeed_mps": 0.29100656509399414}, "flight": {"mode": "STABILIZE", "armed": false}, "ekf": {"attitude": {"roll": 0.16581538319587708, "pitch": -0.03283733129501343, "yaw": -1.7972511053085327}, "local_position": {"x": null, "y": null, "z": null}, "status": {"flags": 135, "velocity_variance": 0.0, "pos_horiz_variance": 0.07990717887878418, "pos_vert_variance": 0.0783386379480362}}, "errors": ["PreArm: RC not found", "PreArm: Hardware safety switch"]}
{"timestamp": "2026-01-15T12:13:13.980795Z", "telemetry": {"lat": 28.7531747, "lon": 77.1176278, "satellites": 0, "altitude_gps_m": 0.05999999865889549, "groundspeed_mps": 0.6964672207832336}, "flight": {"mode": "STABILIZE", "armed": false}, "ekf": {"attitude": {"roll": 0.16980718076229095, "pitch": 0.08787728101015091, "yaw": -2.5908493995666504}, "local_position": {"x": null, "y": null, "z": null}, "status": {"flags": 135, "velocity_variance": 0.0, "pos_horiz_variance": 0.025267694145441055, "pos_vert_variance": 0.04609781876206398}}, "errors": ["PreArm: RC not found", "PreArm: Hardware safety switch"]}
{"timestamp": "2026-01-15T12:13:14.993359Z", "telemetry": {"lat": 28.7531747, "lon": 77.1176278, "satellites": 0, "altitude_gps_m": 0.05999999865889549, "groundspeed_mps": 1.262363076210022}, "flight": {"mode": "STABILIZE", "armed": false}, "ekf": {"attitude": {"roll": 0.08962804079055786, "pitch": -0.21050646901130676, "yaw": 2.959028959274292}, "local_position": {"x": null, "y": null, "z": null}, "status": {"flags": 135, "velocity_variance": 0.0, "pos_horiz_variance": 0.11790695786476135, "pos_vert_variance": 0.019991301000118256}}, "errors": ["PreArm: RC not found", "PreArm: Hardware safety switch"]}
{"timestamp": "2026-01-15T12:13:16.024144Z", "telemetry": {"lat": 28.7531747, "lon": 77.1176278, "satellites": 0, "altitude_gps_m": 0.05999999865889549, "groundspeed_mps": 1.051498293876648}, "flight": {"mode": "STABILIZE", "armed": false}, "ekf": {"attitude": {"roll": 0.03992930054664612, "pitch": 0.01043238677084446, "yaw": 2.8975863456726074}, "local_position": {"x": null, "y": null, "z": null}, "status": {"flags": 135, "velocity_variance": 0.0, "pos_horiz_variance": 0.2304360419511795, "pos_vert_variance": 0.08879663795232773}}, "errors": ["PreArm: RC not found", "PreArm: Hardware safety switch"]}
{"timestamp": "2026-01-15T12:13:17.021251Z", "telemetry": {"lat": 28.7531747, "lon": 77.1176278, "satellites": 0, "altitude_gps_m": 0.05999999865889549, "groundspeed_mps": 0.5105898976325989}, "flight": {"mode": "STABILIZE", "armed": false}, "ekf": {"attitude": {"roll": 0.031010625883936882, "pitch": 0.0010096491314470768, "yaw": 2.900418996810913}, "local_position": {"x": null, "y": null, "z": null}, "status": {"flags": 135, "velocity_variance": 0.0, "pos_horiz_variance": 0.2054644525051117, "pos_vert_variance": 0.05167536064982414}}, "errors": ["PreArm: RC not found", "PreArm: Hardware safety switch"]}
{"timestamp": "2026-01-15T12:13:18.018610Z", "telemetry": {"lat": 28.7531747, "lon": 77.1176278, "satellites": 0, "altitude_gps_m": 0.05999999865889549, "groundspeed_mps": 0.5345036387443542}, "flight": {"mode": "STABILIZE", "armed": false}, "ekf": {"attitude": {"roll": 0.022794775664806366, "pitch": -0.0033338931389153004, "yaw": 2.901571750640869}, "local_position": {"x": null, "y": null, "z": null}, "status": {"flags": 135, "velocity_variance": 0.0, "pos_horiz_variance": 0.11322276294231415, "pos_vert_variance": 0.08352304995059967}}, "errors": ["PreArm: RC not found", "PreArm: Hardware safety switch"]}
{"timestamp": "2026-01-15T12:13:18.986630Z", "telemetry": {"lat": 28.7531747, "lon": 77.1176278, "satellites": 0, "altitude_gps_m": 0.05999999865889549, "groundspeed_mps": 0.7817776203155518}, "flight": {"mode": "STABILIZE", "armed": false}, "ekf": {"attitude": {"roll": 0.01799342967569828, "pitch": -0.002537757158279419, "yaw": 2.9008426666259766}, "local_position": {"x": null, "y": null, "z": null}, "status": {"flags": 135, "velocity_variance": 0.0, "pos_horiz_variance": 0.09322408586740494, "pos_vert_variance": 0.06944957375526428}}, "errors": ["PreArm: RC not found", "PreArm: Hardware safety switch"]}
{"timestamp": "2026-01-15T12:13:20.004138Z", "telemetry": {"lat": 28.7531101, "lon": 77.1178554, "satellites": 8, "altitude_gps_m": 202.4499969482422, "groundspeed_mps": 0.9692687392234802}, "flight": {"mode": "STABILIZE", "armed": false}, "ekf": {"attitude": {"roll": 0.016241690143942833, "pitch": -0.0009251744486391544, "yaw": 2.9007809162139893}, "local_position": {"x": null, "y": null, "z": null}, "status": {"flags": 135, "velocity_variance": 0.0, "pos_horiz_variance": 0.2078218162059784, "pos_vert_variance": 0.009747495874762535}}, "errors": ["PreArm: RC not found", "PreArm: Hardware safety switch"]}
{"timestamp": "2026-01-15T12:13:21.002122Z", "telemetry": {"lat": 28.7531014, "lon": 77.1178649, "satellites": 8, "altitude_gps_m": 204.14999389648438, "groundspeed_mps": 1.0398834943771362}, "flight": {"mode": "STABILIZE", "armed": false}, "ekf": {"attitude": {"roll": 0.016330759972333908, "pitch": 0.0031065805815160275, "yaw": 2.900569438934326}, "local_position": {"x": null, "y": null, "z": null}, "status": {"flags": 1024, "velocity_variance": 0.0, "pos_horiz_variance": 0.2883351147174835, "pos_vert_variance": 0.02760351076722145}}, "errors": ["PreArm: RC not found", "PreArm: Hardware safety switch"]}
{"timestamp": "2026-01-15T12:13:21.984836Z", "telemetry": {"lat": 28.7530959, "lon": 77.1178561, "satellites": 8, "altitude_gps_m": 202.51998901367188, "groundspeed_mps": 0.921781599521637}, "flight": {"mode": "STABILIZE", "armed": false}, "ekf": {"attitude": {"roll": 0.018249165266752243, "pitch": 0.009148050099611282, "yaw": 2.9000704288482666}, "local_position": {"x": null, "y": null, "z": null}, "status": {"flags": 1024, "velocity_variance": 0.0, "pos_horiz_variance": 0.29353535175323486, "pos_vert_variance": 0.0104474863037467}}, "errors": ["PreArm: RC not found", "PreArm: Hardware safety switch"]}
{"timestamp": "2026-01-15T12:13:23.012856Z", "telemetry": {"lat": 28.7530932, "lon": 77.1178626, "satellites": 9, "altitude_gps_m": 203.5699920654297, "groundspeed_mps": 0.7496623396873474}, "flight": {"mode": "STABILIZE", "armed": false}, "ekf": {"attitude": {"roll": 0.020844388753175735, "pitch": 0.014787748456001282, "yaw": 2.9000141620635986}, "local_position": {"x": null, "y": null, "z": null}, "status": {"flags": 1024, "velocity_variance": 0.0, "pos_horiz_variance": 0.2574784457683563, "pos_vert_variance": 0.026467079296708107}}, "errors": ["PreArm: RC not found", "PreArm: Hardware safety switch"]}
{"timestamp": "2026-01-15T12:13:24.015229Z", "telemetry": {"lat": 28.7530935, "lon": 77.1178633, "satellites": 9, "altitude_gps_m": 203.42999267578125, "groundspeed_mps": 0.5849194526672363}, "flight": {"mode": "STABILIZE", "armed": false}, "ekf": {"attitude": {"roll": 0.023471936583518982, "pitch": 0.019497305154800415, "yaw": 2.9003379344940186}, "local_position": {"x": null, "y": null, "z": null}, "status": {"flags": 135, "velocity_variance": 0.0, "pos_horiz_variance": 0.22628289461135864, "pos_vert_variance": 0.13243791460990906}}, "errors": ["PreArm: RC not found", "PreArm: Hardware safety switch"]}
{"timestamp": "2026-01-15T12:13:25.013963Z", "telemetry": {"lat": 28.7530952, "lon": 77.1178614, "satellites": 9, "altitude_gps_m": 202.95999145507812, "groundspeed_mps": 0.43835923075675964}, "flight": {"mode": "STABILIZE", "armed": false}, "ekf": {"attitude": {"roll": 0.026049679145216942, "pitch": 0.023359911516308784, "yaw": 2.900728702545166}, "local_position": {"x": null, "y": null, "z": null}, "status": {"flags": 135, "velocity_variance": 0.0, "pos_horiz_variance": 0.18630577623844147, "pos_vert_variance": 0.035124897956848145}}, "errors": ["PreArm: RC not found", "PreArm: Hardware safety switch", "EKF3 IMU1 forced reset", "EKF3 IMU1 initialised"]}
{"timestamp": "2026-01-15T12:13:25.998250Z", "telemetry": {"lat": 28.7530962, "lon": 77.1178612, "satellites": 9, "altitude_gps_m": 203.26998901367188, "groundspeed_mps": 0.3116966784000397}, "flight": {"mode": "STABILIZE", "armed": false}, "ekf": {"attitude": {"roll": 0.02829981967806816, "pitch": 0.026266885921359062, "yaw": 2.9011645317077637}, "local_position": {"x": null, "y": null, "z": null}, "status": {"flags": 135, "velocity_variance": 0.0, "pos_horiz_variance": 0.13969846069812775, "pos_vert_variance": 0.04516977816820145}}, "errors": ["PreArm: RC not found", "PreArm: Hardware safety switch", "EKF3 IMU1 forced reset", "EKF3 IMU1 initialised", "EKF3 IMU1 tilt alignment complete"]}
{"timestamp": "2026-01-15T12:13:26.982309Z", "telemetry": {"lat": 28.7530957, "lon": 77.1178623, "satellites": 9, "altitude_gps_m": 203.5699920654297, "groundspeed_mps": 0.20869769155979156}, "flight": {"mode": "STABILIZE", "armed": false}, "ekf": {"attitude": {"roll": 0.03017440438270569, "pitch": 0.02827560529112816, "yaw": 2.9017493724823}, "local_position": {"x": null, "y": null, "z": null}, "status": {"flags": 135, "velocity_variance": 0.0, "pos_horiz_variance": 0.10418877005577087, "pos_vert_variance": 0.04804112762212753}}, "errors": ["PreArm: RC not found", "PreArm: Hardware safety switch", "EKF3 IMU1 forced reset", "EKF3 IMU1 initialised", "EKF3 IMU1 tilt alignment complete", "EKF3 IMU1 MAG0 initial yaw alignment complete"]}
{"timestamp": "2026-01-15T12:13:27.980990Z", "telemetry": {"lat": 28.7530965, "lon": 77.1178631, "satellites": 9, "altitude_gps_m": 203.97999572753906, "groundspeed_mps": 0.13483935594558716}, "flight": {"mode": "STABILIZE", "armed": false}, "ekf": {"attitude": {"roll": 0.03171474114060402, "pitch": 0.029554925858974457, "yaw": 2.9024856090545654}, "local_position": {"x": null, "y": null, "z": null}, "status": {"flags": 135, "velocity_variance": 0.0, "pos_horiz_variance": 0.07983231544494629, "pos_vert_variance": 0.03396732732653618}}, "errors": ["PreArm: RC not found", "PreArm: Hardware safety switch", "EKF3 IMU1 forced reset", "EKF3 IMU1 initialised", "EKF3 IMU1 tilt alignment complete", "EKF3 IMU1 MAG0 initial yaw alignment complete"]}
{"timestamp": "2026-01-15T12:13:28.999590Z", "telemetry": {"lat": 28.7530966, "lon": 77.1178642, "satellites": 9, "altitude_gps_m": 204.44000244140625, "groundspeed_mps": 0.09127525985240936}, "flight": {"mode": "STABILIZE", "armed": false}, "ekf": {"attitude": {"roll": 0.032820217311382294, "pitch": 0.0301075279712677, "yaw": 2.9031975269317627}, "local_position": {"x": null, "y": null, "z": null}, "status": {"flags": 135, "velocity_variance": 0.0, "pos_horiz_variance": 0.05191793292760849, "pos_vert_variance": 0.06309451162815094}}, "errors": ["PreArm: RC not found", "PreArm: Hardware safety switch", "EKF3 IMU1 forced reset", "EKF3 IMU1 initialised", "EKF3 IMU1 tilt alignment complete", "EKF3 IMU1 MAG0 initial yaw alignment complete"]}
{"timestamp": "2026-01-15T12:13:29.982407Z", "telemetry": {"lat": 28.7530966, "lon": 77.1178649, "satellites": 9, "altitude_gps_m": 204.7899932861328, "groundspeed_mps": 0.06016065925359726}, "flight": {"mode": "STABILIZE", "armed": false}, "ekf": {"attitude": {"roll": 0.033658236265182495, "pitch": 0.0303429514169693, "yaw": 2.9037466049194336}, "local_position": {"x": null, "y": null, "z": null}, "status": {"flags": 135, "velocity_variance": 0.0, "pos_horiz_variance": 0.03609951213002205, "pos_vert_variance": 0.02914474532008171}}, "errors": ["PreArm: RC not found", "PreArm: Hardware safety switch", "EKF3 IMU1 forced reset", "EKF3 IMU1 initialised", "EKF3 IMU1 tilt alignment complete", "EKF3 IMU1 MAG0 initial yaw alignment complete"]}
{"timestamp": "2026-01-15T12:13:30.982171Z", "telemetry": {"lat": 28.753097, "lon": 77.1178651, "satellites": 9, "altitude_gps_m": 204.989990234375, "groundspeed_mps": 0.041888270527124405}, "flight": {"mode": "STABILIZE", "armed": false}, "ekf": {"attitude": {"roll": 0.034116875380277634, "pitch": 0.03027719259262085, "yaw": 2.904282331466675}, "local_position": {"x": null, "y": null, "z": null}, "status": {"flags": 135, "velocity_variance": 0.0, "pos_horiz_variance": 0.027019046247005463, "pos_vert_variance": 0.015515814535319805}}, "errors": ["PreArm: RC not found", "PreArm: Hardware safety switch", "EKF3 IMU1 forced reset", "EKF3 IMU1 initialised", "EKF3 IMU1 tilt alignment complete", "EKF3 IMU1 MAG0 initial yaw alignment complete"]}
{"timestamp": "2026-01-15T12:13:31.997557Z", "telemetry": {"lat": 28.753096, "lon": 77.117866, "satellites": 9, "altitude_gps_m": 205.11000061035156, "groundspeed_mps": 0.03530207648873329}, "flight": {"mode": "STABILIZE", "armed": false}, "ekf": {"attitude": {"roll": 0.03445093333721161, "pitch": 0.030131127685308456, "yaw": 2.904959201812744}, "local_position": {"x": null, "y": null, "z": null}, "status": {"flags": 135, "velocity_variance": 0.0, "pos_horiz_variance": 0.0186668261885643, "pos_vert_variance": 0.13622455298900604}}, "errors": ["PreArm: RC not found", "PreArm: Hardware safety switch", "EKF3 IMU1 forced reset", "EKF3 IMU1 initialised", "EKF3 IMU1 tilt alignment complete", "EKF3 IMU1 MAG0 initial yaw alignment complete"]}
{"timestamp": "2026-01-15T12:13:32.999618Z", "telemetry": {"lat": 28.7530951, "lon": 77.1178675, "satellites": 9, "altitude_gps_m": 205.58999633789062, "groundspeed_mps": 0.0366065539419651}, "flight": {"mode": "STABILIZE", "armed": false}, "ekf": {"attitude": {"roll": 0.034697264432907104, "pitch": 0.029969390481710434, "yaw": 2.905808448791504}, "local_position": {"x": null, "y": null, "z": null}, "status": {"flags": 135, "velocity_variance": 0.0, "pos_horiz_variance": 0.01571664586663246, "pos_vert_variance": 0.004792643245309591}}, "errors": ["PreArm: RC not found", "PreArm: Hardware safety switch", "EKF3 IMU1 forced reset", "EKF3 IMU1 initialised", "EKF3 IMU1 tilt alignment complete", "EKF3 IMU1 MAG0 initial yaw alignment complete"]}
{"timestamp": "2026-01-15T12:13:34.013871Z", "telemetry": {"lat": 28.7530939, "lon": 77.1178684, "satellites": 9, "altitude_gps_m": 206.01998901367188, "groundspeed_mps": 0.04231644421815872}, "flight": {"mode": "STABILIZE", "armed": false}, "ekf": {"attitude": {"roll": 0.03473788499832153, "pitch": 0.02971925027668476, "yaw": 2.9065940380096436}, "local_position": {"x": null, "y": null, "z": null}, "status": {"flags": 135, "velocity_variance": 0.0, "pos_horiz_variance": 0.014009733684360981, "pos_vert_variance": 0.05068252980709076}}, "errors": ["PreArm: RC not found", "PreArm: Hardware safety switch", "EKF3 IMU1 forced reset", "EKF3 IMU1 initialised", "EKF3 IMU1 tilt alignment complete", "EKF3 IMU1 MAG0 initial yaw alignment complete"]}
{"timestamp": "2026-01-15T12:13:35.012800Z", "telemetry": {"lat": 28.7530943, "lon": 77.1178704, "satellites": 9, "altitude_gps_m": 206.19000244140625, "groundspeed_mps": 0.050250325351953506}, "flight": {"mode": "STABILIZE", "armed": false}, "ekf": {"attitude": {"roll": 0.03487227484583855, "pitch": 0.029375793412327766, "yaw": 2.907257080078125}, "local_position": {"x": null, "y": null, "z": null}, "status": {"flags": 135, "velocity_variance": 0.0, "pos_horiz_variance": 0.013971916399896145, "pos_vert_variance": 0.08649550378322601}}, "errors": ["PreArm: RC not found", "PreArm: Hardware safety switch", "EKF3 IMU1 forced reset", "EKF3 IMU1 initialised", "EKF3 IMU1 tilt alignment complete", "EKF3 IMU1 MAG0 initial yaw alignment complete"]}
{"timestamp": "2026-01-15T12:13:35.982295Z", "telemetry": {"lat": 28.7530946, "lon": 77.1178701, "satellites": 9, "altitude_gps_m": 206.22000122070312, "groundspeed_mps": 0.09907659143209457}, "flight": {"mode": "STABILIZE", "armed": false}, "ekf": {"attitude": {"roll": 0.03505448251962662, "pitch": 0.02961880899965763, "yaw": 2.9080986976623535}, "local_position": {"x": 0.0006202589720487595, "y": 0.0026035448536276817, "z": -0.010342348366975784}, "status": {"flags": 831, "velocity_variance": 0.0, "pos_horiz_variance": 0.0146534014493227, "pos_vert_variance": 0.0}}, "errors": ["PreArm: RC not found", "PreArm: Hardware safety switch", "EKF3 IMU1 forced reset", "EKF3 IMU1 initialised", "EKF3 IMU1 tilt alignment complete", "EKF3 IMU1 MAG0 initial yaw alignment complete", "EKF3 IMU0 origin set", "EKF3 IMU0 is using GPS", "EKF3 IMU1 origin set"]}
{"timestamp": "2026-01-15T12:13:36.984935Z", "telemetry": {"lat": 28.7530959, "lon": 77.1178733, "satellites": 9, "altitude_gps_m": 207.1199951171875, "groundspeed_mps": 0.5209280252456665}, "flight": {"mode": "STABILIZE", "armed": false}, "ekf": {"attitude": {"roll": -0.41748741269111633, "pitch": -0.17828406393527985, "yaw": 2.4980525970458984}, "local_position": {"x": 0.022945918142795563, "y": 0.21178984642028809, "z": -0.6695011258125305}, "status": {"flags": 831, "velocity_variance": 0.12961499392986298, "pos_horiz_variance": 0.005786281079053879, "pos_vert_variance": 0.003351294668391347}}, "errors": ["PreArm: RC not found", "PreArm: Hardware safety switch", "EKF3 IMU1 forced reset", "EKF3 IMU1 initialised", "EKF3 IMU1 tilt alignment complete", "EKF3 IMU1 MAG0 initial yaw alignment complete", "EKF3 IMU0 origin set", "EKF3 IMU0 is using GPS", "EKF3 IMU1 origin set", "Field Elevation Set: 206m"]}
{"timestamp": "2026-01-15T12:13:37.969121Z", "telemetry": {"lat": 28.7531023, "lon": 77.117873, "satellites": 10, "altitude_gps_m": 207.52999877929688, "groundspeed_mps": 1.4877015352249146}, "flight": {"mode": "STABILIZE", "armed": false}, "ekf": {"attitude": {"roll": 0.03787083178758621, "pitch": 0.020479518920183182, "yaw": 1.1609035730361938}, "local_position": {"x": 1.207236647605896, "y": 0.08640630543231964, "z": -1.321227788925171}, "status": {"flags": 831, "velocity_variance": 0.08615235239267349, "pos_horiz_variance": 0.005502772051841021, "pos_vert_variance": 0.011231502518057823}}, "errors": ["PreArm: RC not found", "PreArm: Hardware safety switch", "EKF3 IMU1 forced reset", "EKF3 IMU1 initialised", "EKF3 IMU1 tilt alignment complete", "EKF3 IMU1 MAG0 initial yaw alignment complete", "EKF3 IMU0 origin set", "EKF3 IMU0 is using GPS", "EKF3 IMU1 origin set", "Field Elevation Set: 206m", "PreArm: RC not found"]}
{"timestamp": "2026-01-15T12:13:39.005488Z", "telemetry": {"lat": 28.753111, "lon": 77.1178673, "satellites": 10, "altitude_gps_m": 207.42999267578125, "groundspeed_mps": 1.0959556102752686}, "flight": {"mode": "STABILIZE", "armed": false}, "ekf": {"attitude": {"roll": 0.14893348515033722, "pitch": -0.16689278185367584, "yaw": 0.3417240083217621}, "local_position": {"x": 2.1318178176879883, "y": -0.5164312124252319, "z": -1.2201613187789917}, "status": {"flags": 831, "velocity_variance": 0.14619264006614685, "pos_horiz_variance": 0.012542069889605045, "pos_vert_variance": 0.0043819560669362545}}, "errors": ["PreArm: RC not found", "PreArm: Hardware safety switch", "EKF3 IMU1 forced reset", "EKF3 IMU1 initialised", "EKF3 IMU1 tilt alignment complete", "EKF3 IMU1 MAG0 initial yaw alignment complete", "EKF3 IMU0 origin set", "EKF3 IMU0 is using GPS", "EKF3 IMU1 origin set", "Field Elevation Set: 206m", "PreArm: RC not found", "PreArm: Hardware safety switch", "PreArm: Gyros inconsistent", "PreArm: Check mag field (xy diff:153>115)"]}
{"timestamp": "2026-01-15T12:13:39.997186Z", "telemetry": {"lat": 28.7531141, "lon": 77.1178624, "satellites": 10, "altitude_gps_m": 207.42999267578125, "groundspeed_mps": 1.005858063697815}, "flight": {"mode": "STABILIZE", "armed": false}, "ekf": {"attitude": {"roll": -0.12991321086883545, "pitch": -0.08528760820627213, "yaw": -0.28494688868522644}, "local_position": {"x": 2.6409130096435547, "y": -1.1945834159851074, "z": -1.2404305934906006}, "status": {"flags": 831, "velocity_variance": 0.1682121902704239, "pos_horiz_variance": 0.025800811126828194, "pos_vert_variance": 0.026623956859111786}}, "errors": ["PreArm: RC not found", "PreArm: Hardware safety switch", "EKF3 IMU1 forced reset", "EKF3 IMU1 initialised", "EKF3 IMU1 tilt alignment complete", "EKF3 IMU1 MAG0 initial yaw alignment complete", "EKF3 IMU0 origin set", "EKF3 IMU0 is using GPS", "EKF3 IMU1 origin set", "Field Elevation Set: 206m", "PreArm: RC not found", "PreArm: Hardware safety switch", "PreArm: Gyros inconsistent", "PreArm: Check mag field (xy diff:153>115)"]}
{"timestamp": "2026-01-15T12:13:40.971009Z", "telemetry": {"lat": 28.753115, "lon": 77.117857, "satellites": 10, "altitude_gps_m": 207.489990234375, "groundspeed_mps": 0.4592652916908264}, "flight": {"mode": "STABILIZE", "armed": false}, "ekf": {"attitude": {"roll": -0.44543835520744324, "pitch": -0.0683368593454361, "yaw": -0.6342714428901672}, "local_position": {"x": 2.6746034622192383, "y": -1.7387499809265137, "z": -1.243079662322998}, "status": {"flags": 831, "velocity_variance": 0.13421615958213806, "pos_horiz_variance": 0.028472622856497765, "pos_vert_variance": 0.027370717376470566}}, "errors": ["PreArm: RC not found", "PreArm: Hardware safety switch", "EKF3 IMU1 forced reset", "EKF3 IMU1 initialised", "EKF3 IMU1 tilt alignment complete", "EKF3 IMU1 MAG0 initial yaw alignment complete", "EKF3 IMU0 origin set", "EKF3 IMU0 is using GPS", "EKF3 IMU1 origin set", "Field Elevation Set: 206m", "PreArm: RC not found", "PreArm: Hardware safety switch", "PreArm: Gyros inconsistent", "PreArm: Check mag field (xy diff:153>115)"]}
{"timestamp": "2026-01-15T12:13:42.008778Z", "telemetry": {"lat": 28.7531132, "lon": 77.1178623, "satellites": 10, "altitude_gps_m": 207.5699920654297, "groundspeed_mps": 1.1508967876434326}, "flight": {"mode": "STABILIZE", "armed": false}, "ekf": {"attitude": {"roll": -0.3125440180301666, "pitch": -0.2229832112789154, "yaw": -0.16194123029708862}, "local_position": {"x": 3.062879800796509, "y": -1.5325411558151245, "z": -1.3024104833602905}, "status": {"flags": 831, "velocity_variance": 0.4466359317302704, "pos_horiz_variance": 0.05832822620868683, "pos_vert_variance": 0.029710844159126282}}, "errors": ["PreArm: RC not found", "PreArm: Hardware safety switch", "EKF3 IMU1 forced reset", "EKF3 IMU1 initialised", "EKF3 IMU1 tilt alignment complete", "EKF3 IMU1 MAG0 initial yaw alignment complete", "EKF3 IMU0 origin set", "EKF3 IMU0 is using GPS", "EKF3 IMU1 origin set", "Field Elevation Set: 206m", "PreArm: RC not found", "PreArm: Hardware safety switch", "PreArm: Gyros inconsistent", "PreArm: Check mag field (xy diff:153>115)"]}
{"timestamp": "2026-01-15T12:13:42.982255Z", "telemetry": {"lat": 28.7531167, "lon": 77.1178612, "satellites": 11, "altitude_gps_m": 207.7899932861328, "groundspeed_mps": 1.3802704811096191}, "flight": {"mode": "STABILIZE", "armed": false}, "ekf": {"attitude": {"roll": -0.12091901898384094, "pitch": -0.15226444602012634, "yaw": 0.579891562461853}, "local_position": {"x": 3.959211826324463, "y": -1.1658251285552979, "z": -1.571923017501831}, "status": {"flags": 831, "velocity_variance": 0.5253363251686096, "pos_horiz_variance": 0.06701762974262238, "pos_vert_variance": 0.027983887121081352}}, "errors": ["PreArm: RC not found", "PreArm: Hardware safety switch", "EKF3 IMU1 forced reset", "EKF3 IMU1 initialised", "EKF3 IMU1 tilt alignment complete", "EKF3 IMU1 MAG0 initial yaw alignment complete", "EKF3 IMU0 origin set", "EKF3 IMU0 is using GPS", "EKF3 IMU1 origin set", "Field Elevation Set: 206m", "PreArm: RC not found", "PreArm: Hardware safety switch", "PreArm: Gyros inconsistent", "PreArm: Check mag field (xy diff:153>115)"]}
{"timestamp": "2026-01-15T12:13:43.986705Z", "telemetry": {"lat": 28.7531222, "lon": 77.117859, "satellites": 11, "altitude_gps_m": 206.72999572753906, "groundspeed_mps": 1.1599984169006348}, "flight": {"mode": "STABILIZE", "armed": false}, "ekf": {"attitude": {"roll": 0.12286800146102905, "pitch": -0.08135052770376205, "yaw": 0.8210352659225464}, "local_position": {"x": 4.705906867980957, "y": -1.0163640975952148, "z": -1.9123233556747437}, "status": {"flags": 33599, "velocity_variance": 0.5722215175628662, "pos_horiz_variance": 0.07204737514257431, "pos_vert_variance": 0.03723721206188202}}, "errors": ["PreArm: RC not found", "PreArm: Hardware safety switch", "EKF3 IMU1 forced reset", "EKF3 IMU1 initialised", "EKF3 IMU1 tilt alignment complete", "EKF3 IMU1 MAG0 initial yaw alignment complete", "EKF3 IMU0 origin set", "EKF3 IMU0 is using GPS", "EKF3 IMU1 origin set", "Field Elevation Set: 206m", "PreArm: RC not found", "PreArm: Hardware safety switch", "PreArm: Gyros inconsistent", "PreArm: Check mag field (xy diff:153>115)", "GPS Glitch or Compass error"]}
{"timestamp": "2026-01-15T12:13:44.990237Z", "telemetry": {"lat": 28.7531232, "lon": 77.1178587, "satellites": 11, "altitude_gps_m": 207.75999450683594, "groundspeed_mps": 0.8618643283843994}, "flight": {"mode": "STABILIZE", "armed": false}, "ekf": {"attitude": {"roll": 0.25724679231643677, "pitch": -0.1429896205663681, "yaw": 0.9841116666793823}, "local_position": {"x": 5.084822177886963, "y": -0.8947961926460266, "z": -1.1532113552093506}, "status": {"flags": 33599, "velocity_variance": 0.2462807297706604, "pos_horiz_variance": 0.07361826300621033, "pos_vert_variance": 0.019284404814243317}}, "errors": ["PreArm: RC not found", "PreArm: Hardware safety switch", "EKF3 IMU1 forced reset", "EKF3 IMU1 initialised", "EKF3 IMU1 tilt alignment complete", "EKF3 IMU1 MAG0 initial yaw alignment complete", "EKF3 IMU0 origin set", "EKF3 IMU0 is using GPS", "EKF3 IMU1 origin set", "Field Elevation Set: 206m", "PreArm: RC not found", "PreArm: Hardware safety switch", "PreArm: Gyros inconsistent", "PreArm: Check mag field (xy diff:153>115)", "GPS Glitch or Compass error"]}
{"timestamp": "2026-01-15T12:13:45.992220Z", "telemetry": {"lat": 28.7531213, "lon": 77.1178654, "satellites": 11, "altitude_gps_m": 208.13999938964844, "groundspeed_mps": 0.5157355666160583}, "flight": {"mode": "STABILIZE", "armed": false}, "ekf": {"attitude": {"roll": 0.3462042808532715, "pitch": -0.12772320210933685, "yaw": 1.254879355430603}, "local_position": {"x": 4.8903069496154785, "y": -0.2215375304222107, "z": -1.8385943174362183}, "status": {"flags": 33599, "velocity_variance": 0.37182527780532837, "pos_horiz_variance": 0.07537653297185898, "pos_vert_variance": 0.03138130530714989}}, "errors": ["PreArm: RC not found", "PreArm: Hardware safety switch", "EKF3 IMU1 forced reset", "EKF3 IMU1 initialised", "EKF3 IMU1 tilt alignment complete", "EKF3 IMU1 MAG0 initial yaw alignment complete", "EKF3 IMU0 origin set", "EKF3 IMU0 is using GPS", "EKF3 IMU1 origin set", "Field Elevation Set: 206m", "PreArm: RC not found", "PreArm: Hardware safety switch", "PreArm: Gyros inconsistent", "PreArm: Check mag field (xy diff:153>115)", "GPS Glitch or Compass error"]}
{"timestamp": "2026-01-15T12:13:46.998857Z", "telemetry": {"lat": 28.753123, "lon": 77.1178617, "satellites": 11, "altitude_gps_m": 208.52999877929688, "groundspeed_mps": 0.4157008230686188}, "flight": {"mode": "STABILIZE", "armed": false}, "ekf": {"attitude": {"roll": 0.4804045259952545, "pitch": -0.024364512413740158, "yaw": 0.2339683324098587}, "local_position": {"x": 4.85382604598999, "y": -0.5534473657608032, "z": -2.2139129638671875}, "status": {"flags": 33599, "velocity_variance": 0.24138867855072021, "pos_horiz_variance": 0.06494397670030594, "pos_vert_variance": 0.04062886908650398}}, "errors": ["PreArm: RC not found", "PreArm: Hardware safety switch", "EKF3 IMU1 forced reset", "EKF3 IMU1 initialised", "EKF3 IMU1 tilt alignment complete", "EKF3 IMU1 MAG0 initial yaw alignment complete", "EKF3 IMU0 origin set", "EKF3 IMU0 is using GPS", "EKF3 IMU1 origin set", "Field Elevation Set: 206m", "PreArm: RC not found", "PreArm: Hardware safety switch", "PreArm: Gyros inconsistent", "PreArm: Check mag field (xy diff:153>115)", "GPS Glitch or Compass error"]}
{"timestamp": "2026-01-15T12:13:47.999029Z", "telemetry": {"lat": 28.753127, "lon": 77.1178554, "satellites": 11, "altitude_gps_m": 208.62998962402344, "groundspeed_mps": 0.5247477889060974}, "flight": {"mode": "STABILIZE", "armed": false}, "ekf": {"attitude": {"roll": 0.3013528287410736, "pitch": -0.07248800992965698, "yaw": 0.72060227394104}, "local_position": {"x": 4.894349575042725, "y": -0.724876880645752, "z": -2.4205501079559326}, "status": {"flags": 33599, "velocity_variance": 0.1938178688287735, "pos_horiz_variance": 0.05226530134677887, "pos_vert_variance": 0.021289782598614693}}, "errors": ["PreArm: RC not found", "PreArm: Hardware safety switch", "EKF3 IMU1 forced reset", "EKF3 IMU1 initialised", "EKF3 IMU1 tilt alignment complete", "EKF3 IMU1 MAG0 initial yaw alignment complete", "EKF3 IMU0 origin set", "EKF3 IMU0 is using GPS", "EKF3 IMU1 origin set", "Field Elevation Set: 206m", "PreArm: RC not found", "PreArm: Hardware safety switch", "PreArm: Gyros inconsistent", "PreArm: Check mag field (xy diff:153>115)", "GPS Glitch or Compass error"]}
{"timestamp": "2026-01-15T12:13:48.971326Z", "telemetry": {"lat": 28.753126, "lon": 77.1178532, "satellites": 11, "altitude_gps_m": 208.4499969482422, "groundspeed_mps": 0.7768871784210205}, "flight": {"mode": "STABILIZE", "armed": false}, "ekf": {"attitude": {"roll": 0.0735599547624588, "pitch": 0.022094737738370895, "yaw": 0.7781886458396912}, "local_position": {"x": 4.960624694824219, "y": -0.653414249420166, "z": -2.330167055130005}, "status": {"flags": 33599, "velocity_variance": 0.36341366171836853, "pos_horiz_variance": 0.05664651095867157, "pos_vert_variance": 0.004463856108486652}}, "errors": ["PreArm: RC not found", "PreArm: Hardware safety switch", "EKF3 IMU1 forced reset", "EKF3 IMU1 initialised", "EKF3 IMU1 tilt alignment complete", "EKF3 IMU1 MAG0 initial yaw alignment complete", "EKF3 IMU0 origin set", "EKF3 IMU0 is using GPS", "EKF3 IMU1 origin set", "Field Elevation Set: 206m", "PreArm: RC not found", "PreArm: Hardware safety switch", "PreArm: Gyros inconsistent", "PreArm: Check mag field (xy diff:153>115)", "GPS Glitch or Compass error"]}
{"timestamp": "2026-01-15T12:13:50.002725Z", "telemetry": {"lat": 28.7531253, "lon": 77.1178524, "satellites": 11, "altitude_gps_m": 208.25999450683594, "groundspeed_mps": 0.6393131017684937}, "flight": {"mode": "STABILIZE", "armed": false}, "ekf": {"attitude": {"roll": 0.0195806585252285, "pitch": 0.01622943766415119, "yaw": 0.7140731811523438}, "local_position": {"x": 4.438910484313965, "y": -0.4750679135322571, "z": -2.0535995960235596}, "status": {"flags": 33599, "velocity_variance": 0.2796531319618225, "pos_horiz_variance": 0.05265429615974426, "pos_vert_variance": 0.08282539993524551}}, "errors": ["PreArm: RC not found", "PreArm: Hardware safety switch", "EKF3 IMU1 forced reset", "EKF3 IMU1 initialised", "EKF3 IMU1 tilt alignment complete", "EKF3 IMU1 MAG0 initial yaw alignment complete", "EKF3 IMU0 origin set", "EKF3 IMU0 is using GPS", "EKF3 IMU1 origin set", "Field Elevation Set: 206m", "PreArm: RC not found", "PreArm: Hardware safety switch", "PreArm: Gyros inconsistent", "PreArm: Check mag field (xy diff:153>115)", "GPS Glitch or Compass error"]}
{"timestamp": "2026-01-15T12:13:50.993848Z", "telemetry": {"lat": 28.7531254, "lon": 77.1178465, "satellites": 11, "altitude_gps_m": 208.19000244140625, "groundspeed_mps": 0.5026525855064392}, "flight": {"mode": "STABILIZE", "armed": false}, "ekf": {"attitude": {"roll": 0.02111799642443657, "pitch": 0.01880100928246975, "yaw": 0.7144352197647095}, "local_position": {"x": 3.9544155597686768, "y": -0.6067544221878052, "z": -1.9900676012039185}, "status": {"flags": 33599, "velocity_variance": 0.6286847591400146, "pos_horiz_variance": 0.05493934080004692, "pos_vert_variance": 0.0823926255106926}}, "errors": ["PreArm: RC not found", "PreArm: Hardware safety switch", "EKF3 IMU1 forced reset", "EKF3 IMU1 initialised", "EKF3 IMU1 tilt alignment complete", "EKF3 IMU1 MAG0 initial yaw alignment complete", "EKF3 IMU0 origin set", "EKF3 IMU0 is using GPS", "EKF3 IMU1 origin set", "Field Elevation Set: 206m", "PreArm: RC not found", "PreArm: Hardware safety switch", "PreArm: Gyros inconsistent", "PreArm: Check mag field (xy diff:153>115)", "GPS Glitch or Compass error"]}
{"timestamp": "2026-01-15T12:13:52.009786Z", "telemetry": {"lat": 28.753126, "lon": 77.1178321, "satellites": 11, "altitude_gps_m": 208.09999084472656, "groundspeed_mps": 0.263465017080307}, "flight": {"mode": "STABILIZE", "armed": false}, "ekf": {"attitude": {"roll": 0.017907336354255676, "pitch": 0.020477529615163803, "yaw": 0.7141531109809875}, "local_position": {"x": 3.688014030456543, "y": -1.3535784482955933, "z": -1.8776848316192627}, "status": {"flags": 33599, "velocity_variance": 0.5726355314254761, "pos_horiz_variance": 0.06899338215589523, "pos_vert_variance": 0.009961479343473911}}, "errors": ["PreArm: RC not found", "PreArm: Hardware safety switch", "EKF3 IMU1 forced reset", "EKF3 IMU1 initialised", "EKF3 IMU1 tilt alignment complete", "EKF3 IMU1 MAG0 initial yaw alignment complete", "EKF3 IMU0 origin set", "EKF3 IMU0 is using GPS", "EKF3 IMU1 origin set", "Field Elevation Set: 206m", "PreArm: RC not found", "PreArm: Hardware safety switch", "PreArm: Gyros inconsistent", "PreArm: Check mag field (xy diff:153>115)", "GPS Glitch or Compass error"]}
{"timestamp": "2026-01-15T12:13:53.011016Z", "telemetry": {"lat": 28.7531245, "lon": 77.1178224, "satellites": 10, "altitude_gps_m": 208.01998901367188, "groundspeed_mps": 0.1882663071155548}, "flight": {"mode": "STABILIZE", "armed": false}, "ekf": {"attitude": {"roll": 0.016185564920306206, "pitch": 0.021716371178627014, "yaw": 0.7135310769081116}, "local_position": {"x": 3.4863293170928955, "y": -2.3989062309265137, "z": -1.8137750625610352}, "status": {"flags": 33599, "velocity_variance": 0.29302749037742615, "pos_horiz_variance": 0.06662546843290329, "pos_vert_variance": 0.03661942109465599}}, "errors": ["PreArm: RC not found", "PreArm: Hardware safety switch", "EKF3 IMU1 forced reset", "EKF3 IMU1 initialised", "EKF3 IMU1 tilt alignment complete", "EKF3 IMU1 MAG0 initial yaw alignment complete", "EKF3 IMU0 origin set", "EKF3 IMU0 is using GPS", "EKF3 IMU1 origin set", "Field Elevation Set: 206m", "PreArm: RC not found", "PreArm: Hardware safety switch", "PreArm: Gyros inconsistent", "PreArm: Check mag field (xy diff:153>115)", "GPS Glitch or Compass error"]}
{"timestamp": "2026-01-15T12:13:53.980992Z", "telemetry": {"lat": 28.7531181, "lon": 77.1178256, "satellites": 10, "altitude_gps_m": 207.8199920654297, "groundspeed_mps": 0.29763442277908325}, "flight": {"mode": "STABILIZE", "armed": false}, "ekf": {"attitude": {"roll": 0.01840735785663128, "pitch": 0.022138137370347977, "yaw": 0.7122043371200562}, "local_position": {"x": 2.905081272125244, "y": -2.885315418243408, "z": -1.692531704902649}, "status": {"flags": 33599, "velocity_variance": 0.41633662581443787, "pos_horiz_variance": 0.04589804261922836, "pos_vert_variance": 0.0773930698633194}}, "errors": ["PreArm: RC not found", "PreArm: Hardware safety switch", "EKF3 IMU1 forced reset", "EKF3 IMU1 initialised", "EKF3 IMU1 tilt alignment complete", "EKF3 IMU1 MAG0 initial yaw alignment complete", "EKF3 IMU0 origin set", "EKF3 IMU0 is using GPS", "EKF3 IMU1 origin set", "Field Elevation Set: 206m", "PreArm: RC not found", "PreArm: Hardware safety switch", "PreArm: Gyros inconsistent", "PreArm: Check mag field (xy diff:153>115)", "GPS Glitch or Compass error"]}
{"timestamp": "2026-01-15T12:13:54.983252Z", "telemetry": {"lat": 28.7531139, "lon": 77.1178276, "satellites": 10, "altitude_gps_m": 207.87998962402344, "groundspeed_mps": 0.3723334074020386}, "flight": {"mode": "STABILIZE", "armed": false}, "ekf": {"attitude": {"roll": 0.020328102633357048, "pitch": 0.02180050127208233, "yaw": 0.7112516164779663}, "local_position": {"x": 2.131401300430298, "y": -2.945044755935669, "z": -1.6404163837432861}, "status": {"flags": 33599, "velocity_variance": 0.39434486627578735, "pos_horiz_variance": 0.03531172126531601, "pos_vert_variance": 0.04620156064629555}}, "errors": ["PreArm: RC not found", "PreArm: Hardware safety switch", "EKF3 IMU1 forced reset", "EKF3 IMU1 initialised", "EKF3 IMU1 tilt alignment complete", "EKF3 IMU1 MAG0 initial yaw alignment complete", "EKF3 IMU0 origin set", "EKF3 IMU0 is using GPS", "EKF3 IMU1 origin set", "Field Elevation Set: 206m", "PreArm: RC not found", "PreArm: Hardware safety switch", "PreArm: Gyros inconsistent", "PreArm: Check mag field (xy diff:153>115)", "GPS Glitch or Compass error"]}
{"timestamp": "2026-01-15T12:13:56.005409Z", "telemetry": {"lat": 28.7531201, "lon": 77.1178312, "satellites": 10, "altitude_gps_m": 207.87998962402344, "groundspeed_mps": 0.24440838396549225}, "flight": {"mode": "STABILIZE", "armed": false}, "ekf": {"attitude": {"roll": 0.019806886091828346, "pitch": 0.019020352512598038, "yaw": 0.7109503746032715}, "local_position": {"x": 1.9952609539031982, "y": -2.805030584335327, "z": -1.6676476001739502}, "status": {"flags": 33599, "velocity_variance": 0.3059559166431427, "pos_horiz_variance": 0.03364475443959236, "pos_vert_variance": 0.08694443851709366}}, "errors": ["PreArm: RC not found", "PreArm: Hardware safety switch", "EKF3 IMU1 forced reset", "EKF3 IMU1 initialised", "EKF3 IMU1 tilt alignment complete", "EKF3 IMU1 MAG0 initial yaw alignment complete", "EKF3 IMU0 origin set", "EKF3 IMU0 is using GPS", "EKF3 IMU1 origin set", "Field Elevation Set: 206m", "PreArm: RC not found", "PreArm: Hardware safety switch", "PreArm: Gyros inconsistent", "PreArm: Check mag field (xy diff:153>115)", "GPS Glitch or Compass error"]}
{"timestamp": "2026-01-15T12:13:56.972924Z", "telemetry": {"lat": 28.7531305, "lon": 77.117832, "satellites": 10, "altitude_gps_m": 208.05999755859375, "groundspeed_mps": 0.13977757096290588}, "flight": {"mode": "STABILIZE", "armed": false}, "ekf": {"attitude": {"roll": 0.01867884397506714, "pitch": 0.015580706298351288, "yaw": 0.71058189868927}, "local_position": {"x": 2.472841739654541, "y": -2.7592172622680664, "z": -1.8159053325653076}, "status": {"flags": 33599, "velocity_variance": 0.18109701573848724, "pos_horiz_variance": 0.040875211358070374, "pos_vert_variance": 0.01576218008995056}}, "errors": ["PreArm: RC not found", "PreArm: Hardware safety switch", "EKF3 IMU1 forced reset", "EKF3 IMU1 initialised", "EKF3 IMU1 tilt alignment complete", "EKF3 IMU1 MAG0 initial yaw alignment complete", "EKF3 IMU0 origin set", "EKF3 IMU0 is using GPS", "EKF3 IMU1 origin set", "Field Elevation Set: 206m", "PreArm: RC not found", "PreArm: Hardware safety switch", "PreArm: Gyros inconsistent", "PreArm: Check mag field (xy diff:153>115)", "GPS Glitch or Compass error"]}
{"timestamp": "2026-01-15T12:13:58.003853Z", "telemetry": {"lat": 28.7531347, "lon": 77.1178345, "satellites": 8, "altitude_gps_m": 208.04998779296875, "groundspeed_mps": 0.28656765818595886}, "flight": {"mode": "STABILIZE", "armed": false}, "ekf": {"attitude": {"roll": 0.01863197609782219, "pitch": 0.013731161132454872, "yaw": 0.7102474570274353}, "local_position": {"x": 3.0430774688720703, "y": -2.7028908729553223, "z": -1.8327256441116333}, "status": {"flags": 33599, "velocity_variance": 0.21850337088108063, "pos_horiz_variance": 0.040909942239522934, "pos_vert_variance": 0.018199656158685684}}, "errors": ["PreArm: RC not found", "PreArm: Hardware safety switch", "EKF3 IMU1 forced reset", "EKF3 IMU1 initialised", "EKF3 IMU1 tilt alignment complete", "EKF3 IMU1 MAG0 initial yaw alignment complete", "EKF3 IMU0 origin set", "EKF3 IMU0 is using GPS", "EKF3 IMU1 origin set", "Field Elevation Set: 206m", "PreArm: RC not found", "PreArm: Hardware safety switch", "PreArm: Gyros inconsistent", "PreArm: Check mag field (xy diff:153>115)", "GPS Glitch or Compass error"]}
{"timestamp": "2026-01-15T12:13:59.008459Z", "telemetry": {"lat": 28.753138, "lon": 77.1178343, "satellites": 8, "altitude_gps_m": 208.02999877929688, "groundspeed_mps": 0.38381752371788025}, "flight": {"mode": "STABILIZE", "armed": false}, "ekf": {"attitude": {"roll": 0.017991604283452034, "pitch": 0.013002593070268631, "yaw": 0.7098202705383301}, "local_position": {"x": 3.644193172454834, "y": -2.6473231315612793, "z": -1.8210728168487549}, "status": {"flags": 33599, "velocity_variance": 0.061278875917196274, "pos_horiz_variance": 0.03670163452625275, "pos_vert_variance": 0.01585109531879425}}, "errors": ["PreArm: RC not found", "PreArm: Hardware safety switch", "EKF3 IMU1 forced reset", "EKF3 IMU1 initialised", "EKF3 IMU1 tilt alignment complete", "EKF3 IMU1 MAG0 initial yaw alignment complete", "EKF3 IMU0 origin set", "EKF3 IMU0 is using GPS", "EKF3 IMU1 origin set", "Field Elevation Set: 206m", "PreArm: RC not found", "PreArm: Hardware safety switch", "PreArm: Gyros inconsistent", "PreArm: Check mag field (xy diff:153>115)", "GPS Glitch or Compass error"]}
{"timestamp": "2026-01-15T12:14:00.009247Z", "telemetry": {"lat": 28.7531441, "lon": 77.1178373, "satellites": 7, "altitude_gps_m": 207.97999572753906, "groundspeed_mps": 0.5775164365768433}, "flight": {"mode": "STABILIZE", "armed": false}, "ekf": {"attitude": {"roll": 0.01738261990249157, "pitch": 0.011386167258024216, "yaw": 0.7091531753540039}, "local_position": {"x": 4.337587356567383, "y": -2.6896283626556396, "z": -1.7696558237075806}, "status": {"flags": 33599, "velocity_variance": 0.3323874771595001, "pos_horiz_variance": 0.029933743178844452, "pos_vert_variance": 0.03871354088187218}}, "errors": ["PreArm: RC not found", "PreArm: Hardware safety switch", "EKF3 IMU1 forced reset", "EKF3 IMU1 initialised", "EKF3 IMU1 tilt alignment complete", "EKF3 IMU1 MAG0 initial yaw alignment complete", "EKF3 IMU0 origin set", "EKF3 IMU0 is using GPS", "EKF3 IMU1 origin set", "Field Elevation Set: 206m", "PreArm: RC not found", "PreArm: Hardware safety switch", "PreArm: Gyros inconsistent", "PreArm: Check mag field (xy diff:153>115)", "GPS Glitch or Compass error"]}
{"timestamp": "2026-01-15T12:14:00.996092Z", "telemetry": {"lat": 28.7531442, "lon": 77.1178368, "satellites": 10, "altitude_gps_m": 208.02999877929688, "groundspeed_mps": 0.6665508151054382}, "flight": {"mode": "STABILIZE", "armed": false}, "ekf": {"attitude": {"roll": 0.01700122281908989, "pitch": 0.011606831103563309, "yaw": 0.7085248827934265}, "local_position": {"x": 4.947627544403076, "y": -2.596304416656494, "z": -1.8216869831085205}, "status": {"flags": 33599, "velocity_variance": 0.13274258375167847, "pos_horiz_variance": 0.021971765905618668, "pos_vert_variance": 0.0007326852646656334}}, "errors": ["PreArm: RC not found", "PreArm: Hardware safety switch", "EKF3 IMU1 forced reset", "EKF3 IMU1 initialised", "EKF3 IMU1 tilt alignment complete", "EKF3 IMU1 MAG0 initial yaw alignment complete", "EKF3 IMU0 origin set", "EKF3 IMU0 is using GPS", "EKF3 IMU1 origin set", "Field Elevation Set: 206m", "PreArm: RC not found", "PreArm: Hardware safety switch", "PreArm: Gyros inconsistent", "PreArm: Check mag field (xy diff:153>115)", "GPS Glitch or Compass error"]}
{"timestamp": "2026-01-15T12:14:01.996232Z", "telemetry": {"lat": 28.7531463, "lon": 77.1178374, "satellites": 9, "altitude_gps_m": 208.0, "groundspeed_mps": 0.7786273956298828}, "flight": {"mode": "STABILIZE", "armed": false}, "ekf": {"attitude": {"roll": -0.07108797132968903, "pitch": -0.08447258174419403, "yaw": 0.6845082640647888}, "local_position": {"x": 5.564667224884033, "y": -2.6767096519470215, "z": -1.7922111749649048}, "status": {"flags": 33599, "velocity_variance": 0.3559770882129669, "pos_horiz_variance": 0.013430031947791576, "pos_vert_variance": 0.018021827563643456}}, "errors": ["PreArm: RC not found", "PreArm: Hardware safety switch", "EKF3 IMU1 forced reset", "EKF3 IMU1 initialised", "EKF3 IMU1 tilt alignment complete", "EKF3 IMU1 MAG0 initial yaw alignment complete", "EKF3 IMU0 origin set", "EKF3 IMU0 is using GPS", "EKF3 IMU1 origin set", "Field Elevation Set: 206m", "PreArm: RC not found", "PreArm: Hardware safety switch", "PreArm: Gyros inconsistent", "PreArm: Check mag field (xy diff:153>115)", "GPS Glitch or Compass error"]}
{"timestamp": "2026-01-15T12:14:02.996352Z", "telemetry": {"lat": 28.7531483, "lon": 77.1178422, "satellites": 10, "altitude_gps_m": 208.11000061035156, "groundspeed_mps": 0.661683201789856}, "flight": {"mode": "STABILIZE", "armed": false}, "ekf": {"attitude": {"roll": -0.001964304596185684, "pitch": -0.32085946202278137, "yaw": -0.9175519943237305}, "local_position": {"x": 5.937581539154053, "y": -3.0811333656311035, "z": -1.9006775617599487}, "status": {"flags": 33599, "velocity_variance": 0.33929020166397095, "pos_horiz_variance": 0.00410112738609314, "pos_vert_variance": 0.08813776075839996}}, "errors": ["PreArm: RC not found", "PreArm: Hardware safety switch", "EKF3 IMU1 forced reset", "EKF3 IMU1 initialised", "EKF3 IMU1 tilt alignment complete", "EKF3 IMU1 MAG0 initial yaw alignment complete", "EKF3 IMU0 origin set", "EKF3 IMU0 is using GPS", "EKF3 IMU1 origin set", "Field Elevation Set: 206m", "PreArm: RC not found", "PreArm: Hardware safety switch", "PreArm: Gyros inconsistent", "PreArm: Check mag field (xy diff:153>115)", "GPS Glitch or Compass error"]}
{"timestamp": "2026-01-15T12:14:04.001410Z", "telemetry": {"lat": 28.7531449, "lon": 77.1178399, "satellites": 9, "altitude_gps_m": 207.9099884033203, "groundspeed_mps": 0.9920371174812317}, "flight": {"mode": "STABILIZE", "armed": false}, "ekf": {"attitude": {"roll": 0.11179594695568085, "pitch": -0.5157679319381714, "yaw": -2.6436033248901367}, "local_position": {"x": 5.836811542510986, "y": -2.8797378540039062, "z": -1.7327306270599365}, "status": {"flags": 33599, "velocity_variance": 0.7251108288764954, "pos_horiz_variance": 0.00332853477448225, "pos_vert_variance": 0.05773724988102913}}, "errors": ["PreArm: RC not found", "PreArm: Hardware safety switch", "EKF3 IMU1 forced reset", "EKF3 IMU1 initialised", "EKF3 IMU1 tilt alignment complete", "EKF3 IMU1 MAG0 initial yaw alignment complete", "EKF3 IMU0 origin set", "EKF3 IMU0 is using GPS", "EKF3 IMU1 origin set", "Field Elevation Set: 206m", "PreArm: RC not found", "PreArm: Hardware safety switch", "PreArm: Gyros inconsistent", "PreArm: Check mag field (xy diff:153>115)", "GPS Glitch or Compass error"]}
{"timestamp": "2026-01-15T12:14:05.001861Z", "telemetry": {"lat": 28.7531443, "lon": 77.1178388, "satellites": 10, "altitude_gps_m": 208.00999450683594, "groundspeed_mps": 0.8142220377922058}, "flight": {"mode": "STABILIZE", "armed": false}, "ekf": {"attitude": {"roll": 0.10190409421920776, "pitch": -0.38875651359558105, "yaw": -2.487558126449585}, "local_position": {"x": 5.903805732727051, "y": -2.794320821762085, "z": -1.8370674848556519}, "status": {"flags": 33599, "velocity_variance": 0.42627888917922974, "pos_horiz_variance": 0.008905045688152313, "pos_vert_variance": 0.05151474475860596}}, "errors": ["PreArm: RC not found", "PreArm: Hardware safety switch", "EKF3 IMU1 forced reset", "EKF3 IMU1 initialised", "EKF3 IMU1 tilt alignment complete", "EKF3 IMU1 MAG0 initial yaw alignment complete", "EKF3 IMU0 origin set", "EKF3 IMU0 is using GPS", "EKF3 IMU1 origin set", "Field Elevation Set: 206m", "PreArm: RC not found", "PreArm: Hardware safety switch", "PreArm: Gyros inconsistent", "PreArm: Check mag field (xy diff:153>115)", "GPS Glitch or Compass error"]}
{"timestamp": "2026-01-15T12:14:06.000301Z", "telemetry": {"lat": 28.7531393, "lon": 77.1178377, "satellites": 10, "altitude_gps_m": 207.989990234375, "groundspeed_mps": 0.6253126263618469}, "flight": {"mode": "STABILIZE", "armed": false}, "ekf": {"attitude": {"roll": 0.03661342337727547, "pitch": -0.18248796463012695, "yaw": -2.4506330490112305}, "local_position": {"x": 6.052797794342041, "y": -2.7469208240509033, "z": -1.7816741466522217}, "status": {"flags": 33599, "velocity_variance": 0.5606028437614441, "pos_horiz_variance": 0.02388126775622368, "pos_vert_variance": 0.05521903932094574}}, "errors": ["PreArm: RC not found", "PreArm: Hardware safety switch", "EKF3 IMU1 forced reset", "EKF3 IMU1 initialised", "EKF3 IMU1 tilt alignment complete", "EKF3 IMU1 MAG0 initial yaw alignment complete", "EKF3 IMU0 origin set", "EKF3 IMU0 is using GPS", "EKF3 IMU1 origin set", "Field Elevation Set: 206m", "PreArm: RC not found", "PreArm: Hardware safety switch", "PreArm: Gyros inconsistent", "PreArm: Check mag field (xy diff:153>115)", "GPS Glitch or Compass error"]}
{"timestamp": "2026-01-15T12:14:06.971021Z", "telemetry": {"lat": 28.7531317, "lon": 77.1178355, "satellites": 9, "altitude_gps_m": 207.83999633789062, "groundspeed_mps": 0.4547122120857239}, "flight": {"mode": "STABILIZE", "armed": false}, "ekf": {"attitude": {"roll": 0.02576020359992981, "pitch": -0.22867301106452942, "yaw": -2.454007863998413}, "local_position": {"x": 5.479636192321777, "y": -2.937746524810791, "z": -1.6269882917404175}, "status": {"flags": 33599, "velocity_variance": 0.2416396588087082, "pos_horiz_variance": 0.02889053151011467, "pos_vert_variance": 0.11180174350738525}}, "errors": ["PreArm: RC not found", "PreArm: Hardware safety switch", "EKF3 IMU1 forced reset", "EKF3 IMU1 initialised", "EKF3 IMU1 tilt alignment complete", "EKF3 IMU1 MAG0 initial yaw alignment complete", "EKF3 IMU0 origin set", "EKF3 IMU0 is using GPS", "EKF3 IMU1 origin set", "Field Elevation Set: 206m", "PreArm: RC not found", "PreArm: Hardware safety switch", "PreArm: Gyros inconsistent", "PreArm: Check mag field (xy diff:153>115)", "GPS Glitch or Compass error"]}
{"timestamp": "2026-01-15T12:14:08.005191Z", "telemetry": {"lat": 28.753133, "lon": 77.1178315, "satellites": 9, "altitude_gps_m": 207.8199920654297, "groundspeed_mps": 0.5254803895950317}, "flight": {"mode": "STABILIZE", "armed": false}, "ekf": {"attitude": {"roll": 0.03380793333053589, "pitch": -0.21782472729682922, "yaw": -2.4573607444763184}, "local_position": {"x": 5.429730415344238, "y": -3.4136056900024414, "z": -1.6247258186340332}, "status": {"flags": 33599, "velocity_variance": 0.3707228899002075, "pos_horiz_variance": 0.025982161983847618, "pos_vert_variance": 0.05031276494264603}}, "errors": ["PreArm: RC not found", "PreArm: Hardware safety switch", "EKF3 IMU1 forced reset", "EKF3 IMU1 initialised", "EKF3 IMU1 tilt alignment complete", "EKF3 IMU1 MAG0 initial yaw alignment complete", "EKF3 IMU0 origin set", "EKF3 IMU0 is using GPS", "EKF3 IMU1 origin set", "Field Elevation Set: 206m", "PreArm: RC not found", "PreArm: Hardware safety switch", "PreArm: Gyros inconsistent", "PreArm: Check mag field (xy diff:153>115)", "GPS Glitch or Compass error"]}
{"timestamp": "2026-01-15T12:14:09.005775Z", "telemetry": {"lat": 28.7531438, "lon": 77.1178284, "satellites": 9, "altitude_gps_m": 207.9099884033203, "groundspeed_mps": 0.7073301672935486}, "flight": {"mode": "STABILIZE", "armed": false}, "ekf": {"attitude": {"roll": 0.08850231766700745, "pitch": -0.2130012959241867, "yaw": -2.4956376552581787}, "local_position": {"x": 5.7816162109375, "y": -4.0184645652771, "z": -1.7012248039245605}, "status": {"flags": 33599, "velocity_variance": 0.22544735670089722, "pos_horiz_variance": 0.008058645762503147, "pos_vert_variance": 0.02628679759800434}}, "errors": ["PreArm: RC not found", "PreArm: Hardware safety switch", "EKF3 IMU1 forced reset", "EKF3 IMU1 initialised", "EKF3 IMU1 tilt alignment complete", "EKF3 IMU1 MAG0 initial yaw alignment complete", "EKF3 IMU0 origin set", "EKF3 IMU0 is using GPS", "EKF3 IMU1 origin set", "Field Elevation Set: 206m", "PreArm: RC not found", "PreArm: Hardware safety switch", "PreArm: Gyros inconsistent", "PreArm: Check mag field (xy diff:153>115)", "GPS Glitch or Compass error", "PreArm: RC not found", "PreArm: Hardware safety switch", "PreArm: Gyros inconsistent", "PreArm: AHRS: GPS speed error 2.5 (needs < 1.0)"]}
{"timestamp": "2026-01-15T12:14:10.006202Z", "telemetry": {"lat": 28.753141, "lon": 77.1178223, "satellites": 8, "altitude_gps_m": 207.87998962402344, "groundspeed_mps": 0.8692330718040466}, "flight": {"mode": "STABILIZE", "armed": false}, "ekf": {"attitude": {"roll": 0.03382260724902153, "pitch": -0.3603116571903229, "yaw": -2.4860756397247314}, "local_position": {"x": 6.053873538970947, "y": -4.627206325531006, "z": -1.7209662199020386}, "status": {"flags": 33599, "velocity_variance": 0.576227605342865, "pos_horiz_variance": 0.017467031255364418, "pos_vert_variance": 0.08833705633878708}}, "errors": ["PreArm: RC not found", "PreArm: Hardware safety switch", "EKF3 IMU1 forced reset", "EKF3 IMU1 initialised", "EKF3 IMU1 tilt alignment complete", "EKF3 IMU1 MAG0 initial yaw alignment complete", "EKF3 IMU0 origin set", "EKF3 IMU0 is using GPS", "EKF3 IMU1 origin set", "Field Elevation Set: 206m", "PreArm: RC not found", "PreArm: Hardware safety switch", "PreArm: Gyros inconsistent", "PreArm: Check mag field (xy diff:153>115)", "GPS Glitch or Compass error", "PreArm: RC not found", "PreArm: Hardware safety switch", "PreArm: Gyros inconsistent", "PreArm: AHRS: GPS speed error 2.5 (needs < 1.0)"]}
{"timestamp": "2026-01-15T12:14:11.006157Z", "telemetry": {"lat": 28.7531429, "lon": 77.1178153, "satellites": 8, "altitude_gps_m": 207.8300018310547, "groundspeed_mps": 0.8445391654968262}, "flight": {"mode": "STABILIZE", "armed": false}, "ekf": {"attitude": {"roll": 0.031902141869068146, "pitch": -0.2836262881755829, "yaw": -2.537416458129883}, "local_position": {"x": 5.938503742218018, "y": -5.430286407470703, "z": -1.628841757774353}, "status": {"flags": 33599, "velocity_variance": 0.19037920236587524, "pos_horiz_variance": 0.011066309176385403, "pos_vert_variance": 0.07271620631217957}}, "errors": ["PreArm: RC not found", "PreArm: Hardware safety switch", "EKF3 IMU1 forced reset", "EKF3 IMU1 initialised", "EKF3 IMU1 tilt alignment complete", "EKF3 IMU1 MAG0 initial yaw alignment complete", "EKF3 IMU0 origin set", "EKF3 IMU0 is using GPS", "EKF3 IMU1 origin set", "Field Elevation Set: 206m", "PreArm: RC not found", "PreArm: Hardware safety switch", "PreArm: Gyros inconsistent", "PreArm: Check mag field (xy diff:153>115)", "GPS Glitch or Compass error", "PreArm: RC not found", "PreArm: Hardware safety switch", "PreArm: Gyros inconsistent", "PreArm: AHRS: GPS speed error 2.5 (needs < 1.0)"]}
{"timestamp": "2026-01-15T12:14:11.989926Z", "telemetry": {"lat": 28.7531426, "lon": 77.1178083, "satellites": 8, "altitude_gps_m": 207.9099884033203, "groundspeed_mps": 0.6000052690505981}, "flight": {"mode": "STABILIZE", "armed": false}, "ekf": {"attitude": {"roll": 0.06327695399522781, "pitch": -0.2756476402282715, "yaw": 1.7869302034378052}, "local_position": {"x": 5.7910919189453125, "y": -5.488731384277344, "z": -1.6999225616455078}, "status": {"flags": 33599, "velocity_variance": 0.5838599801063538, "pos_horiz_variance": 0.009443221613764763, "pos_vert_variance": 0.040357932448387146}}, "errors": ["PreArm: Hardware safety switch", "EKF3 IMU1 forced reset", "EKF3 IMU1 initialised", "EKF3 IMU1 tilt alignment complete", "EKF3 IMU1 MAG0 initial yaw alignment complete", "EKF3 IMU0 origin set", "EKF3 IMU0 is using GPS", "EKF3 IMU1 origin set", "Field Elevation Set: 206m", "PreArm: RC not found", "PreArm: Hardware safety switch", "PreArm: Gyros inconsistent", "PreArm: Check mag field (xy diff:153>115)", "GPS Glitch or Compass error", "PreArm: RC not found", "PreArm: Hardware safety switch", "PreArm: Gyros inconsistent", "PreArm: AHRS: GPS speed error 2.5 (needs < 1.0)", "EKF3 IMU1 forced reset", "EKF3 IMU1 initialised"]}
