{"timestamp": "2025-12-28T10:10:18.983588Z", "telemetry": {"lat": 28.7531295, "lon": 77.1178146, "satellites": 11, "altitude_gps_m": 215.36000061035156, "groundspeed_mps": 0.18234263360500336}, "flight": {"mode": "STABILIZE", "armed": false}, "ekf": {"attitude": {"roll": 0.014940252527594566, "pitch": 0.028005803003907204, "yaw": 0.7244555354118347}, "local_position": {"x": 5.952332019805908, "y": -7.133334636688232, "z": -6.428954124450684}, "status": {"flags": 33599, "velocity_variance": 0.19005151093006134, "pos_horiz_variance": 0.03165491297841072, "pos_vert_variance": 0.04715510457754135}}, "errors": []}
{"timestamp": "2025-12-28T10:10:19.931917Z", "telemetry": {"lat": 28.7531263, "lon": 77.1178158, "satellites": 11, "altitude_gps_m": 215.27999877929688, "groundspeed_mps": 0.17167790234088898}, "flight": {"mode": "STABILIZE", "armed": false}, "ekf": {"attitude": {"roll": 0.01595233380794525, "pitch": 0.028412330895662308, "yaw": 0.7240939736366272}, "local_position": {"x": 5.875428676605225, "y": -6.9813995361328125, "z": -6.367165565490723}, "status": {"flags": 33599, "velocity_variance": 0.13688568770885468, "pos_horiz_variance": 0.030950339511036873, "pos_vert_variance": 0.02306288853287697}}, "errors": []}
{"timestamp": "2025-12-28T10:10:20.881880Z", "telemetry": {"lat": 28.7531262, "lon": 77.1178166, "satellites": 11, "altitude_gps_m": 215.20999145507812, "groundspeed_mps": 0.19643281400203705}, "flight": {"mode": "STABILIZE", "armed": false}, "ekf": {"attitude": {"roll": 0.015793917700648308, "pitch": 0.027506930753588676, "yaw": 0.7238658666610718}, "local_position": {"x": 5.725269317626953, "y": -6.9421257972717285, "z": -6.295754909515381}, "status": {"flags": 33599, "velocity_variance": 0.27955538034439087, "pos_horiz_variance": 0.03088877722620964, "pos_vert_variance": 0.0222861897200346}}, "errors": []}
{"timestamp": "2025-12-28T10:10:21.872405Z", "telemetry": {"lat": 28.7531285, "lon": 77.1178183, "satellites": 11, "altitude_gps_m": 215.25, "groundspeed_mps": 0.24748270213603973}, "flight": {"mode": "STABILIZE", "armed": false}, "ekf": {"attitude": {"roll": 0.015700101852416992, "pitch": 0.02633065916597843, "yaw": 0.7236785292625427}, "local_position": {"x": 6.121489524841309, "y": -6.690551280975342, "z": -6.322140693664551}, "status": {"flags": 33599, "velocity_variance": 0.16042761504650116, "pos_horiz_variance": 0.02952670305967331, "pos_vert_variance": 0.053208235651254654}}, "errors": []}
{"timestamp": "2025-12-28T10:10:22.868998Z", "telemetry": {"lat": 28.7531283, "lon": 77.1178222, "satellites": 11, "altitude_gps_m": 215.26998901367188, "groundspeed_mps": 0.25466859340667725}, "flight": {"mode": "STABILIZE", "armed": false}, "ekf": {"attitude": {"roll": 0.01689351163804531, "pitch": 0.025566432625055313, "yaw": 0.7234828472137451}, "local_position": {"x": 6.284996509552002, "y": -6.3306193351745605, "z": -6.3491435050964355}, "status": {"flags": 33599, "velocity_variance": 0.1508084237575531, "pos_horiz_variance": 0.03266514837741852, "pos_vert_variance": 0.027958247810602188}}, "errors": []}
{"timestamp": "2025-12-28T10:10:23.868747Z", "telemetry": {"lat": 28.7531257, "lon": 77.1178264, "satellites": 11, "altitude_gps_m": 215.2899932861328, "groundspeed_mps": 0.18237964808940887}, "flight": {"mode": "STABILIZE", "armed": false}, "ekf": {"attitude": {"roll": 0.018905524164438248, "pitch": 0.025542790070176125, "yaw": 0.7234818935394287}, "local_position": {"x": 6.100350379943848, "y": -5.875449180603027, "z": -6.364295482635498}, "status": {"flags": 33599, "velocity_variance": 0.17087788879871368, "pos_horiz_variance": 0.034078486263751984, "pos_vert_variance": 0.012934165075421333}}, "errors": ["PreArm: Hardware safety switch"]}
{"timestamp": "2025-12-28T10:10:24.867941Z", "telemetry": {"lat": 28.7531253, "lon": 77.1178288, "satellites": 11, "altitude_gps_m": 215.38999938964844, "groundspeed_mps": 0.183320552110672}, "flight": {"mode": "STABILIZE", "armed": false}, "ekf": {"attitude": {"roll": 0.01991492137312889, "pitch": 0.025379804894328117, "yaw": 0.7234805822372437}, "local_position": {"x": 6.003803253173828, "y": -5.445919036865234, "z": -6.4684343338012695}, "status": {"flags": 33599, "velocity_variance": 0.13579148054122925, "pos_horiz_variance": 0.029177479445934296, "pos_vert_variance": 0.01468997448682785}}, "errors": ["PreArm: Hardware safety switch"]}
{"timestamp": "2025-12-28T10:10:25.868398Z", "telemetry": {"lat": 28.753127, "lon": 77.1178279, "satellites": 11, "altitude_gps_m": 215.4099884033203, "groundspeed_mps": 0.2307286113500595}, "flight": {"mode": "STABILIZE", "armed": false}, "ekf": {"attitude": {"roll": 0.019097289070487022, "pitch": 0.025506392121315002, "yaw": 0.7233795523643494}, "local_position": {"x": 6.241331100463867, "y": -5.394862651824951, "z": -6.484666347503662}, "status": {"flags": 33599, "velocity_variance": 0.18715091049671173, "pos_horiz_variance": 0.02652626298367977, "pos_vert_variance": 0.016273345798254013}}, "errors": ["PreArm: Hardware safety switch"]}
{"timestamp": "2025-12-28T10:10:26.867982Z", "telemetry": {"lat": 28.7531245, "lon": 77.1178333, "satellites": 11, "altitude_gps_m": 215.50999450683594, "groundspeed_mps": 0.2064538598060608}, "flight": {"mode": "STABILIZE", "armed": false}, "ekf": {"attitude": {"roll": 0.020915867760777473, "pitch": 0.025585295632481575, "yaw": 0.7233966588973999}, "local_position": {"x": 6.106364727020264, "y": -4.993100166320801, "z": -6.589810371398926}, "status": {"flags": 33599, "velocity_variance": 0.2079952359199524, "pos_horiz_variance": 0.031090205535292625, "pos_vert_variance": 0.006783866789191961}}, "errors": ["PreArm: Hardware safety switch"]}
{"timestamp": "2025-12-28T10:10:27.868933Z", "telemetry": {"lat": 28.7531208, "lon": 77.1178351, "satellites": 11, "altitude_gps_m": 215.52999877929688, "groundspeed_mps": 0.16770222783088684}, "flight": {"mode": "STABILIZE", "armed": false}, "ekf": {"attitude": {"roll": 0.02142224833369255, "pitch": 0.02672405354678631, "yaw": 0.7235024571418762}, "local_position": {"x": 5.906035900115967, "y": -4.722436428070068, "z": -6.602735996246338}, "status": {"flags": 33599, "velocity_variance": 0.3005408048629761, "pos_horiz_variance": 0.03383065015077591, "pos_vert_variance": 0.0015465820906683803}}, "errors": ["PreArm: Hardware safety switch"]}
{"timestamp": "2025-12-28T10:10:28.868696Z", "telemetry": {"lat": 28.753116, "lon": 77.1178372, "satellites": 11, "altitude_gps_m": 215.5800018310547, "groundspeed_mps": 0.14549794793128967}, "flight": {"mode": "STABILIZE", "armed": false}, "ekf": {"attitude": {"roll": 0.022241467610001564, "pitch": 0.027419518679380417, "yaw": 0.7235201597213745}, "local_position": {"x": 5.625797748565674, "y": -4.4430365562438965, "z": -6.660345077514648}, "status": {"flags": 33599, "velocity_variance": 0.15825600922107697, "pos_horiz_variance": 0.038476813584566116, "pos_vert_variance": 0.04862957075238228}}, "errors": ["PreArm: Hardware safety switch"]}
{"timestamp": "2025-12-28T10:10:29.868449Z", "telemetry": {"lat": 28.7531137, "lon": 77.1178405, "satellites": 11, "altitude_gps_m": 215.489990234375, "groundspeed_mps": 0.21046404540538788}, "flight": {"mode": "STABILIZE", "armed": false}, "ekf": {"attitude": {"roll": 0.02367403544485569, "pitch": 0.027521776035428047, "yaw": 0.7235614061355591}, "local_position": {"x": 5.260090351104736, "y": -3.9986584186553955, "z": -6.562983512878418}, "status": {"flags": 33599, "velocity_variance": 0.24012243747711182, "pos_horiz_variance": 0.034173764288425446, "pos_vert_variance": 0.012742430903017521}}, "errors": ["PreArm: Hardware safety switch"]}
{"timestamp": "2025-12-28T10:10:30.868874Z", "telemetry": {"lat": 28.7531114, "lon": 77.1178441, "satellites": 11, "altitude_gps_m": 215.4199981689453, "groundspeed_mps": 0.26136308908462524}, "flight": {"mode": "STABILIZE", "armed": false}, "ekf": {"attitude": {"roll": 0.024584421887993813, "pitch": 0.027461042627692223, "yaw": 0.723548948764801}, "local_position": {"x": 4.886294364929199, "y": -3.6401753425598145, "z": -6.499877452850342}, "status": {"flags": 33599, "velocity_variance": 0.3417881727218628, "pos_horiz_variance": 0.031241461634635925, "pos_vert_variance": 0.058986105024814606}}, "errors": ["PreArm: Hardware safety switch"]}
{"timestamp": "2025-12-28T10:10:31.872556Z", "telemetry": {"lat": 28.753113, "lon": 77.1178457, "satellites": 10, "altitude_gps_m": 215.54998779296875, "groundspeed_mps": 0.2921186685562134}, "flight": {"mode": "STABILIZE", "armed": false}, "ekf": {"attitude": {"roll": 0.02406981773674488, "pitch": 0.026866380125284195, "yaw": 0.7235726118087769}, "local_position": {"x": 4.853217601776123, "y": -3.2007322311401367, "z": -6.627373695373535}, "status": {"flags": 33599, "velocity_variance": 0.2997886836528778, "pos_horiz_variance": 0.023367803543806076, "pos_vert_variance": 0.0053604887798428535}}, "errors": ["PreArm: Hardware safety switch"]}
{"timestamp": "2025-12-28T10:10:32.872677Z", "telemetry": {"lat": 28.7531082, "lon": 77.1178459, "satellites": 10, "altitude_gps_m": 215.58999633789062, "groundspeed_mps": 0.2887829542160034}, "flight": {"mode": "STABILIZE", "armed": false}, "ekf": {"attitude": {"roll": 0.02437760680913925, "pitch": 0.02809908427298069, "yaw": 0.7236731052398682}, "local_position": {"x": 4.48925256729126, "y": -2.9931695461273193, "z": -6.663987159729004}, "status": {"flags": 33599, "velocity_variance": 0.39990660548210144, "pos_horiz_variance": 0.02638521045446396, "pos_vert_variance": 0.015461031347513199}}, "errors": ["PreArm: Hardware safety switch"]}
{"timestamp": "2025-12-28T10:10:33.868917Z", "telemetry": {"lat": 28.7531064, "lon": 77.1178474, "satellites": 10, "altitude_gps_m": 215.47999572753906, "groundspeed_mps": 0.31515371799468994}, "flight": {"mode": "STABILIZE", "armed": false}, "ekf": {"attitude": {"roll": 0.02480383776128292, "pitch": 0.02821963280439377, "yaw": 0.723833441734314}, "local_position": {"x": 4.0515875816345215, "y": -2.8021905422210693, "z": -6.555965900421143}, "status": {"flags": 33599, "velocity_variance": 0.23161107301712036, "pos_horiz_variance": 0.020039208233356476, "pos_vert_variance": 0.034040533006191254}}, "errors": ["PreArm: Hardware safety switch"]}
{"timestamp": "2025-12-28T10:10:34.868840Z", "telemetry": {"lat": 28.753103, "lon": 77.1178419, "satellites": 11, "altitude_gps_m": 215.4199981689453, "groundspeed_mps": 0.28352391719818115}, "flight": {"mode": "STABILIZE", "armed": false}, "ekf": {"attitude": {"roll": 0.02354961261153221, "pitch": 0.030543213710188866, "yaw": 0.7240380644798279}, "local_position": {"x": 3.6539785861968994, "y": -2.9306445121765137, "z": -6.492653846740723}, "status": {"flags": 33599, "velocity_variance": 0.18270038068294525, "pos_horiz_variance": 0.020274989306926727, "pos_vert_variance": 0.0554770790040493}}, "errors": ["PreArm: Hardware safety switch"]}
{"timestamp": "2025-12-28T10:10:35.868167Z", "telemetry": {"lat": 28.7531056, "lon": 77.1178416, "satellites": 11, "altitude_gps_m": 215.5399932861328, "groundspeed_mps": 0.22552166879177094}, "flight": {"mode": "STABILIZE", "armed": false}, "ekf": {"attitude": {"roll": 0.022800417616963387, "pitch": 0.02985929697751999, "yaw": 0.7240959405899048}, "local_position": {"x": 3.522115707397461, "y": -3.010587215423584, "z": -6.609527587890625}, "status": {"flags": 33599, "velocity_variance": 0.12789274752140045, "pos_horiz_variance": 0.011739987879991531, "pos_vert_variance": 0.04129142686724663}}, "errors": ["PreArm: Hardware safety switch"]}
{"timestamp": "2025-12-28T10:10:36.868638Z", "telemetry": {"lat": 28.7531084, "lon": 77.1178399, "satellites": 11, "altitude_gps_m": 215.45999145507812, "groundspeed_mps": 0.15891718864440918}, "flight": {"mode": "STABILIZE", "armed": false}, "ekf": {"attitude": {"roll": 0.02189614623785019, "pitch": 0.029530292376875877, "yaw": 0.7240735292434692}, "local_position": {"x": 3.513777494430542, "y": -3.1065762042999268, "z": -6.535694122314453}, "status": {"flags": 33599, "velocity_variance": 0.08546570688486099, "pos_horiz_variance": 0.011042204685509205, "pos_vert_variance": 0.061647407710552216}}, "errors": ["PreArm: Hardware safety switch"]}
{"timestamp": "2025-12-28T10:10:37.868620Z", "telemetry": {"lat": 28.7531084, "lon": 77.1178346, "satellites": 11, "altitude_gps_m": 215.38999938964844, "groundspeed_mps": 0.12397310882806778}, "flight": {"mode": "STABILIZE", "armed": false}, "ekf": {"attitude": {"roll": 0.02011224441230297, "pitch": 0.03000260703265667, "yaw": 0.7238366007804871}, "local_position": {"x": 3.595186710357666, "y": -3.3874664306640625, "z": -6.470856666564941}, "status": {"flags": 33599, "velocity_variance": 0.3017846643924713, "pos_horiz_variance": 0.017564503476023674, "pos_vert_variance": 0.05181261897087097}}, "errors": ["PreArm: Hardware safety switch"]}
{"timestamp": "2025-12-28T10:10:38.868763Z", "telemetry": {"lat": 28.7531107, "lon": 77.1178311, "satellites": 11, "altitude_gps_m": 215.44000244140625, "groundspeed_mps": 0.19193552434444427}, "flight": {"mode": "STABILIZE", "armed": false}, "ekf": {"attitude": {"roll": 0.01894432306289673, "pitch": 0.029645584523677826, "yaw": 0.723783552646637}, "local_position": {"x": 3.662895679473877, "y": -3.763101816177368, "z": -6.533666133880615}, "status": {"flags": 33599, "velocity_variance": 0.16348989307880402, "pos_horiz_variance": 0.017329953610897064, "pos_vert_variance": 0.032045796513557434}}, "errors": ["PreArm: Hardware safety switch"]}
{"timestamp": "2025-12-28T10:10:39.868053Z", "telemetry": {"lat": 28.7531076, "lon": 77.1178298, "satellites": 10, "altitude_gps_m": 215.36000061035156, "groundspeed_mps": 0.22190921008586884}, "flight": {"mode": "STABILIZE", "armed": false}, "ekf": {"attitude": {"roll": 0.01942582242190838, "pitch": 0.030022114515304565, "yaw": 0.723629355430603}, "local_position": {"x": 3.555410623550415, "y": -4.031122207641602, "z": -6.430770397186279}, "status": {"flags": 33599, "velocity_variance": 0.121486596763134, "pos_horiz_variance": 0.013571488671004772, "pos_vert_variance": 0.031498100608587265}}, "errors": ["PreArm: Hardware safety switch"]}
{"timestamp": "2025-12-28T10:10:40.868368Z", "telemetry": {"lat": 28.7531099, "lon": 77.1178276, "satellites": 10, "altitude_gps_m": 215.27999877929688, "groundspeed_mps": 0.2459176480770111}, "flight": {"mode": "STABILIZE", "armed": false}, "ekf": {"attitude": {"roll": 0.01861416921019554, "pitch": 0.029096102342009544, "yaw": 0.7233933806419373}, "local_position": {"x": 3.767052412033081, "y": -4.277806758880615, "z": -6.355063438415527}, "status": {"flags": 33599, "velocity_variance": 0.2224157750606537, "pos_horiz_variance": 0.012376531958580017, "pos_vert_variance": 0.05955604091286659}}, "errors": ["PreArm: Hardware safety switch"]}
{"timestamp": "2025-12-28T10:10:41.868364Z", "telemetry": {"lat": 28.7531096, "lon": 77.1178238, "satellites": 10, "altitude_gps_m": 215.20999145507812, "groundspeed_mps": 0.2953587770462036}, "flight": {"mode": "STABILIZE", "armed": false}, "ekf": {"attitude": {"roll": 0.018628420308232307, "pitch": 0.029222780838608742, "yaw": 0.7233623266220093}, "local_position": {"x": 3.7424511909484863, "y": -4.572261810302734, "z": -6.314268112182617}, "status": {"flags": 33599, "velocity_variance": 0.20786850154399872, "pos_horiz_variance": 0.013556724414229393, "pos_vert_variance": 0.0442088320851326}}, "errors": ["PreArm: Hardware safety switch"]}
{"timestamp": "2025-12-28T10:10:42.872918Z", "telemetry": {"lat": 28.7531096, "lon": 77.1178269, "satellites": 11, "altitude_gps_m": 215.1599884033203, "groundspeed_mps": 0.24061648547649384}, "flight": {"mode": "STABILIZE", "armed": false}, "ekf": {"attitude": {"roll": 0.019700627774000168, "pitch": 0.02773204632103443, "yaw": 0.7233721017837524}, "local_position": {"x": 3.9170544147491455, "y": -4.628661155700684, "z": -6.235598087310791}, "status": {"flags": 33599, "velocity_variance": 0.3203335702419281, "pos_horiz_variance": 0.005916699767112732, "pos_vert_variance": 0.02121996320784092}}, "errors": ["PreArm: Hardware safety switch"]}
{"timestamp": "2025-12-28T10:10:43.869000Z", "telemetry": {"lat": 28.7531089, "lon": 77.11783, "satellites": 10, "altitude_gps_m": 215.17999267578125, "groundspeed_mps": 0.14707058668136597}, "flight": {"mode": "STABILIZE", "armed": false}, "ekf": {"attitude": {"roll": 0.021039579063653946, "pitch": 0.02650679461658001, "yaw": 0.7234653830528259}, "local_position": {"x": 3.9101991653442383, "y": -4.438055992126465, "z": -6.258586883544922}, "status": {"flags": 33599, "velocity_variance": 0.24185344576835632, "pos_horiz_variance": 0.004112947266548872, "pos_vert_variance": 0.0651816725730896}}, "errors": ["PreArm: Hardware safety switch"]}
{"timestamp": "2025-12-28T10:10:44.868439Z", "telemetry": {"lat": 28.7531099, "lon": 77.117828, "satellites": 10, "altitude_gps_m": 215.14999389648438, "groundspeed_mps": 0.17571952939033508}, "flight": {"mode": "STABILIZE", "armed": false}, "ekf": {"attitude": {"roll": 0.020922331139445305, "pitch": 0.026130763813853264, "yaw": 0.7234950065612793}, "local_position": {"x": 4.053380966186523, "y": -4.461250305175781, "z": -6.226467132568359}, "status": {"flags": 33599, "velocity_variance": 0.2709522545337677, "pos_horiz_variance": 0.007571406662464142, "pos_vert_variance": 0.00223360862582922}}, "errors": ["PreArm: Hardware safety switch"]}
{"timestamp": "2025-12-28T10:10:45.867944Z", "telemetry": {"lat": 28.7531097, "lon": 77.117825, "satellites": 10, "altitude_gps_m": 215.239990234375, "groundspeed_mps": 0.2178749442100525}, "flight": {"mode": "STABILIZE", "armed": false}, "ekf": {"attitude": {"roll": 0.020825324580073357, "pitch": 0.025661947205662727, "yaw": 0.7234094738960266}, "local_position": {"x": 4.246165752410889, "y": -4.674468040466309, "z": -6.3123650550842285}, "status": {"flags": 33599, "velocity_variance": 0.17048890888690948, "pos_horiz_variance": 0.012567461468279362, "pos_vert_variance": 0.017499348148703575}}, "errors": ["PreArm: Hardware safety switch"]}
{"timestamp": "2025-12-28T10:10:46.868496Z", "telemetry": {"lat": 28.7531139, "lon": 77.1178225, "satellites": 9, "altitude_gps_m": 215.25999450683594, "groundspeed_mps": 0.29280149936676025}, "flight": {"mode": "STABILIZE", "armed": false}, "ekf": {"attitude": {"roll": 0.020371943712234497, "pitch": 0.024604544043540955, "yaw": 0.723598062992096}, "local_position": {"x": 4.592531681060791, "y": -4.770309925079346, "z": -6.336832046508789}, "status": {"flags": 33599, "velocity_variance": 0.24192126095294952, "pos_horiz_variance": 0.014205234125256538, "pos_vert_variance": 0.013388332910835743}}, "errors": ["PreArm: Hardware safety switch"]}
{"timestamp": "2025-12-28T10:10:47.868269Z", "telemetry": {"lat": 28.7531108, "lon": 77.1178195, "satellites": 9, "altitude_gps_m": 215.26998901367188, "groundspeed_mps": 0.2383660227060318}, "flight": {"mode": "STABILIZE", "armed": false}, "ekf": {"attitude": {"roll": 0.021353302523493767, "pitch": 0.02568584494292736, "yaw": 0.7235916256904602}, "local_position": {"x": 4.497328758239746, "y": -5.004894733428955, "z": -6.344191074371338}, "status": {"flags": 33599, "velocity_variance": 0.38214582204818726, "pos_horiz_variance": 0.020215697586536407, "pos_vert_variance": 0.0492665097117424}}, "errors": ["PreArm: Hardware safety switch"]}
{"timestamp": "2025-12-28T10:10:48.868383Z", "telemetry": {"lat": 28.7531079, "lon": 77.1178127, "satellites": 9, "altitude_gps_m": 215.22999572753906, "groundspeed_mps": 0.23876450955867767}, "flight": {"mode": "STABILIZE", "armed": false}, "ekf": {"attitude": {"roll": 0.02139827236533165, "pitch": 0.02770937606692314, "yaw": 0.7235215902328491}, "local_position": {"x": 4.248504638671875, "y": -5.493126392364502, "z": -6.3051276206970215}, "status": {"flags": 33599, "velocity_variance": 0.18619666993618011, "pos_horiz_variance": 0.024990303441882133, "pos_vert_variance": 0.013798261061310768}}, "errors": ["PreArm: Hardware safety switch"]}
{"timestamp": "2025-12-28T10:10:49.868078Z", "telemetry": {"lat": 28.7531089, "lon": 77.1178094, "satellites": 10, "altitude_gps_m": 215.38999938964844, "groundspeed_mps": 0.2825392782688141}, "flight": {"mode": "STABILIZE", "armed": false}, "ekf": {"attitude": {"roll": 0.021391747519373894, "pitch": 0.02788819931447506, "yaw": 0.723639726638794}, "local_position": {"x": 4.227706432342529, "y": -5.9371442794799805, "z": -6.461287498474121}, "status": {"flags": 33599, "velocity_variance": 0.05280464515089989, "pos_horiz_variance": 0.02149219997227192, "pos_vert_variance": 0.016089439392089844}}, "errors": ["PreArm: Hardware safety switch"]}
{"timestamp": "2025-12-28T10:10:50.868092Z", "telemetry": {"lat": 28.7531134, "lon": 77.1178081, "satellites": 10, "altitude_gps_m": 215.51998901367188, "groundspeed_mps": 0.2851809561252594}, "flight": {"mode": "STABILIZE", "armed": false}, "ekf": {"attitude": {"roll": 0.021399594843387604, "pitch": 0.027258578687906265, "yaw": 0.7236452698707581}, "local_position": {"x": 4.3184404373168945, "y": -6.215943336486816, "z": -6.593066215515137}, "status": {"flags": 33599, "velocity_variance": 0.41284921765327454, "pos_horiz_variance": 0.01164195965975523, "pos_vert_variance": 0.010704969987273216}}, "errors": ["PreArm: Hardware safety switch"]}
{"timestamp": "2025-12-28T10:10:51.868750Z", "telemetry": {"lat": 28.7531132, "lon": 77.1178077, "satellites": 9, "altitude_gps_m": 215.51998901367188, "groundspeed_mps": 0.27191320061683655}, "flight": {"mode": "STABILIZE", "armed": false}, "ekf": {"attitude": {"roll": 0.021746810525655746, "pitch": 0.026994245126843452, "yaw": 0.723630428314209}, "local_position": {"x": 4.452480316162109, "y": -6.4075164794921875, "z": -6.595864772796631}, "status": {"flags": 33599, "velocity_variance": 0.3276638984680176, "pos_horiz_variance": 0.008795793168246746, "pos_vert_variance": 0.0631045401096344}}, "errors": ["PreArm: Hardware safety switch"]}
{"timestamp": "2025-12-28T10:10:52.868660Z", "telemetry": {"lat": 28.7531144, "lon": 77.1178124, "satellites": 9, "altitude_gps_m": 215.4199981689453, "groundspeed_mps": 0.22445744276046753}, "flight": {"mode": "STABILIZE", "armed": false}, "ekf": {"attitude": {"roll": 0.022753342986106873, "pitch": 0.02514067105948925, "yaw": 0.7237674593925476}, "local_position": {"x": 4.718186855316162, "y": -6.205020427703857, "z": -6.498862266540527}, "status": {"flags": 33599, "velocity_variance": 0.26383206248283386, "pos_horiz_variance": 0.010310003533959389, "pos_vert_variance": 0.037156619131565094}}, "errors": ["PreArm: Hardware safety switch"]}
{"timestamp": "2025-12-28T10:10:53.873664Z", "telemetry": {"lat": 28.7531126, "lon": 77.1178119, "satellites": 9, "altitude_gps_m": 215.4099884033203, "groundspeed_mps": 0.18385185301303864}, "flight": {"mode": "STABILIZE", "armed": false}, "ekf": {"attitude": {"roll": 0.023516250774264336, "pitch": 0.025317927822470665, "yaw": 0.7239547371864319}, "local_position": {"x": 4.738516330718994, "y": -6.159174919128418, "z": -6.4834184646606445}, "status": {"flags": 33599, "velocity_variance": 0.13351251184940338, "pos_horiz_variance": 0.015516419894993305, "pos_vert_variance": 0.07148175686597824}}, "errors": ["PreArm: Hardware safety switch"]}
{"timestamp": "2025-12-28T10:10:54.869643Z", "telemetry": {"lat": 28.7531132, "lon": 77.1178109, "satellites": 9, "altitude_gps_m": 215.39999389648438, "groundspeed_mps": 0.17513641715049744}, "flight": {"mode": "STABILIZE", "armed": false}, "ekf": {"attitude": {"roll": 0.02365357056260109, "pitch": 0.02523837797343731, "yaw": 0.7241179347038269}, "local_position": {"x": 4.777804851531982, "y": -6.177862644195557, "z": -6.472012996673584}, "status": {"flags": 33599, "velocity_variance": 0.2528505027294159, "pos_horiz_variance": 0.014590216800570488, "pos_vert_variance": 0.04847293347120285}}, "errors": ["PreArm: Hardware safety switch", "PreArm: Hardware safety switch"]}
{"timestamp": "2025-12-28T10:10:55.868047Z", "telemetry": {"lat": 28.7531102, "lon": 77.1178084, "satellites": 9, "altitude_gps_m": 215.47999572753906, "groundspeed_mps": 0.13052158057689667}, "flight": {"mode": "STABILIZE", "armed": false}, "ekf": {"attitude": {"roll": 0.02385479211807251, "pitch": 0.026262599974870682, "yaw": 0.7242279052734375}, "local_position": {"x": 4.632247447967529, "y": -6.410525321960449, "z": -6.552594184875488}, "status": {"flags": 33599, "velocity_variance": 0.15502221882343292, "pos_horiz_variance": 0.02129170298576355, "pos_vert_variance": 0.02518134005367756}}, "errors": ["PreArm: Hardware safety switch", "PreArm: Hardware safety switch"]}
{"timestamp": "2025-12-28T10:10:56.868438Z", "telemetry": {"lat": 28.7531043, "lon": 77.1178093, "satellites": 9, "altitude_gps_m": 215.3699951171875, "groundspeed_mps": 0.025602957233786583}, "flight": {"mode": "STABILIZE", "armed": false}, "ekf": {"attitude": {"roll": 0.02563018724322319, "pitch": 0.02739112451672554, "yaw": 0.7244420051574707}, "local_position": {"x": 4.186709880828857, "y": -6.400345325469971, "z": -6.446004867553711}, "status": {"flags": 33599, "velocity_variance": 0.27376043796539307, "pos_horiz_variance": 0.026720579713582993, "pos_vert_variance": 0.05169113725423813}}, "errors": ["PreArm: Hardware safety switch", "PreArm: Hardware safety switch"]}
{"timestamp": "2025-12-28T10:10:57.867946Z", "telemetry": {"lat": 28.753109, "lon": 77.1178159, "satellites": 11, "altitude_gps_m": 215.30999755859375, "groundspeed_mps": 0.13165710866451263}, "flight": {"mode": "STABILIZE", "armed": false}, "ekf": {"attitude": {"roll": 0.02660820633172989, "pitch": 0.02550346590578556, "yaw": 0.7248260974884033}, "local_position": {"x": 4.104832172393799, "y": -5.986673355102539, "z": -6.382911205291748}, "status": {"flags": 33599, "velocity_variance": 0.1662645936012268, "pos_horiz_variance": 0.012409462593495846, "pos_vert_variance": 0.0482516810297966}}, "errors": ["PreArm: Hardware safety switch", "PreArm: Hardware safety switch"]}
{"timestamp": "2025-12-28T10:10:58.867875Z", "telemetry": {"lat": 28.7531052, "lon": 77.1178124, "satellites": 11, "altitude_gps_m": 215.239990234375, "groundspeed_mps": 0.15918563306331635}, "flight": {"mode": "STABILIZE", "armed": false}, "ekf": {"attitude": {"roll": 0.027019867673516273, "pitch": 0.027597134932875633, "yaw": 0.7251796722412109}, "local_position": {"x": 3.7340786457061768, "y": -6.039884567260742, "z": -6.31508207321167}, "status": {"flags": 33599, "velocity_variance": 0.1302875429391861, "pos_horiz_variance": 0.012242471799254417, "pos_vert_variance": 0.052451737225055695}}, "errors": ["PreArm: Hardware safety switch", "PreArm: Hardware safety switch"]}
{"timestamp": "2025-12-28T10:10:59.868902Z", "telemetry": {"lat": 28.7531034, "lon": 77.1178125, "satellites": 11, "altitude_gps_m": 215.33999633789062, "groundspeed_mps": 0.21981178224086761}, "flight": {"mode": "STABILIZE", "armed": false}, "ekf": {"attitude": {"roll": 0.027304651215672493, "pitch": 0.027747562155127525, "yaw": 0.7252973914146423}, "local_position": {"x": 3.419659376144409, "y": -5.9803466796875, "z": -6.411969184875488}, "status": {"flags": 33599, "velocity_variance": 0.14273513853549957, "pos_horiz_variance": 0.01068037934601307, "pos_vert_variance": 0.03359639644622803}}, "errors": ["PreArm: Hardware safety switch", "PreArm: Hardware safety switch"]}
{"timestamp": "2025-12-28T10:11:00.868788Z", "telemetry": {"lat": 28.7531047, "lon": 77.1178107, "satellites": 11, "altitude_gps_m": 215.29998779296875, "groundspeed_mps": 0.2008650153875351}, "flight": {"mode": "STABILIZE", "armed": false}, "ekf": {"attitude": {"roll": 0.026465529575943947, "pitch": 0.027864841744303703, "yaw": 0.7254730463027954}, "local_position": {"x": 3.318575143814087, "y": -6.03107213973999, "z": -6.378296852111816}, "status": {"flags": 33599, "velocity_variance": 0.23889632523059845, "pos_horiz_variance": 0.007848022505640984, "pos_vert_variance": 0.06899575889110565}}, "errors": ["PreArm: Hardware safety switch", "PreArm: Hardware safety switch"]}
{"timestamp": "2025-12-28T10:11:01.868887Z", "telemetry": {"lat": 28.7531033, "lon": 77.1178082, "satellites": 11, "altitude_gps_m": 215.27999877929688, "groundspeed_mps": 0.20616376399993896}, "flight": {"mode": "STABILIZE", "armed": false}, "ekf": {"attitude": {"roll": 0.025949126109480858, "pitch": 0.02829945646226406, "yaw": 0.7255373001098633}, "local_position": {"x": 3.1162147521972656, "y": -6.1992316246032715, "z": -6.352182865142822}, "status": {"flags": 33599, "velocity_variance": 0.2698754370212555, "pos_horiz_variance": 0.010248051956295967, "pos_vert_variance": 0.038376085460186005}}, "errors": ["PreArm: Hardware safety switch", "PreArm: Hardware safety switch"]}
{"timestamp": "2025-12-28T10:11:02.868571Z", "telemetry": {"lat": 28.7531007, "lon": 77.1178045, "satellites": 11, "altitude_gps_m": 215.25999450683594, "groundspeed_mps": 0.21924500167369843}, "flight": {"mode": "STABILIZE", "armed": false}, "ekf": {"attitude": {"roll": 0.025034956634044647, "pitch": 0.02931811660528183, "yaw": 0.7254869937896729}, "local_position": {"x": 2.9198079109191895, "y": -6.514868259429932, "z": -6.337917804718018}, "status": {"flags": 33599, "velocity_variance": 0.09365209937095642, "pos_horiz_variance": 0.01189606823027134, "pos_vert_variance": 0.0035609269980341196}}, "errors": ["PreArm: Hardware safety switch", "PreArm: Hardware safety switch"]}
{"timestamp": "2025-12-28T10:11:03.874016Z", "telemetry": {"lat": 28.7531016, "lon": 77.1178033, "satellites": 11, "altitude_gps_m": 215.239990234375, "groundspeed_mps": 0.20111626386642456}, "flight": {"mode": "STABILIZE", "armed": false}, "ekf": {"attitude": {"roll": 0.02359938994050026, "pitch": 0.02928486280143261, "yaw": 0.7256099581718445}, "local_position": {"x": 2.8685107231140137, "y": -6.651072978973389, "z": -6.329227924346924}, "status": {"flags": 33599, "velocity_variance": 0.3159566819667816, "pos_horiz_variance": 0.01177727896720171, "pos_vert_variance": 0.003282650839537382}}, "errors": ["PreArm: Hardware safety switch", "PreArm: Hardware safety switch"]}
{"timestamp": "2025-12-28T10:11:04.869987Z", "telemetry": {"lat": 28.7531005, "lon": 77.1177939, "satellites": 11, "altitude_gps_m": 215.25999450683594, "groundspeed_mps": 0.3046377897262573}, "flight": {"mode": "STABILIZE", "armed": false}, "ekf": {"attitude": {"roll": 0.02224399894475937, "pitch": 0.03034152276813984, "yaw": 0.7254698276519775}, "local_position": {"x": 2.7526397705078125, "y": -7.4715070724487305, "z": -6.338578701019287}, "status": {"flags": 33599, "velocity_variance": 0.13063564896583557, "pos_horiz_variance": 0.014930414035916328, "pos_vert_variance": 0.02375471405684948}}, "errors": ["PreArm: Hardware safety switch", "PreArm: Hardware safety switch"]}
{"timestamp": "2025-12-28T10:11:05.870057Z", "telemetry": {"lat": 28.753104, "lon": 77.1177922, "satellites": 11, "altitude_gps_m": 215.25999450683594, "groundspeed_mps": 0.28726986050605774}, "flight": {"mode": "STABILIZE", "armed": false}, "ekf": {"attitude": {"roll": 0.021282311528921127, "pitch": 0.02927587181329727, "yaw": 0.7252916097640991}, "local_position": {"x": 2.8818092346191406, "y": -7.788532257080078, "z": -6.332222938537598}, "status": {"flags": 33599, "velocity_variance": 0.3187367618083954, "pos_horiz_variance": 0.012543507851660252, "pos_vert_variance": 0.057682428508996964}}, "errors": ["PreArm: Hardware safety switch", "PreArm: Hardware safety switch"]}
{"timestamp": "2025-12-28T10:11:06.868187Z", "telemetry": {"lat": 28.753104, "lon": 77.117792, "satellites": 11, "altitude_gps_m": 215.1599884033203, "groundspeed_mps": 0.2831917405128479}, "flight": {"mode": "STABILIZE", "armed": false}, "ekf": {"attitude": {"roll": 0.020688539370894432, "pitch": 0.028737692162394524, "yaw": 0.7251843810081482}, "local_position": {"x": 2.9614899158477783, "y": -7.912434101104736, "z": -6.270287036895752}, "status": {"flags": 33599, "velocity_variance": 0.3397904634475708, "pos_horiz_variance": 0.009373430162668228, "pos_vert_variance": 0.032422374933958054}}, "errors": ["PreArm: Hardware safety switch", "PreArm: Hardware safety switch"]}
{"timestamp": "2025-12-28T10:11:07.868779Z", "telemetry": {"lat": 28.7531041, "lon": 77.1177878, "satellites": 11, "altitude_gps_m": 215.05999755859375, "groundspeed_mps": 0.31713464856147766}, "flight": {"mode": "STABILIZE", "armed": false}, "ekf": {"attitude": {"roll": 0.020697996020317078, "pitch": 0.028551258146762848, "yaw": 0.7250990867614746}, "local_position": {"x": 3.012327194213867, "y": -8.42454719543457, "z": -6.1320648193359375}, "status": {"flags": 33599, "velocity_variance": 0.03730185702443123, "pos_horiz_variance": 0.007040027529001236, "pos_vert_variance": 0.05881594866514206}}, "errors": ["PreArm: Hardware safety switch", "PreArm: Hardware safety switch"]}
{"timestamp": "2025-12-28T10:11:08.868709Z", "telemetry": {"lat": 28.7531034, "lon": 77.1177797, "satellites": 10, "altitude_gps_m": 215.08999633789062, "groundspeed_mps": 0.4171280860900879}, "flight": {"mode": "STABILIZE", "armed": false}, "ekf": {"attitude": {"roll": 0.020253438502550125, "pitch": 0.0298156775534153, "yaw": 0.7249287366867065}, "local_position": {"x": 2.7899110317230225, "y": -9.016439437866211, "z": -6.162349700927734}, "status": {"flags": 33599, "velocity_variance": 0.3407094478607178, "pos_horiz_variance": 0.012309722602367401, "pos_vert_variance": 0.010732129216194153}}, "errors": ["PreArm: Hardware safety switch", "PreArm: Hardware safety switch"]}
{"timestamp": "2025-12-28T10:11:09.868254Z", "telemetry": {"lat": 28.7531116, "lon": 77.1177738, "satellites": 9, "altitude_gps_m": 215.22000122070312, "groundspeed_mps": 0.4924658536911011}, "flight": {"mode": "STABILIZE", "armed": false}, "ekf": {"attitude": {"roll": 0.018838291987776756, "pitch": 0.029312098398804665, "yaw": 0.7248095870018005}, "local_position": {"x": 3.1247708797454834, "y": -9.635553359985352, "z": -6.293715953826904}, "status": {"flags": 33599, "velocity_variance": 0.22762951254844666, "pos_horiz_variance": 0.02146572433412075, "pos_vert_variance": 0.00373939611017704}}, "errors": ["PreArm: Hardware safety switch", "PreArm: Hardware safety switch"]}
{"timestamp": "2025-12-28T10:11:10.868865Z", "telemetry": {"lat": 28.7531092, "lon": 77.1177757, "satellites": 10, "altitude_gps_m": 215.19000244140625, "groundspeed_mps": 0.4673328995704651}, "flight": {"mode": "STABILIZE", "armed": false}, "ekf": {"attitude": {"roll": 0.019319770857691765, "pitch": 0.02797722816467285, "yaw": 0.7247723340988159}, "local_position": {"x": 3.488055944442749, "y": -9.89753246307373, "z": -6.267359256744385}, "status": {"flags": 33599, "velocity_variance": 0.4178752601146698, "pos_horiz_variance": 0.006527729798108339, "pos_vert_variance": 0.04472140222787857}}, "errors": ["PreArm: Hardware safety switch", "PreArm: Hardware safety switch"]}
{"timestamp": "2025-12-28T10:11:11.868318Z", "telemetry": {"lat": 28.7531059, "lon": 77.1177792, "satellites": 9, "altitude_gps_m": 215.14999389648438, "groundspeed_mps": 0.39149993658065796}, "flight": {"mode": "STABILIZE", "armed": false}, "ekf": {"attitude": {"roll": 0.020441800355911255, "pitch": 0.02625977247953415, "yaw": 0.7246813774108887}, "local_position": {"x": 3.7405200004577637, "y": -9.910910606384277, "z": -6.224351406097412}, "status": {"flags": 33599, "velocity_variance": 0.1506129652261734, "pos_horiz_variance": 0.011246749199926853, "pos_vert_variance": 0.017926573753356934}}, "errors": ["PreArm: Hardware safety switch", "PreArm: Hardware safety switch"]}
{"timestamp": "2025-12-28T10:11:12.868091Z", "telemetry": {"lat": 28.7530997, "lon": 77.1177804, "satellites": 9, "altitude_gps_m": 215.29998779296875, "groundspeed_mps": 0.2801004946231842}, "flight": {"mode": "STABILIZE", "armed": false}, "ekf": {"attitude": {"roll": 0.021815722808241844, "pitch": 0.026176340878009796, "yaw": 0.7246614098548889}, "local_position": {"x": 3.5631978511810303, "y": -9.820584297180176, "z": -6.373904705047607}, "status": {"flags": 33599, "velocity_variance": 0.21704865992069244, "pos_horiz_variance": 0.021311383694410324, "pos_vert_variance": 0.030119651928544044}}, "errors": ["PreArm: Hardware safety switch", "PreArm: Hardware safety switch"]}
{"timestamp": "2025-12-28T10:11:13.868251Z", "telemetry": {"lat": 28.7530983, "lon": 77.1177877, "satellites": 9, "altitude_gps_m": 215.33999633789062, "groundspeed_mps": 0.16833873093128204}, "flight": {"mode": "STABILIZE", "armed": false}, "ekf": {"attitude": {"roll": 0.023528989404439926, "pitch": 0.024312688037753105, "yaw": 0.7249117493629456}, "local_position": {"x": 3.6143224239349365, "y": -9.401022911071777, "z": -6.419373512268066}, "status": {"flags": 33599, "velocity_variance": 0.17680232226848602, "pos_horiz_variance": 0.030123844742774963, "pos_vert_variance": 0.04139162227511406}}, "errors": ["PreArm: Hardware safety switch", "PreArm: Hardware safety switch"]}
{"timestamp": "2025-12-28T10:11:14.874130Z", "telemetry": {"lat": 28.7530895, "lon": 77.1177894, "satellites": 9, "altitude_gps_m": 215.33999633789062, "groundspeed_mps": 0.018589483574032784}, "flight": {"mode": "STABILIZE", "armed": false}, "ekf": {"attitude": {"roll": 0.025179654359817505, "pitch": 0.02532022073864937, "yaw": 0.7249799966812134}, "local_position": {"x": 3.0590271949768066, "y": -9.121938705444336, "z": -6.4153008460998535}, "status": {"flags": 33599, "velocity_variance": 0.16147494316101074, "pos_horiz_variance": 0.036996908485889435, "pos_vert_variance": 0.028744347393512726}}, "errors": ["PreArm: Hardware safety switch", "PreArm: Hardware safety switch"]}
{"timestamp": "2025-12-28T10:11:15.870591Z", "telemetry": {"lat": 28.7530871, "lon": 77.1177879, "satellites": 9, "altitude_gps_m": 215.3199920654297, "groundspeed_mps": 0.01797131448984146}, "flight": {"mode": "STABILIZE", "armed": false}, "ekf": {"attitude": {"roll": 0.024787727743387222, "pitch": 0.025510409846901894, "yaw": 0.7250770926475525}, "local_position": {"x": 2.890878200531006, "y": -9.226469993591309, "z": -6.398962497711182}, "status": {"flags": 33599, "velocity_variance": 0.1842532455921173, "pos_horiz_variance": 0.039058227092027664, "pos_vert_variance": 0.012298479676246643}}, "errors": ["PreArm: Hardware safety switch", "PreArm: Hardware safety switch"]}
{"timestamp": "2025-12-28T10:11:16.868707Z", "telemetry": {"lat": 28.753083, "lon": 77.1177891, "satellites": 9, "altitude_gps_m": 215.39999389648438, "groundspeed_mps": 0.09853535890579224}, "flight": {"mode": "STABILIZE", "armed": false}, "ekf": {"attitude": {"roll": 0.026025692000985146, "pitch": 0.0260772705078125, "yaw": 0.7252373099327087}, "local_position": {"x": 2.3974640369415283, "y": -8.996005058288574, "z": -6.476480960845947}, "status": {"flags": 33599, "velocity_variance": 0.2692760229110718, "pos_horiz_variance": 0.035952504724264145, "pos_vert_variance": 0.023546317592263222}}, "errors": ["PreArm: Hardware safety switch", "PreArm: Hardware safety switch"]}
{"timestamp": "2025-12-28T10:11:17.868671Z", "telemetry": {"lat": 28.7530783, "lon": 77.117791, "satellites": 9, "altitude_gps_m": 215.37998962402344, "groundspeed_mps": 0.213836669921875}, "flight": {"mode": "STABILIZE", "armed": false}, "ekf": {"attitude": {"roll": 0.026762086898088455, "pitch": 0.026767339557409286, "yaw": 0.7255281805992126}, "local_position": {"x": 1.7300243377685547, "y": -8.913150787353516, "z": -6.452178001403809}, "status": {"flags": 33599, "velocity_variance": 0.2567993700504303, "pos_horiz_variance": 0.03445463255047798, "pos_vert_variance": 0.0813646987080574}}, "errors": ["PreArm: Hardware safety switch", "PreArm: Hardware safety switch"]}
{"timestamp": "2025-12-28T10:11:18.868097Z", "telemetry": {"lat": 28.7530744, "lon": 77.1177935, "satellites": 9, "altitude_gps_m": 215.3699951171875, "groundspeed_mps": 0.24226312339305878}, "flight": {"mode": "STABILIZE", "armed": false}, "ekf": {"attitude": {"roll": 0.02633301354944706, "pitch": 0.026700075715780258, "yaw": 0.725490927696228}, "local_position": {"x": 1.345543384552002, "y": -8.787589073181152, "z": -6.448384761810303}, "status": {"flags": 33599, "velocity_variance": 0.157627135515213, "pos_horiz_variance": 0.03687194734811783, "pos_vert_variance": 0.0071563213132321835}}, "errors": ["PreArm: Hardware safety switch", "PreArm: Hardware safety switch"]}
{"timestamp": "2025-12-28T10:11:19.867851Z", "telemetry": {"lat": 28.75307, "lon": 77.1178012, "satellites": 9, "altitude_gps_m": 215.4199981689453, "groundspeed_mps": 0.39029985666275024}, "flight": {"mode": "STABILIZE", "armed": false}, "ekf": {"attitude": {"roll": 0.028288904577493668, "pitch": 0.02592390961945057, "yaw": 0.7256968021392822}, "local_position": {"x": 0.7847336530685425, "y": -8.084335327148438, "z": -6.488961696624756}, "status": {"flags": 33599, "velocity_variance": 0.34810712933540344, "pos_horiz_variance": 0.03574378043413162, "pos_vert_variance": 0.01606694795191288}}, "errors": ["PreArm: Hardware safety switch", "PreArm: Hardware safety switch"]}
{"timestamp": "2025-12-28T10:11:20.867980Z", "telemetry": {"lat": 28.753072, "lon": 77.1178041, "satellites": 9, "altitude_gps_m": 215.37998962402344, "groundspeed_mps": 0.49340805411338806}, "flight": {"mode": "STABILIZE", "armed": false}, "ekf": {"attitude": {"roll": 0.028568750247359276, "pitch": 0.024768104776740074, "yaw": 0.7260220646858215}, "local_position": {"x": 0.3878963887691498, "y": -7.440324783325195, "z": -6.45816707611084}, "status": {"flags": 33599, "velocity_variance": 0.05846811458468437, "pos_horiz_variance": 0.02229169011116028, "pos_vert_variance": 0.04928384721279144}}, "errors": ["PreArm: Hardware safety switch", "PreArm: Hardware safety switch"]}
{"timestamp": "2025-12-28T10:11:21.867950Z", "telemetry": {"lat": 28.7530719, "lon": 77.1178059, "satellites": 9, "altitude_gps_m": 215.39999389648438, "groundspeed_mps": 0.5052186250686646}, "flight": {"mode": "STABILIZE", "armed": false}, "ekf": {"attitude": {"roll": 0.027934150770306587, "pitch": 0.024615902453660965, "yaw": 0.7264074087142944}, "local_position": {"x": 0.17499658465385437, "y": -7.1740922927856445, "z": -6.480112552642822}, "status": {"flags": 33599, "velocity_variance": 0.22513960301876068, "pos_horiz_variance": 0.014130684547126293, "pos_vert_variance": 0.05107319355010986}}, "errors": ["PreArm: Hardware safety switch", "PreArm: Hardware safety switch"]}
{"timestamp": "2025-12-28T10:11:22.867917Z", "telemetry": {"lat": 28.7530654, "lon": 77.1178074, "satellites": 9, "altitude_gps_m": 215.39999389648438, "groundspeed_mps": 0.5446917414665222}, "flight": {"mode": "STABILIZE", "armed": false}, "ekf": {"attitude": {"roll": 0.027756424620747566, "pitch": 0.025977125391364098, "yaw": 0.7267115116119385}, "local_position": {"x": -0.49947163462638855, "y": -6.8583984375, "z": -6.473818302154541}, "status": {"flags": 33599, "velocity_variance": 0.5299598574638367, "pos_horiz_variance": 0.01536989863961935, "pos_vert_variance": 0.03934648260474205}}, "errors": ["PreArm: Hardware safety switch", "PreArm: Hardware safety switch"]}
{"timestamp": "2025-12-28T10:11:23.869003Z", "telemetry": {"lat": 28.7530576, "lon": 77.1178097, "satellites": 9, "altitude_gps_m": 215.39999389648438, "groundspeed_mps": 0.5147343873977661}, "flight": {"mode": "STABILIZE", "armed": false}, "ekf": {"attitude": {"roll": 0.027123991400003433, "pitch": 0.02709943987429142, "yaw": 0.7268031239509583}, "local_position": {"x": -0.9666928052902222, "y": -6.800562381744385, "z": -6.4784040451049805}, "status": {"flags": 33599, "velocity_variance": 0.4509975016117096, "pos_horiz_variance": 0.025130093097686768, "pos_vert_variance": 0.0011428357101976871}}, "errors": ["PreArm: Hardware safety switch", "PreArm: Hardware safety switch"]}
{"timestamp": "2025-12-28T10:11:24.873083Z", "telemetry": {"lat": 28.7530561, "lon": 77.1178144, "satellites": 9, "altitude_gps_m": 215.42999267578125, "groundspeed_mps": 0.5553135275840759}, "flight": {"mode": "STABILIZE", "armed": false}, "ekf": {"attitude": {"roll": 0.02693753130733967, "pitch": 0.02632298320531845, "yaw": 0.7268738150596619}, "local_position": {"x": -1.4618788957595825, "y": -6.364448070526123, "z": -6.500485897064209}, "status": {"flags": 33599, "velocity_variance": 0.13234049081802368, "pos_horiz_variance": 0.019123440608382225, "pos_vert_variance": 0.0022242336999624968}}, "errors": ["PreArm: Hardware safety switch", "PreArm: Hardware safety switch"]}
{"timestamp": "2025-12-28T10:11:25.872954Z", "telemetry": {"lat": 28.7530525, "lon": 77.1178208, "satellites": 9, "altitude_gps_m": 215.44000244140625, "groundspeed_mps": 0.5851793885231018}, "flight": {"mode": "STABILIZE", "armed": false}, "ekf": {"attitude": {"roll": 0.02658504620194435, "pitch": 0.025774093344807625, "yaw": 0.7269979119300842}, "local_position": {"x": -1.820181131362915, "y": -5.792033672332764, "z": -6.518022537231445}, "status": {"flags": 33599, "velocity_variance": 0.29686883091926575, "pos_horiz_variance": 0.018713777884840965, "pos_vert_variance": 0.01581535115838051}}, "errors": ["PreArm: Hardware safety switch", "PreArm: Hardware safety switch"]}
{"timestamp": "2025-12-28T10:11:26.871316Z", "telemetry": {"lat": 28.753053, "lon": 77.1178259, "satellites": 9, "altitude_gps_m": 215.4499969482422, "groundspeed_mps": 0.601117730140686}, "flight": {"mode": "STABILIZE", "armed": false}, "ekf": {"attitude": {"roll": 0.026294922456145287, "pitch": 0.024952279403805733, "yaw": 0.7271046042442322}, "local_position": {"x": -2.0653679370880127, "y": -5.185152053833008, "z": -6.526586055755615}, "status": {"flags": 33599, "velocity_variance": 0.182196244597435, "pos_horiz_variance": 0.014032596722245216, "pos_vert_variance": 0.00046886029304005206}}, "errors": ["PreArm: Hardware safety switch", "PreArm: Hardware safety switch", "PreArm: Hardware safety switch"]}
{"timestamp": "2025-12-28T10:11:27.868003Z", "telemetry": {"lat": 28.7530502, "lon": 77.1178266, "satellites": 9, "altitude_gps_m": 215.5399932861328, "groundspeed_mps": 0.5548710227012634}, "flight": {"mode": "STABILIZE", "armed": false}, "ekf": {"attitude": {"roll": 0.02521660551428795, "pitch": 0.025681115686893463, "yaw": 0.7271965146064758}, "local_position": {"x": -2.392420768737793, "y": -4.9457831382751465, "z": -6.615260124206543}, "status": {"flags": 33599, "velocity_variance": 0.13332219421863556, "pos_horiz_variance": 0.010727718472480774, "pos_vert_variance": 0.06676295399665833}}, "errors": ["PreArm: Hardware safety switch", "PreArm: Hardware safety switch", "PreArm: Hardware safety switch"]}
{"timestamp": "2025-12-28T10:11:28.868575Z", "telemetry": {"lat": 28.7530459, "lon": 77.1178268, "satellites": 9, "altitude_gps_m": 215.55999755859375, "groundspeed_mps": 0.4688754677772522}, "flight": {"mode": "STABILIZE", "armed": false}, "ekf": {"attitude": {"roll": 0.0236839447170496, "pitch": 0.02703128010034561, "yaw": 0.7272952795028687}, "local_position": {"x": -2.720818042755127, "y": -4.892934322357178, "z": -6.630646228790283}, "status": {"flags": 33599, "velocity_variance": 0.410745233297348, "pos_horiz_variance": 0.012861743569374084, "pos_vert_variance": 0.0009745893767103553}}, "errors": ["PreArm: Hardware safety switch", "PreArm: Hardware safety switch", "PreArm: Hardware safety switch"]}
{"timestamp": "2025-12-28T10:11:29.868120Z", "telemetry": {"lat": 28.7530365, "lon": 77.117834, "satellites": 9, "altitude_gps_m": 215.52999877929688, "groundspeed_mps": 0.5524871349334717}, "flight": {"mode": "STABILIZE", "armed": false}, "ekf": {"attitude": {"roll": 0.024543754756450653, "pitch": 0.027982331812381744, "yaw": 0.7274856567382812}, "local_position": {"x": -3.6090877056121826, "y": -4.58627986907959, "z": -6.604087829589844}, "status": {"flags": 33599, "velocity_variance": 0.10970677435398102, "pos_horiz_variance": 0.019784126430749893, "pos_vert_variance": 0.055959559977054596}}, "errors": ["PreArm: Hardware safety switch", "PreArm: Hardware safety switch", "PreArm: Hardware safety switch"]}
{"timestamp": "2025-12-28T10:11:30.867924Z", "telemetry": {"lat": 28.7530342, "lon": 77.1178356, "satellites": 9, "altitude_gps_m": 215.52999877929688, "groundspeed_mps": 0.4990312457084656}, "flight": {"mode": "STABILIZE", "armed": false}, "ekf": {"attitude": {"roll": 0.023176424205303192, "pitch": 0.02820613980293274, "yaw": 0.7273562550544739}, "local_position": {"x": -3.9686381816864014, "y": -4.344989776611328, "z": -6.608119487762451}, "status": {"flags": 33599, "velocity_variance": 0.21217384934425354, "pos_horiz_variance": 0.017103271558880806, "pos_vert_variance": 0.04247169569134712}}, "errors": ["PreArm: Hardware safety switch", "PreArm: Hardware safety switch", "PreArm: Hardware safety switch"]}
{"timestamp": "2025-12-28T10:11:31.867802Z", "telemetry": {"lat": 28.7530258, "lon": 77.1178416, "satellites": 9, "altitude_gps_m": 215.47999572753906, "groundspeed_mps": 0.5240486264228821}, "flight": {"mode": "STABILIZE", "armed": false}, "ekf": {"attitude": {"roll": 0.023097466677427292, "pitch": 0.028705671429634094, "yaw": 0.7274142503738403}, "local_position": {"x": -4.6224565505981445, "y": -4.052896022796631, "z": -6.557751178741455}, "status": {"flags": 33599, "velocity_variance": 0.39663299918174744, "pos_horiz_variance": 0.023768285289406776, "pos_vert_variance": 0.018024040386080742}}, "errors": ["PreArm: Hardware safety switch", "PreArm: Hardware safety switch", "PreArm: Hardware safety switch"]}
{"timestamp": "2025-12-28T10:11:32.868212Z", "telemetry": {"lat": 28.7530232, "lon": 77.1178431, "satellites": 9, "altitude_gps_m": 215.52999877929688, "groundspeed_mps": 0.5136929750442505}, "flight": {"mode": "STABILIZE", "armed": false}, "ekf": {"attitude": {"roll": 0.022658463567495346, "pitch": 0.028906196355819702, "yaw": 0.7273545861244202}, "local_position": {"x": -5.168390274047852, "y": -3.78147554397583, "z": -6.607357978820801}, "status": {"flags": 33599, "velocity_variance": 0.26999831199645996, "pos_horiz_variance": 0.02043263614177704, "pos_vert_variance": 0.005822625011205673}}, "errors": ["PreArm: Hardware safety switch", "PreArm: Hardware safety switch", "PreArm: Hardware safety switch"]}
{"timestamp": "2025-12-28T10:11:33.868046Z", "telemetry": {"lat": 28.7530167, "lon": 77.1178497, "satellites": 10, "altitude_gps_m": 215.47000122070312, "groundspeed_mps": 0.4550659954547882}, "flight": {"mode": "STABILIZE", "armed": false}, "ekf": {"attitude": {"roll": 0.02091910131275654, "pitch": 0.029063962399959564, "yaw": 0.727397084236145}, "local_position": {"x": -5.6317877769470215, "y": -3.7417571544647217, "z": -6.54386568069458}, "status": {"flags": 33599, "velocity_variance": 0.24819743633270264, "pos_horiz_variance": 0.03229261562228203, "pos_vert_variance": 0.024588562548160553}}, "errors": ["PreArm: Hardware safety switch", "PreArm: Hardware safety switch", "PreArm: Hardware safety switch"]}
{"timestamp": "2025-12-28T10:11:34.868337Z", "telemetry": {"lat": 28.7530117, "lon": 77.1178578, "satellites": 10, "altitude_gps_m": 215.489990234375, "groundspeed_mps": 0.361706405878067}, "flight": {"mode": "STABILIZE", "armed": false}, "ekf": {"attitude": {"roll": 0.019822752103209496, "pitch": 0.02843785099685192, "yaw": 0.7271607518196106}, "local_position": {"x": -5.889173984527588, "y": -3.3601646423339844, "z": -6.569854259490967}, "status": {"flags": 33599, "velocity_variance": 0.1538010835647583, "pos_horiz_variance": 0.042517926543951035, "pos_vert_variance": 0.06781266629695892}}, "errors": ["PreArm: Hardware safety switch", "PreArm: Hardware safety switch", "PreArm: Hardware safety switch"]}
{"timestamp": "2025-12-28T10:11:35.873191Z", "telemetry": {"lat": 28.7530039, "lon": 77.1178657, "satellites": 10, "altitude_gps_m": 215.55999755859375, "groundspeed_mps": 0.4290110468864441}, "flight": {"mode": "STABILIZE", "armed": false}, "ekf": {"attitude": {"roll": 0.020763320848345757, "pitch": 0.028666581958532333, "yaw": 0.7271199822425842}, "local_position": {"x": -6.656235694885254, "y": -2.781223773956299, "z": -6.636517524719238}, "status": {"flags": 33599, "velocity_variance": 0.16897143423557281, "pos_horiz_variance": 0.047681715339422226, "pos_vert_variance": 0.04381599277257919}}, "errors": ["PreArm: Hardware safety switch", "PreArm: Hardware safety switch", "PreArm: Hardware safety switch"]}
{"timestamp": "2025-12-28T10:11:36.873488Z", "telemetry": {"lat": 28.7529999, "lon": 77.1178698, "satellites": 10, "altitude_gps_m": 215.47000122070312, "groundspeed_mps": 0.40025410056114197}, "flight": {"mode": "STABILIZE", "armed": false}, "ekf": {"attitude": {"roll": 0.020220737904310226, "pitch": 0.028460582718253136, "yaw": 0.7271217703819275}, "local_position": {"x": -7.1556830406188965, "y": -2.2969233989715576, "z": -6.54483699798584}, "status": {"flags": 33599, "velocity_variance": 0.10944527387619019, "pos_horiz_variance": 0.047307420521974564, "pos_vert_variance": 0.0984986200928688}}, "errors": ["PreArm: Hardware safety switch", "PreArm: Hardware safety switch", "PreArm: Hardware safety switch"]}
{"timestamp": "2025-12-28T10:11:37.868268Z", "telemetry": {"lat": 28.7529992, "lon": 77.117873, "satellites": 10, "altitude_gps_m": 215.47000122070312, "groundspeed_mps": 0.36637115478515625}, "flight": {"mode": "STABILIZE", "armed": false}, "ekf": {"attitude": {"roll": 0.019398462027311325, "pitch": 0.027623586356639862, "yaw": 0.7270867824554443}, "local_position": {"x": -7.597955703735352, "y": -1.7557740211486816, "z": -6.545022487640381}, "status": {"flags": 33599, "velocity_variance": 0.2766227722167969, "pos_horiz_variance": 0.03918999060988426, "pos_vert_variance": 0.076815165579319}}, "errors": ["PreArm: Hardware safety switch", "PreArm: Hardware safety switch", "PreArm: Hardware safety switch"]}
{"timestamp": "2025-12-28T10:11:38.868190Z", "telemetry": {"lat": 28.7529986, "lon": 77.1178765, "satellites": 10, "altitude_gps_m": 215.54998779296875, "groundspeed_mps": 0.29162508249282837}, "flight": {"mode": "STABILIZE", "armed": false}, "ekf": {"attitude": {"roll": 0.018703391775488853, "pitch": 0.02682800404727459, "yaw": 0.7268012166023254}, "local_position": {"x": -7.84998893737793, "y": -1.349477767944336, "z": -6.628208160400391}, "status": {"flags": 33599, "velocity_variance": 0.38393574953079224, "pos_horiz_variance": 0.0384165458381176, "pos_vert_variance": 0.016272326931357384}}, "errors": ["PreArm: Hardware safety switch", "PreArm: Hardware safety switch", "PreArm: Hardware safety switch"]}
{"timestamp": "2025-12-28T10:11:39.869387Z", "telemetry": {"lat": 28.7529935, "lon": 77.1178857, "satellites": 10, "altitude_gps_m": 215.6599884033203, "groundspeed_mps": 0.4193771183490753}, "flight": {"mode": "STABILIZE", "armed": false}, "ekf": {"attitude": {"roll": 0.020832346752285957, "pitch": 0.026263978332281113, "yaw": 0.726668119430542}, "local_position": {"x": -8.434126853942871, "y": -0.41482192277908325, "z": -6.732909202575684}, "status": {"flags": 33599, "velocity_variance": 0.24787767231464386, "pos_horiz_variance": 0.03783789649605751, "pos_vert_variance": 0.040147747844457626}}, "errors": ["PreArm: Hardware safety switch", "PreArm: Hardware safety switch", "PreArm: Hardware safety switch"]}
{"timestamp": "2025-12-28T10:11:40.869173Z", "telemetry": {"lat": 28.7529892, "lon": 77.1178906, "satellites": 10, "altitude_gps_m": 215.6699981689453, "groundspeed_mps": 0.45938214659690857}, "flight": {"mode": "STABILIZE", "armed": false}, "ekf": {"attitude": {"roll": 0.020707538351416588, "pitch": 0.026079190894961357, "yaw": 0.7266570925712585}, "local_position": {"x": -8.939000129699707, "y": 0.2697717547416687, "z": -6.745179653167725}, "status": {"flags": 33599, "velocity_variance": 0.10818106681108475, "pos_horiz_variance": 0.03485468402504921, "pos_vert_variance": 0.0022825493942946196}}, "errors": ["PreArm: Hardware safety switch", "PreArm: Hardware safety switch", "PreArm: Hardware safety switch"]}
{"timestamp": "2025-12-28T10:11:41.868487Z", "telemetry": {"lat": 28.752989, "lon": 77.1178949, "satellites": 10, "altitude_gps_m": 215.8199920654297, "groundspeed_mps": 0.4407010078430176}, "flight": {"mode": "STABILIZE", "armed": false}, "ekf": {"attitude": {"roll": 0.0201927050948143, "pitch": 0.02524041198194027, "yaw": 0.7267076969146729}, "local_position": {"x": -9.19101619720459, "y": 0.8852480053901672, "z": -6.895612716674805}, "status": {"flags": 33599, "velocity_variance": 0.23142649233341217, "pos_horiz_variance": 0.028255553916096687, "pos_vert_variance": 0.05480464920401573}}, "errors": ["PreArm: Hardware safety switch", "PreArm: Hardware safety switch", "PreArm: Hardware safety switch"]}
{"timestamp": "2025-12-28T10:11:42.868370Z", "telemetry": {"lat": 28.7529888, "lon": 77.1178949, "satellites": 10, "altitude_gps_m": 215.8699951171875, "groundspeed_mps": 0.328702449798584}, "flight": {"mode": "STABILIZE", "armed": false}, "ekf": {"attitude": {"roll": 0.018917033448815346, "pitch": 0.025601910427212715, "yaw": 0.7266203165054321}, "local_position": {"x": -9.287271499633789, "y": 1.1304306983947754, "z": -6.94329833984375}, "status": {"flags": 33599, "velocity_variance": 0.2663370370864868, "pos_horiz_variance": 0.02243388071656227, "pos_vert_variance": 0.0070342510007321835}}, "errors": ["PreArm: Hardware safety switch", "PreArm: Hardware safety switch", "PreArm: Hardware safety switch"]}
{"timestamp": "2025-12-28T10:11:43.868227Z", "telemetry": {"lat": 28.752996, "lon": 77.1178941, "satellites": 11, "altitude_gps_m": 215.8300018310547, "groundspeed_mps": 0.27670523524284363}, "flight": {"mode": "STABILIZE", "armed": false}, "ekf": {"attitude": {"roll": 0.01793164573609829, "pitch": 0.024744262918829918, "yaw": 0.7263661026954651}, "local_position": {"x": -9.315725326538086, "y": 1.4037214517593384, "z": -6.928770542144775}, "status": {"flags": 33599, "velocity_variance": 0.2194075733423233, "pos_horiz_variance": 0.014186345972120762, "pos_vert_variance": 0.0672513097524643}}, "errors": ["PreArm: Hardware safety switch", "PreArm: Hardware safety switch", "PreArm: Hardware safety switch"]}
{"timestamp": "2025-12-28T10:11:44.868445Z", "telemetry": {"lat": 28.7530085, "lon": 77.1178879, "satellites": 11, "altitude_gps_m": 215.7899932861328, "groundspeed_mps": 0.18026967346668243}, "flight": {"mode": "STABILIZE", "armed": false}, "ekf": {"attitude": {"roll": 0.01598413661122322, "pitch": 0.02519047260284424, "yaw": 0.7261437177658081}, "local_position": {"x": -8.809207916259766, "y": 1.4119970798492432, "z": -6.862826347351074}, "status": {"flags": 33599, "velocity_variance": 0.12623129785060883, "pos_horiz_variance": 0.030868932604789734, "pos_vert_variance": 0.014004304073750973}}, "errors": ["PreArm: Hardware safety switch", "PreArm: Hardware safety switch", "PreArm: Hardware safety switch"]}
{"timestamp": "2025-12-28T10:11:45.868035Z", "telemetry": {"lat": 28.7530136, "lon": 77.117881, "satellites": 11, "altitude_gps_m": 215.7899932861328, "groundspeed_mps": 0.08579200506210327}, "flight": {"mode": "STABILIZE", "armed": false}, "ekf": {"attitude": {"roll": 0.015835512429475784, "pitch": 0.027050672098994255, "yaw": 0.7258608937263489}, "local_position": {"x": -8.717743873596191, "y": 1.1272433996200562, "z": -6.867076396942139}, "status": {"flags": 33599, "velocity_variance": 0.13511450588703156, "pos_horiz_variance": 0.044697389006614685, "pos_vert_variance": 0.01426365040242672}}, "errors": ["PreArm: Hardware safety switch", "PreArm: Hardware safety switch", "PreArm: Hardware safety switch"]}
