{"timestamp": "2026-01-15T13:16:58.784884Z", "telemetry": {"lat": 28.7530757, "lon": 77.1179382, "satellites": 7, "altitude_gps_m": 211.6999969482422, "groundspeed_mps": 0.22431139647960663}, "flight": {"mode": "STABILIZE", "armed": false}, "ekf": {"attitude": {"roll": 0.04535995423793793, "pitch": -0.0035804654471576214, "yaw": -1.9159125089645386}, "local_position": {"x": -1.9443937540054321, "y": 5.582509517669678, "z": 0.5617210268974304}, "status": {"flags": 831, "velocity_variance": 0.0836978405714035, "pos_horiz_variance": 0.013806695118546486, "pos_vert_variance": 0.022688519209623337}}, "errors": []}
{"timestamp": "2026-01-15T13:16:59.854991Z", "telemetry": {"lat": 28.7530735, "lon": 77.1179397, "satellites": 7, "altitude_gps_m": 211.39999389648438, "groundspeed_mps": 0.2092680186033249}, "flight": {"mode": "STABILIZE", "armed": false}, "ekf": {"attitude": {"roll": 0.044936031103134155, "pitch": -0.0036998088471591473, "yaw": -1.915674090385437}, "local_position": {"x": -1.7837631702423096, "y": 5.246937274932861, "z": 0.9287617802619934}, "status": {"flags": 831, "velocity_variance": 0.06109289452433586, "pos_horiz_variance": 0.000988793675787747, "pos_vert_variance": 0.003338778857141733}}, "errors": []}
{"timestamp": "2026-01-15T13:17:00.884219Z", "telemetry": {"lat": 28.7530716, "lon": 77.1179433, "satellites": 7, "altitude_gps_m": 211.14999389648438, "groundspeed_mps": 0.13359573483467102}, "flight": {"mode": "STABILIZE", "armed": false}, "ekf": {"attitude": {"roll": 0.04462530463933945, "pitch": -0.00263707572594285, "yaw": -1.9154211282730103}, "local_position": {"x": -1.7131654024124146, "y": 5.183290481567383, "z": 1.1756774187088013}, "status": {"flags": 831, "velocity_variance": 0.09938773512840271, "pos_horiz_variance": 0.011849619448184967, "pos_vert_variance": 0.012964415363967419}}, "errors": []}
{"timestamp": "2026-01-15T13:17:01.954028Z", "telemetry": {"lat": 28.7530706, "lon": 77.1179449, "satellites": 8, "altitude_gps_m": 210.97999572753906, "groundspeed_mps": 0.06367720663547516}, "flight": {"mode": "STABILIZE", "armed": false}, "ekf": {"attitude": {"roll": 0.04435722157359123, "pitch": -0.0022221351973712444, "yaw": -1.9153443574905396}, "local_position": {"x": -1.713788628578186, "y": 5.209023952484131, "z": 1.3507484197616577}, "status": {"flags": 831, "velocity_variance": 0.08191933482885361, "pos_horiz_variance": 0.01650065928697586, "pos_vert_variance": 0.022540250793099403}}, "errors": []}
{"timestamp": "2026-01-15T13:17:02.991669Z", "telemetry": {"lat": 28.7530677, "lon": 77.11795, "satellites": 8, "altitude_gps_m": 210.9199981689453, "groundspeed_mps": 0.007956242188811302}, "flight": {"mode": "STABILIZE", "armed": false}, "ekf": {"attitude": {"roll": 0.04430679231882095, "pitch": -0.0015758746303617954, "yaw": -1.9151862859725952}, "local_position": {"x": -1.767496109008789, "y": 5.3069071769714355, "z": 1.4043405055999756}, "status": {"flags": 831, "velocity_variance": 0.09245016425848007, "pos_horiz_variance": 0.02806413732469082, "pos_vert_variance": 0.044377606362104416}}, "errors": []}
{"timestamp": "2026-01-15T13:17:04.015745Z", "telemetry": {"lat": 28.7530666, "lon": 77.1179524, "satellites": 8, "altitude_gps_m": 210.9199981689453, "groundspeed_mps": 0.10061288625001907}, "flight": {"mode": "STABILIZE", "armed": false}, "ekf": {"attitude": {"roll": 0.043856021016836166, "pitch": -0.0009979880414903164, "yaw": -1.915167212486267}, "local_position": {"x": -1.8852955102920532, "y": 5.549520969390869, "z": 1.4063363075256348}, "status": {"flags": 831, "velocity_variance": 0.05822960287332535, "pos_horiz_variance": 0.02880323864519596, "pos_vert_variance": 0.04554400220513344}}, "errors": []}
{"timestamp": "2026-01-15T13:17:05.019621Z", "telemetry": {"lat": 28.7530657, "lon": 77.1179525, "satellites": 8, "altitude_gps_m": 210.97000122070312, "groundspeed_mps": 0.14003439247608185}, "flight": {"mode": "STABILIZE", "armed": false}, "ekf": {"attitude": {"roll": 0.04386793076992035, "pitch": -0.001536460593342781, "yaw": -1.9150537252426147}, "local_position": {"x": -2.0616536140441895, "y": 5.652451038360596, "z": 1.3578708171844482}, "status": {"flags": 831, "velocity_variance": 0.05425913259387016, "pos_horiz_variance": 0.026382235810160637, "pos_vert_variance": 0.04580854997038841}}, "errors": []}
{"timestamp": "2026-01-15T13:17:06.003816Z", "telemetry": {"lat": 28.7530665, "lon": 77.1179511, "satellites": 8, "altitude_gps_m": 211.05999755859375, "groundspeed_mps": 0.13049878180027008}, "flight": {"mode": "STABILIZE", "armed": false}, "ekf": {"attitude": {"roll": 0.04446011781692505, "pitch": -0.0021688714623451233, "yaw": -1.9149107933044434}, "local_position": {"x": -2.1331207752227783, "y": 5.666250228881836, "z": 1.2664505243301392}, "status": {"flags": 831, "velocity_variance": 0.12117191404104233, "pos_horiz_variance": 0.020887168124318123, "pos_vert_variance": 0.04253019765019417}}, "errors": []}
{"timestamp": "2026-01-15T13:17:07.002930Z", "telemetry": {"lat": 28.7530677, "lon": 77.1179492, "satellites": 7, "altitude_gps_m": 211.05999755859375, "groundspeed_mps": 0.09813802689313889}, "flight": {"mode": "STABILIZE", "armed": false}, "ekf": {"attitude": {"roll": 0.0453924834728241, "pitch": -0.002904574852436781, "yaw": -1.9148272275924683}, "local_position": {"x": -2.144876718521118, "y": 5.614274978637695, "z": 1.2642556428909302}, "status": {"flags": 831, "velocity_variance": 0.11711382865905762, "pos_horiz_variance": 0.016150707378983498, "pos_vert_variance": 0.03363995626568794}}, "errors": []}
{"timestamp": "2026-01-15T13:17:08.003117Z", "telemetry": {"lat": 28.7530672, "lon": 77.1179505, "satellites": 7, "altitude_gps_m": 211.0800018310547, "groundspeed_mps": 0.07401514053344727}, "flight": {"mode": "STABILIZE", "armed": false}, "ekf": {"attitude": {"roll": 0.04622755944728851, "pitch": -0.0033171414397656918, "yaw": -1.9146534204483032}, "local_position": {"x": -2.177381992340088, "y": 5.582584381103516, "z": 1.250900149345398}, "status": {"flags": 831, "velocity_variance": 0.09937932342290878, "pos_horiz_variance": 0.01928996667265892, "pos_vert_variance": 0.03460416570305824}}, "errors": []}
{"timestamp": "2026-01-15T13:17:08.980323Z", "telemetry": {"lat": 28.7530642, "lon": 77.1179545, "satellites": 7, "altitude_gps_m": 211.14999389648438, "groundspeed_mps": 0.05754335597157478}, "flight": {"mode": "STABILIZE", "armed": false}, "ekf": {"attitude": {"roll": 0.04661809653043747, "pitch": -0.0038450383581221104, "yaw": -1.9147173166275024}, "local_position": {"x": -2.226923704147339, "y": 5.591698169708252, "z": 1.1771125793457031}, "status": {"flags": 831, "velocity_variance": 0.10580629110336304, "pos_horiz_variance": 0.029811019077897072, "pos_vert_variance": 0.04813891276717186}}, "errors": []}
{"timestamp": "2026-01-15T13:17:09.975873Z", "telemetry": {"lat": 28.7530653, "lon": 77.1179539, "satellites": 7, "altitude_gps_m": 211.25, "groundspeed_mps": 0.05068512260913849}, "flight": {"mode": "STABILIZE", "armed": false}, "ekf": {"attitude": {"roll": 0.047144073992967606, "pitch": -0.003633399959653616, "yaw": -1.914702296257019}, "local_position": {"x": -2.245572566986084, "y": 5.725333213806152, "z": 1.0788826942443848}, "status": {"flags": 831, "velocity_variance": 0.030787182971835136, "pos_horiz_variance": 0.02502250298857689, "pos_vert_variance": 0.0373050794005394}}, "errors": []}
{"timestamp": "2026-01-15T13:17:10.983197Z", "telemetry": {"lat": 28.7530648, "lon": 77.1179546, "satellites": 7, "altitude_gps_m": 211.33999633789062, "groundspeed_mps": 0.0743408054113388}, "flight": {"mode": "STABILIZE", "armed": false}, "ekf": {"attitude": {"roll": 0.0470292903482914, "pitch": -0.0038069686852395535, "yaw": -1.9146873950958252}, "local_position": {"x": -2.348978042602539, "y": 5.873159885406494, "z": 0.987715482711792}, "status": {"flags": 831, "velocity_variance": 0.021173352375626564, "pos_horiz_variance": 0.022979099303483963, "pos_vert_variance": 0.03243187814950943}}, "errors": []}
{"timestamp": "2026-01-15T13:17:11.981566Z", "telemetry": {"lat": 28.7530658, "lon": 77.1179534, "satellites": 7, "altitude_gps_m": 211.36000061035156, "groundspeed_mps": 0.08461792767047882}, "flight": {"mode": "STABILIZE", "armed": false}, "ekf": {"attitude": {"roll": 0.04763270169496536, "pitch": -0.004048425238579512, "yaw": -1.914681315422058}, "local_position": {"x": -2.387570381164551, "y": 6.028128623962402, "z": 0.9604849815368652}, "status": {"flags": 831, "velocity_variance": 0.13979317247867584, "pos_horiz_variance": 0.01588871330022812, "pos_vert_variance": 0.02080097608268261}}, "errors": []}
{"timestamp": "2026-01-15T13:17:13.012902Z", "telemetry": {"lat": 28.7530658, "lon": 77.1179537, "satellites": 7, "altitude_gps_m": 211.37998962402344, "groundspeed_mps": 0.04596957936882973}, "flight": {"mode": "STABILIZE", "armed": false}, "ekf": {"attitude": {"roll": 0.04795309156179428, "pitch": -0.004522754345089197, "yaw": -1.9146538972854614}, "local_position": {"x": -2.3523075580596924, "y": 6.026395797729492, "z": 0.9474308490753174}, "status": {"flags": 831, "velocity_variance": 0.04567096382379532, "pos_horiz_variance": 0.016919635236263275, "pos_vert_variance": 0.01957901008427143}}, "errors": []}
{"timestamp": "2026-01-15T13:17:14.011745Z", "telemetry": {"lat": 28.7530655, "lon": 77.1179546, "satellites": 7, "altitude_gps_m": 211.38999938964844, "groundspeed_mps": 0.05560879036784172}, "flight": {"mode": "STABILIZE", "armed": false}, "ekf": {"attitude": {"roll": 0.0478382334113121, "pitch": -0.004556420724838972, "yaw": -1.9146469831466675}, "local_position": {"x": -2.411855936050415, "y": 6.138845920562744, "z": 0.9298574924468994}, "status": {"flags": 831, "velocity_variance": 0.08119715005159378, "pos_horiz_variance": 0.015483809635043144, "pos_vert_variance": 0.0137826232239604}}, "errors": []}
{"timestamp": "2026-01-15T13:17:15.011484Z", "telemetry": {"lat": 28.7530634, "lon": 77.1179572, "satellites": 7, "altitude_gps_m": 211.47999572753906, "groundspeed_mps": 0.07856103032827377}, "flight": {"mode": "STABILIZE", "armed": false}, "ekf": {"attitude": {"roll": 0.04746942222118378, "pitch": -0.004895998630672693, "yaw": -1.9144665002822876}, "local_position": {"x": -2.581798791885376, "y": 6.258335113525391, "z": 0.8483970761299133}, "status": {"flags": 831, "velocity_variance": 0.06082426384091377, "pos_horiz_variance": 0.019040744751691818, "pos_vert_variance": 0.0172666497528553}}, "errors": []}
{"timestamp": "2026-01-15T13:17:15.985520Z", "telemetry": {"lat": 28.7530633, "lon": 77.117958, "satellites": 7, "altitude_gps_m": 211.54998779296875, "groundspeed_mps": 0.08362697064876556}, "flight": {"mode": "STABILIZE", "armed": false}, "ekf": {"attitude": {"roll": 0.047714393585920334, "pitch": -0.005070000421255827, "yaw": -1.9144442081451416}, "local_position": {"x": -2.687723398208618, "y": 6.36432409286499, "z": 0.7789088487625122}, "status": {"flags": 831, "velocity_variance": 0.07959390431642532, "pos_horiz_variance": 0.01782286912202835, "pos_vert_variance": 0.014595700427889824}}, "errors": []}
{"timestamp": "2026-01-15T13:17:16.982668Z", "telemetry": {"lat": 28.7530647, "lon": 77.1179572, "satellites": 7, "altitude_gps_m": 211.59999084472656, "groundspeed_mps": 0.04663700982928276}, "flight": {"mode": "STABILIZE", "armed": false}, "ekf": {"attitude": {"roll": 0.048486415296792984, "pitch": -0.005240749102085829, "yaw": -1.9143530130386353}, "local_position": {"x": -2.6544411182403564, "y": 6.420865535736084, "z": 0.7289350032806396}, "status": {"flags": 831, "velocity_variance": 0.05795006453990936, "pos_horiz_variance": 0.013971257023513317, "pos_vert_variance": 0.006687405984848738}}, "errors": []}
{"timestamp": "2026-01-15T13:17:17.990631Z", "telemetry": {"lat": 28.753065, "lon": 77.1179587, "satellites": 7, "altitude_gps_m": 211.61000061035156, "groundspeed_mps": 0.05215589702129364}, "flight": {"mode": "STABILIZE", "armed": false}, "ekf": {"attitude": {"roll": 0.04860030114650726, "pitch": -0.004886689130216837, "yaw": -1.9143041372299194}, "local_position": {"x": -2.668166160583496, "y": 6.560565948486328, "z": 0.7131714820861816}, "status": {"flags": 831, "velocity_variance": 0.02163836918771267, "pos_horiz_variance": 0.013946574181318283, "pos_vert_variance": 0.0067514050751924515}}, "errors": []}
{"timestamp": "2026-01-15T13:17:18.990081Z", "telemetry": {"lat": 28.7530662, "lon": 77.1179585, "satellites": 7, "altitude_gps_m": 211.61000061035156, "groundspeed_mps": 0.057944539934396744}, "flight": {"mode": "STABILIZE", "armed": false}, "ekf": {"attitude": {"roll": 0.04882682487368584, "pitch": -0.0048745437525212765, "yaw": -1.9142723083496094}, "local_position": {"x": -2.6493642330169678, "y": 6.686403274536133, "z": 0.7123979926109314}, "status": {"flags": 831, "velocity_variance": 0.08762219548225403, "pos_horiz_variance": 0.010772067122161388, "pos_vert_variance": 0.0017566559836268425}}, "errors": []}
{"timestamp": "2026-01-15T13:17:19.991479Z", "telemetry": {"lat": 28.7530669, "lon": 77.1179583, "satellites": 7, "altitude_gps_m": 211.5699920654297, "groundspeed_mps": 0.05414270982146263}, "flight": {"mode": "STABILIZE", "armed": false}, "ekf": {"attitude": {"roll": 0.04927268996834755, "pitch": -0.0050788032822310925, "yaw": -1.9142142534255981}, "local_position": {"x": -2.539438009262085, "y": 6.719371795654297, "z": 0.7519053220748901}, "status": {"flags": 831, "velocity_variance": 0.008417452685534954, "pos_horiz_variance": 0.009778480976819992, "pos_vert_variance": 1.5223081391013693e-06}}, "errors": []}
{"timestamp": "2026-01-15T13:17:20.992798Z", "telemetry": {"lat": 28.7530638, "lon": 77.1179623, "satellites": 7, "altitude_gps_m": 211.55999755859375, "groundspeed_mps": 0.03609704598784447}, "flight": {"mode": "STABILIZE", "armed": false}, "ekf": {"attitude": {"roll": 0.048896558582782745, "pitch": -0.005180375184863806, "yaw": -1.9142590761184692}, "local_position": {"x": -2.5804150104522705, "y": 6.780266284942627, "z": 0.7631296515464783}, "status": {"flags": 831, "velocity_variance": 0.03250107541680336, "pos_horiz_variance": 0.0175827294588089, "pos_vert_variance": 0.012546663172543049}}, "errors": []}
{"timestamp": "2026-01-15T13:17:22.019743Z", "telemetry": {"lat": 28.7530615, "lon": 77.1179645, "satellites": 7, "altitude_gps_m": 211.64999389648438, "groundspeed_mps": 0.03809605911374092}, "flight": {"mode": "STABILIZE", "armed": false}, "ekf": {"attitude": {"roll": 0.04892859235405922, "pitch": -0.005348560865968466, "yaw": -1.9141900539398193}, "local_position": {"x": -2.675562858581543, "y": 6.917813777923584, "z": 0.6695937514305115}, "status": {"flags": 831, "velocity_variance": 0.04363889619708061, "pos_horiz_variance": 0.020948173478245735, "pos_vert_variance": 0.019029902294278145}}, "errors": []}
{"timestamp": "2026-01-15T13:17:22.994193Z", "telemetry": {"lat": 28.7530593, "lon": 77.1179668, "satellites": 7, "altitude_gps_m": 211.79998779296875, "groundspeed_mps": 0.06997071951627731}, "flight": {"mode": "STABILIZE", "armed": false}, "ekf": {"attitude": {"roll": 0.04846339672803879, "pitch": -0.005095113534480333, "yaw": -1.9141794443130493}, "local_position": {"x": -2.8452537059783936, "y": 7.134542942047119, "z": 0.518609881401062}, "status": {"flags": 831, "velocity_variance": 0.009705794975161552, "pos_horiz_variance": 0.022066522389650345, "pos_vert_variance": 0.021804479882121086}}, "errors": []}
{"timestamp": "2026-01-15T13:17:23.991325Z", "telemetry": {"lat": 28.753059, "lon": 77.1179667, "satellites": 7, "altitude_gps_m": 211.97000122070312, "groundspeed_mps": 0.08228137344121933}, "flight": {"mode": "STABILIZE", "armed": false}, "ekf": {"attitude": {"roll": 0.048422835767269135, "pitch": -0.005168607924133539, "yaw": -1.9141085147857666}, "local_position": {"x": -2.9868624210357666, "y": 7.2951836585998535, "z": 0.35691702365875244}, "status": {"flags": 831, "velocity_variance": 0.054413091391325, "pos_horiz_variance": 0.017991701140999794, "pos_vert_variance": 0.018365252763032913}}, "errors": []}
{"timestamp": "2026-01-15T13:17:24.988032Z", "telemetry": {"lat": 28.7530595, "lon": 77.1179658, "satellites": 7, "altitude_gps_m": 212.09999084472656, "groundspeed_mps": 0.06295350939035416}, "flight": {"mode": "STABILIZE", "armed": false}, "ekf": {"attitude": {"roll": 0.04879310727119446, "pitch": -0.005200931336730719, "yaw": -1.9139798879623413}, "local_position": {"x": -2.981600046157837, "y": 7.388277053833008, "z": 0.22300556302070618}, "status": {"flags": 831, "velocity_variance": 0.06884142011404037, "pos_horiz_variance": 0.01343539822846651, "pos_vert_variance": 0.013005618937313557}}, "errors": ["PreArm: Hardware safety switch"]}
{"timestamp": "2026-01-15T13:17:25.992889Z", "telemetry": {"lat": 28.7530606, "lon": 77.1179641, "satellites": 7, "altitude_gps_m": 212.17999267578125, "groundspeed_mps": 0.039028577506542206}, "flight": {"mode": "STABILIZE", "armed": false}, "ekf": {"attitude": {"roll": 0.04949759691953659, "pitch": -0.005656630266457796, "yaw": -1.913906216621399}, "local_position": {"x": -2.9359161853790283, "y": 7.3907856941223145, "z": 0.14437223970890045}, "status": {"flags": 831, "velocity_variance": 0.11530434340238571, "pos_horiz_variance": 0.009450223296880722, "pos_vert_variance": 0.0054360548965632915}}, "errors": ["PreArm: Hardware safety switch"]}
{"timestamp": "2026-01-15T13:17:26.997567Z", "telemetry": {"lat": 28.7530616, "lon": 77.1179616, "satellites": 8, "altitude_gps_m": 212.22000122070312, "groundspeed_mps": 0.029665304347872734}, "flight": {"mode": "STABILIZE", "armed": false}, "ekf": {"attitude": {"roll": 0.049286432564258575, "pitch": -0.005697502288967371, "yaw": -1.9140925407409668}, "local_position": {"x": -2.999445915222168, "y": 7.440715312957764, "z": 0.1089370846748352}, "status": {"flags": 831, "velocity_variance": 0.05861315503716469, "pos_horiz_variance": 0.0021564040798693895, "pos_vert_variance": 0.01289360597729683}}, "errors": ["PreArm: Hardware safety switch"]}
{"timestamp": "2026-01-15T13:17:27.991536Z", "telemetry": {"lat": 28.7530642, "lon": 77.1179576, "satellites": 7, "altitude_gps_m": 212.1199951171875, "groundspeed_mps": 0.07354435324668884}, "flight": {"mode": "STABILIZE", "armed": false}, "ekf": {"attitude": {"roll": 0.05028287321329117, "pitch": -0.0058920797891914845, "yaw": -1.9140489101409912}, "local_position": {"x": -2.8423209190368652, "y": 7.401478290557861, "z": 0.20357751846313477}, "status": {"flags": 831, "velocity_variance": 0.12008026242256165, "pos_horiz_variance": 0.007866084575653076, "pos_vert_variance": 0.03324398398399353}}, "errors": ["PreArm: Hardware safety switch"]}
{"timestamp": "2026-01-15T13:17:28.991986Z", "telemetry": {"lat": 28.7530648, "lon": 77.1179568, "satellites": 7, "altitude_gps_m": 211.7899932861328, "groundspeed_mps": 0.1404540240764618}, "flight": {"mode": "STABILIZE", "armed": false}, "ekf": {"attitude": {"roll": 0.05109260603785515, "pitch": -0.005981727037578821, "yaw": -1.9140498638153076}, "local_position": {"x": -2.6864333152770996, "y": 7.253059387207031, "z": 0.456359326839447}, "status": {"flags": 831, "velocity_variance": 0.12088536471128464, "pos_horiz_variance": 0.006334907375276089, "pos_vert_variance": 0.03884878382086754}}, "errors": ["PreArm: Hardware safety switch"]}
{"timestamp": "2026-01-15T13:17:29.991864Z", "telemetry": {"lat": 28.7530673, "lon": 77.1179553, "satellites": 7, "altitude_gps_m": 211.47000122070312, "groundspeed_mps": 0.20921725034713745}, "flight": {"mode": "STABILIZE", "armed": false}, "ekf": {"attitude": {"roll": 0.051899973303079605, "pitch": -0.006425968836992979, "yaw": -1.9140304327011108}, "local_position": {"x": -2.3762331008911133, "y": 7.134883403778076, "z": 0.8633349537849426}, "status": {"flags": 831, "velocity_variance": 0.07971779257059097, "pos_horiz_variance": 0.007545068860054016, "pos_vert_variance": 0.043964505195617676}}, "errors": ["PreArm: Hardware safety switch"]}
