{"timestamp": "2025-12-28T11:15:41.695162Z", "telemetry": {"lat": 28.753139, "lon": 77.1178092, "satellites": 10, "altitude_gps_m": 214.1999969482422, "groundspeed_mps": 0.31795331835746765}, "flight": {"mode": null, "armed": null}, "ekf": {"attitude": {"roll": -0.028922144323587418, "pitch": -0.0044941832311451435, "yaw": 3.0460410118103027}, "local_position": {"x": 7.999469757080078, "y": -6.402724742889404, "z": -5.287915229797363}, "status": {"flags": 33599, "velocity_variance": 0.5773194432258606, "pos_horiz_variance": 0.018049055710434914, "pos_vert_variance": 0.09493158757686615}}, "errors": []}
{"timestamp": "2025-12-28T11:15:42.745208Z", "telemetry": {"lat": 28.7531418, "lon": 77.1178054, "satellites": 10, "altitude_gps_m": 214.0699920654297, "groundspeed_mps": 0.29841339588165283}, "flight": {"mode": "STABILIZE", "armed": false}, "ekf": {"attitude": {"roll": -0.029393669217824936, "pitch": -0.003101459238678217, "yaw": 3.0459229946136475}, "local_position": {"x": 7.664783477783203, "y": -6.648264408111572, "z": -5.1476521492004395}, "status": {"flags": 33599, "velocity_variance": 0.31304165720939636, "pos_horiz_variance": 0.008538071997463703, "pos_vert_variance": 0.016680147498846054}}, "errors": []}
{"timestamp": "2025-12-28T11:15:43.794979Z", "telemetry": {"lat": 28.7531377, "lon": 77.1178025, "satellites": 10, "altitude_gps_m": 214.02999877929688, "groundspeed_mps": 0.3485491871833801}, "flight": {"mode": "STABILIZE", "armed": false}, "ekf": {"attitude": {"roll": -0.029516328126192093, "pitch": -0.005338022951036692, "yaw": 3.0457923412323}, "local_position": {"x": 7.085072994232178, "y": -6.85153865814209, "z": -5.101499080657959}, "status": {"flags": 33599, "velocity_variance": 0.17253020405769348, "pos_horiz_variance": 0.006334028672426939, "pos_vert_variance": 0.00316555961035192}}, "errors": []}
{"timestamp": "2025-12-28T11:15:44.846629Z", "telemetry": {"lat": 28.753141, "lon": 77.1177996, "satellites": 10, "altitude_gps_m": 214.08999633789062, "groundspeed_mps": 0.3703261613845825}, "flight": {"mode": "STABILIZE", "armed": false}, "ekf": {"attitude": {"roll": -0.02981417253613472, "pitch": -0.004844300914555788, "yaw": 3.0454773902893066}, "local_position": {"x": 6.889743804931641, "y": -7.214384078979492, "z": -5.170492172241211}, "status": {"flags": 33599, "velocity_variance": 0.18233834207057953, "pos_horiz_variance": 0.008292675018310547, "pos_vert_variance": 0.016635343432426453}}, "errors": []}
{"timestamp": "2025-12-28T11:15:45.867780Z", "telemetry": {"lat": 28.7531409, "lon": 77.1177984, "satellites": 9, "altitude_gps_m": 214.0699920654297, "groundspeed_mps": 0.3603130877017975}, "flight": {"mode": "STABILIZE", "armed": false}, "ekf": {"attitude": {"roll": -0.030537571758031845, "pitch": -0.005286464001983404, "yaw": 3.0453178882598877}, "local_position": {"x": 6.606091022491455, "y": -7.35545015335083, "z": -5.16839599609375}, "status": {"flags": 33599, "velocity_variance": 0.1149197593331337, "pos_horiz_variance": 0.010647830553352833, "pos_vert_variance": 0.04733944684267044}}, "errors": []}
{"timestamp": "2025-12-28T11:15:46.868851Z", "telemetry": {"lat": 28.7531405, "lon": 77.1177989, "satellites": 9, "altitude_gps_m": 214.01998901367188, "groundspeed_mps": 0.3016051650047302}, "flight": {"mode": "STABILIZE", "armed": false}, "ekf": {"attitude": {"roll": -0.03106086328625679, "pitch": -0.004190353211015463, "yaw": 3.045414686203003}, "local_position": {"x": 6.691431522369385, "y": -7.496647357940674, "z": -5.097672462463379}, "status": {"flags": 33599, "velocity_variance": 0.2353002279996872, "pos_horiz_variance": 0.008316386491060257, "pos_vert_variance": 0.0753398984670639}}, "errors": []}
{"timestamp": "2025-12-28T11:15:47.868616Z", "telemetry": {"lat": 28.7531381, "lon": 77.1177993, "satellites": 9, "altitude_gps_m": 214.02999877929688, "groundspeed_mps": 0.26709240674972534}, "flight": {"mode": "STABILIZE", "armed": false}, "ekf": {"attitude": {"roll": -0.031443070620298386, "pitch": -0.0043228003196418285, "yaw": 3.045395851135254}, "local_position": {"x": 6.725916862487793, "y": -7.670168876647949, "z": -5.108819484710693}, "status": {"flags": 33599, "velocity_variance": 0.17276744544506073, "pos_horiz_variance": 0.004495123866945505, "pos_vert_variance": 0.04184512794017792}}, "errors": []}
{"timestamp": "2025-12-28T11:15:48.867995Z", "telemetry": {"lat": 28.7531383, "lon": 77.1178043, "satellites": 9, "altitude_gps_m": 213.989990234375, "groundspeed_mps": 0.17047394812107086}, "flight": {"mode": "STABILIZE", "armed": false}, "ekf": {"attitude": {"roll": -0.03339012339711189, "pitch": -0.004726302344352007, "yaw": 3.0453221797943115}, "local_position": {"x": 6.691196918487549, "y": -7.554420471191406, "z": -5.0743727684021}, "status": {"flags": 33599, "velocity_variance": 0.2952063977718353, "pos_horiz_variance": 0.009969351813197136, "pos_vert_variance": 0.03630029410123825}}, "errors": []}
{"timestamp": "2025-12-28T11:15:49.868721Z", "telemetry": {"lat": 28.7531346, "lon": 77.1178063, "satellites": 9, "altitude_gps_m": 213.989990234375, "groundspeed_mps": 0.1939982771873474}, "flight": {"mode": "STABILIZE", "armed": false}, "ekf": {"attitude": {"roll": -0.03413499519228935, "pitch": -0.0051028490997850895, "yaw": 3.045386791229248}, "local_position": {"x": 6.242679119110107, "y": -7.242458343505859, "z": -5.066726207733154}, "status": {"flags": 33599, "velocity_variance": 0.24486932158470154, "pos_horiz_variance": 0.00996011309325695, "pos_vert_variance": 0.03868461772799492}}, "errors": []}
{"timestamp": "2025-12-28T11:15:50.868489Z", "telemetry": {"lat": 28.7531361, "lon": 77.1178059, "satellites": 9, "altitude_gps_m": 213.9499969482422, "groundspeed_mps": 0.10059996694326401}, "flight": {"mode": "STABILIZE", "armed": false}, "ekf": {"attitude": {"roll": -0.033873338252305984, "pitch": -0.004267206881195307, "yaw": 3.0453391075134277}, "local_position": {"x": 6.4217071533203125, "y": -7.193872928619385, "z": -5.022876262664795}, "status": {"flags": 33599, "velocity_variance": 0.1830897033214569, "pos_horiz_variance": 0.008390585891902447, "pos_vert_variance": 0.03516519442200661}}, "errors": []}
{"timestamp": "2025-12-28T11:15:51.868863Z", "telemetry": {"lat": 28.7531368, "lon": 77.1178122, "satellites": 9, "altitude_gps_m": 213.989990234375, "groundspeed_mps": 0.2007589489221573}, "flight": {"mode": "STABILIZE", "armed": false}, "ekf": {"attitude": {"roll": -0.03568918630480766, "pitch": -0.00524565065279603, "yaw": 3.0454723834991455}, "local_position": {"x": 6.230536460876465, "y": -6.698320388793945, "z": -5.05532169342041}, "status": {"flags": 33599, "velocity_variance": 0.11105569452047348, "pos_horiz_variance": 0.012789467349648476, "pos_vert_variance": 0.027994230389595032}}, "errors": []}
{"timestamp": "2025-12-28T11:15:52.868381Z", "telemetry": {"lat": 28.7531373, "lon": 77.1178124, "satellites": 9, "altitude_gps_m": 213.989990234375, "groundspeed_mps": 0.2210540920495987}, "flight": {"mode": "STABILIZE", "armed": false}, "ekf": {"attitude": {"roll": -0.035552721470594406, "pitch": -0.0044925580732524395, "yaw": 3.045682668685913}, "local_position": {"x": 6.190735340118408, "y": -6.392383575439453, "z": -5.06371545791626}, "status": {"flags": 33599, "velocity_variance": 0.22064873576164246, "pos_horiz_variance": 0.011946785263717175, "pos_vert_variance": 0.04551348462700844}}, "errors": []}
{"timestamp": "2025-12-28T11:15:53.867916Z", "telemetry": {"lat": 28.7531402, "lon": 77.1178078, "satellites": 9, "altitude_gps_m": 214.01998901367188, "groundspeed_mps": 0.12022508680820465}, "flight": {"mode": "STABILIZE", "armed": false}, "ekf": {"attitude": {"roll": -0.03468482568860054, "pitch": -0.003792219329625368, "yaw": 3.0457379817962646}, "local_position": {"x": 6.473579406738281, "y": -6.594912052154541, "z": -5.093547344207764}, "status": {"flags": 33599, "velocity_variance": 0.06447409093379974, "pos_horiz_variance": 0.011409010738134384, "pos_vert_variance": 0.06241634860634804}}, "errors": []}
{"timestamp": "2025-12-28T11:15:54.868285Z", "telemetry": {"lat": 28.7531464, "lon": 77.117803, "satellites": 9, "altitude_gps_m": 214.00999450683594, "groundspeed_mps": 0.07013911008834839}, "flight": {"mode": "STABILIZE", "armed": false}, "ekf": {"attitude": {"roll": -0.034160759299993515, "pitch": -0.0029036574997007847, "yaw": 3.045866012573242}, "local_position": {"x": 6.702424049377441, "y": -6.8018951416015625, "z": -5.079582214355469}, "status": {"flags": 33599, "velocity_variance": 0.12434932589530945, "pos_horiz_variance": 0.02011469379067421, "pos_vert_variance": 0.05783776566386223}}, "errors": []}
{"timestamp": "2025-12-28T11:15:55.867845Z", "telemetry": {"lat": 28.7531487, "lon": 77.1178047, "satellites": 9, "altitude_gps_m": 213.97999572753906, "groundspeed_mps": 0.16169749200344086}, "flight": {"mode": "STABILIZE", "armed": false}, "ekf": {"attitude": {"roll": -0.034926291555166245, "pitch": -0.0023523750714957714, "yaw": 3.0459413528442383}, "local_position": {"x": 7.087331295013428, "y": -6.763213634490967, "z": -5.067785739898682}, "status": {"flags": 33599, "velocity_variance": 0.40102672576904297, "pos_horiz_variance": 0.017542369663715363, "pos_vert_variance": 0.06255428493022919}}, "errors": []}
{"timestamp": "2025-12-28T11:15:56.868486Z", "telemetry": {"lat": 28.7531402, "lon": 77.1178071, "satellites": 10, "altitude_gps_m": 213.9199981689453, "groundspeed_mps": 0.2015097588300705}, "flight": {"mode": "STABILIZE", "armed": false}, "ekf": {"attitude": {"roll": -0.03410479053854942, "pitch": -0.0016894428990781307, "yaw": 3.046018123626709}, "local_position": {"x": 7.49617338180542, "y": -6.897482872009277, "z": -4.992559909820557}, "status": {"flags": 33599, "velocity_variance": 0.2664892077445984, "pos_horiz_variance": 0.005545494612306356, "pos_vert_variance": 0.03987787663936615}}, "errors": []}
{"timestamp": "2025-12-28T11:15:57.868333Z", "telemetry": {"lat": 28.753129, "lon": 77.1178138, "satellites": 10, "altitude_gps_m": 213.92999267578125, "groundspeed_mps": 0.18389210104942322}, "flight": {"mode": "STABILIZE", "armed": false}, "ekf": {"attitude": {"roll": -0.034303147345781326, "pitch": -0.002160866279155016, "yaw": 3.046051025390625}, "local_position": {"x": 7.336097717285156, "y": -6.687163352966309, "z": -5.0014729499816895}, "status": {"flags": 33599, "velocity_variance": 0.2192990630865097, "pos_horiz_variance": 0.02379208244383335, "pos_vert_variance": 0.08685583621263504}}, "errors": []}
{"timestamp": "2025-12-28T11:15:58.867828Z", "telemetry": {"lat": 28.7531205, "lon": 77.1178175, "satellites": 10, "altitude_gps_m": 213.989990234375, "groundspeed_mps": 0.14480242133140564}, "flight": {"mode": "STABILIZE", "armed": false}, "ekf": {"attitude": {"roll": -0.03442439064383507, "pitch": -0.0037039821036159992, "yaw": 3.0461816787719727}, "local_position": {"x": 6.885340213775635, "y": -6.440975666046143, "z": -5.06132173538208}, "status": {"flags": 33599, "velocity_variance": 0.1729222536087036, "pos_horiz_variance": 0.03311073035001755, "pos_vert_variance": 0.040460240095853806}}, "errors": []}
{"timestamp": "2025-12-28T11:15:59.868829Z", "telemetry": {"lat": 28.7531138, "lon": 77.1178244, "satellites": 10, "altitude_gps_m": 213.97000122070312, "groundspeed_mps": 0.24963989853858948}, "flight": {"mode": "STABILIZE", "armed": false}, "ekf": {"attitude": {"roll": -0.0351177342236042, "pitch": -0.005102632101625204, "yaw": 3.0462446212768555}, "local_position": {"x": 6.310246467590332, "y": -5.79718017578125, "z": -5.078181266784668}, "status": {"flags": 33599, "velocity_variance": 0.24942052364349365, "pos_horiz_variance": 0.03665342181921005, "pos_vert_variance": 0.03421546518802643}}, "errors": []}
{"timestamp": "2025-12-28T11:16:00.867881Z", "telemetry": {"lat": 28.7531131, "lon": 77.1178182, "satellites": 10, "altitude_gps_m": 213.88999938964844, "groundspeed_mps": 0.1407293826341629}, "flight": {"mode": "STABILIZE", "armed": false}, "ekf": {"attitude": {"roll": -0.03360080346465111, "pitch": -0.003965920303016901, "yaw": 3.046250581741333}, "local_position": {"x": 6.1044464111328125, "y": -6.032740116119385, "z": -4.969045639038086}, "status": {"flags": 33599, "velocity_variance": 0.32540974020957947, "pos_horiz_variance": 0.03452435880899429, "pos_vert_variance": 0.01539891492575407}}, "errors": []}
{"timestamp": "2025-12-28T11:16:01.868622Z", "telemetry": {"lat": 28.7531102, "lon": 77.1178198, "satellites": 10, "altitude_gps_m": 213.8300018310547, "groundspeed_mps": 0.1352444738149643}, "flight": {"mode": "STABILIZE", "armed": false}, "ekf": {"attitude": {"roll": -0.03323199972510338, "pitch": -0.0035487250424921513, "yaw": 3.0463969707489014}, "local_position": {"x": 5.69934606552124, "y": -5.812087059020996, "z": -4.914338111877441}, "status": {"flags": 33599, "velocity_variance": 0.5546579957008362, "pos_horiz_variance": 0.030604327097535133, "pos_vert_variance": 0.013585205189883709}}, "errors": []}
{"timestamp": "2025-12-28T11:16:02.868633Z", "telemetry": {"lat": 28.7531122, "lon": 77.1178199, "satellites": 10, "altitude_gps_m": 213.92999267578125, "groundspeed_mps": 0.1540815681219101}, "flight": {"mode": "STABILIZE", "armed": false}, "ekf": {"attitude": {"roll": -0.03324420377612114, "pitch": -0.0026676966808736324, "yaw": 3.0462682247161865}, "local_position": {"x": 5.80753755569458, "y": -5.82626485824585, "z": -4.995141983032227}, "status": {"flags": 33599, "velocity_variance": 0.2016492635011673, "pos_horiz_variance": 0.03001180849969387, "pos_vert_variance": 0.006005116272717714}}, "errors": []}
{"timestamp": "2025-12-28T11:16:03.868213Z", "telemetry": {"lat": 28.7531197, "lon": 77.1178151, "satellites": 9, "altitude_gps_m": 213.989990234375, "groundspeed_mps": 0.2019975185394287}, "flight": {"mode": "STABILIZE", "armed": false}, "ekf": {"attitude": {"roll": -0.03179292008280754, "pitch": -0.0009666015394032001, "yaw": 3.0462801456451416}, "local_position": {"x": 6.092828273773193, "y": -5.905050754547119, "z": -5.060262203216553}, "status": {"flags": 33599, "velocity_variance": 0.4215049743652344, "pos_horiz_variance": 0.018964750692248344, "pos_vert_variance": 0.06860572844743729}}, "errors": []}
{"timestamp": "2025-12-28T11:16:04.868915Z", "telemetry": {"lat": 28.7531226, "lon": 77.1178128, "satellites": 10, "altitude_gps_m": 213.95999145507812, "groundspeed_mps": 0.2511645555496216}, "flight": {"mode": "STABILIZE", "armed": false}, "ekf": {"attitude": {"roll": -0.031310152262449265, "pitch": -0.000525651965290308, "yaw": 3.046231269836426}, "local_position": {"x": 6.2476115226745605, "y": -6.149311065673828, "z": -5.0305256843566895}, "status": {"flags": 33599, "velocity_variance": 0.22765716910362244, "pos_horiz_variance": 0.015926234424114227, "pos_vert_variance": 0.0007128202705644071}}, "errors": []}
{"timestamp": "2025-12-28T11:16:05.868113Z", "telemetry": {"lat": 28.7531192, "lon": 77.1178117, "satellites": 10, "altitude_gps_m": 213.92999267578125, "groundspeed_mps": 0.37006038427352905}, "flight": {"mode": "STABILIZE", "armed": false}, "ekf": {"attitude": {"roll": -0.029466871172189713, "pitch": 0.0007079178467392921, "yaw": 3.0461668968200684}, "local_position": {"x": 6.427996635437012, "y": -6.434088706970215, "z": -4.984411239624023}, "status": {"flags": 33599, "velocity_variance": 0.30145737528800964, "pos_horiz_variance": 0.024372506886720657, "pos_vert_variance": 0.05143722519278526}}, "errors": []}
{"timestamp": "2025-12-28T11:16:06.868704Z", "telemetry": {"lat": 28.7531117, "lon": 77.1178176, "satellites": 10, "altitude_gps_m": 213.9199981689453, "groundspeed_mps": 0.3438005745410919}, "flight": {"mode": "STABILIZE", "armed": false}, "ekf": {"attitude": {"roll": -0.0303487591445446, "pitch": -0.0004010619595646858, "yaw": 3.046128034591675}, "local_position": {"x": 6.380845546722412, "y": -6.5340166091918945, "z": -4.9905314445495605}, "status": {"flags": 33599, "velocity_variance": 0.39820414781570435, "pos_horiz_variance": 0.040548551827669144, "pos_vert_variance": 0.029658038169145584}}, "errors": []}
{"timestamp": "2025-12-28T11:16:07.868536Z", "telemetry": {"lat": 28.7531082, "lon": 77.1178194, "satellites": 10, "altitude_gps_m": 213.97000122070312, "groundspeed_mps": 0.20717529952526093}, "flight": {"mode": "STABILIZE", "armed": false}, "ekf": {"attitude": {"roll": -0.030600544065237045, "pitch": -0.0022451914846897125, "yaw": 3.046031951904297}, "local_position": {"x": 5.815940856933594, "y": -6.27571964263916, "z": -5.0425705909729}, "status": {"flags": 33599, "velocity_variance": 0.17808160185813904, "pos_horiz_variance": 0.03828265517950058, "pos_vert_variance": 0.001586830010637641}}, "errors": []}
{"timestamp": "2025-12-28T11:16:08.868082Z", "telemetry": {"lat": 28.7531117, "lon": 77.1178152, "satellites": 10, "altitude_gps_m": 214.00999450683594, "groundspeed_mps": 0.1292150914669037}, "flight": {"mode": "STABILIZE", "armed": false}, "ekf": {"attitude": {"roll": -0.030348125845193863, "pitch": -0.003294618334621191, "yaw": 3.045973062515259}, "local_position": {"x": 5.307450294494629, "y": -6.277434349060059, "z": -5.0813164710998535}, "status": {"flags": 33599, "velocity_variance": 0.15484802424907684, "pos_horiz_variance": 0.023729249835014343, "pos_vert_variance": 0.06768374145030975}}, "errors": []}
{"timestamp": "2025-12-28T11:16:09.868827Z", "telemetry": {"lat": 28.7531159, "lon": 77.1178147, "satellites": 10, "altitude_gps_m": 214.01998901367188, "groundspeed_mps": 0.07941144704818726}, "flight": {"mode": "STABILIZE", "armed": false}, "ekf": {"attitude": {"roll": -0.03072218969464302, "pitch": -0.00425192853435874, "yaw": 3.045989990234375}, "local_position": {"x": 5.06265115737915, "y": -6.19761323928833, "z": -5.0936360359191895}, "status": {"flags": 33599, "velocity_variance": 0.24387013912200928, "pos_horiz_variance": 0.012066368013620377, "pos_vert_variance": 0.038528695702552795}}, "errors": []}
{"timestamp": "2025-12-28T11:16:10.868616Z", "telemetry": {"lat": 28.753121, "lon": 77.1178147, "satellites": 10, "altitude_gps_m": 213.95999145507812, "groundspeed_mps": 0.047996390610933304}, "flight": {"mode": "STABILIZE", "armed": false}, "ekf": {"attitude": {"roll": -0.031042102724313736, "pitch": -0.003919320646673441, "yaw": 3.046004295349121}, "local_position": {"x": 5.036086082458496, "y": -6.048447132110596, "z": -5.0315260887146}, "status": {"flags": 33599, "velocity_variance": 0.3102273941040039, "pos_horiz_variance": 0.0024059044662863016, "pos_vert_variance": 0.009015876799821854}}, "errors": []}
{"timestamp": "2025-12-28T11:16:11.868537Z", "telemetry": {"lat": 28.7531198, "lon": 77.1178206, "satellites": 10, "altitude_gps_m": 213.97999572753906, "groundspeed_mps": 0.06701004505157471}, "flight": {"mode": "STABILIZE", "armed": false}, "ekf": {"attitude": {"roll": -0.03198394551873207, "pitch": -0.004095583688467741, "yaw": 3.0459582805633545}, "local_position": {"x": 5.128185749053955, "y": -5.81052827835083, "z": -5.054241180419922}, "status": {"flags": 33599, "velocity_variance": 0.18915604054927826, "pos_horiz_variance": 0.009676224552094936, "pos_vert_variance": 0.012227050960063934}}, "errors": []}
{"timestamp": "2025-12-28T11:16:12.868361Z", "telemetry": {"lat": 28.753121, "lon": 77.117824, "satellites": 10, "altitude_gps_m": 213.97999572753906, "groundspeed_mps": 0.11787465214729309}, "flight": {"mode": "STABILIZE", "armed": false}, "ekf": {"attitude": {"roll": -0.03234507516026497, "pitch": -0.0036085438914597034, "yaw": 3.0461316108703613}, "local_position": {"x": 5.2479376792907715, "y": -5.564749717712402, "z": -5.0536723136901855}, "status": {"flags": 33599, "velocity_variance": 0.27190423011779785, "pos_horiz_variance": 0.010207469575107098, "pos_vert_variance": 0.0019362615421414375}}, "errors": []}
{"timestamp": "2025-12-28T11:16:13.869217Z", "telemetry": {"lat": 28.7531279, "lon": 77.1178189, "satellites": 10, "altitude_gps_m": 213.97999572753906, "groundspeed_mps": 0.18291178345680237}, "flight": {"mode": "STABILIZE", "armed": false}, "ekf": {"attitude": {"roll": -0.03165842965245247, "pitch": -0.003153607714921236, "yaw": 3.0460760593414307}, "local_position": {"x": 5.625115871429443, "y": -5.781510353088379, "z": -5.05706262588501}, "status": {"flags": 33599, "velocity_variance": 0.1361037939786911, "pos_horiz_variance": 0.006707716733217239, "pos_vert_variance": 0.0575852207839489}}, "errors": []}
{"timestamp": "2025-12-28T11:16:14.868732Z", "telemetry": {"lat": 28.7531263, "lon": 77.1178279, "satellites": 9, "altitude_gps_m": 213.92999267578125, "groundspeed_mps": 0.19249911606311798}, "flight": {"mode": "STABILIZE", "armed": false}, "ekf": {"attitude": {"roll": -0.03246765211224556, "pitch": -0.0032595410011708736, "yaw": 3.046081304550171}, "local_position": {"x": 5.698642730712891, "y": -5.340350151062012, "z": -5.005187034606934}, "status": {"flags": 33599, "velocity_variance": 0.017123613506555557, "pos_horiz_variance": 0.012537064030766487, "pos_vert_variance": 0.021280571818351746}}, "errors": []}
{"timestamp": "2025-12-28T11:16:15.868702Z", "telemetry": {"lat": 28.7531271, "lon": 77.1178274, "satellites": 9, "altitude_gps_m": 213.9099884033203, "groundspeed_mps": 0.17761650681495667}, "flight": {"mode": "STABILIZE", "armed": false}, "ekf": {"attitude": {"roll": -0.03253987058997154, "pitch": -0.003875532653182745, "yaw": 3.0460472106933594}, "local_position": {"x": 5.692838668823242, "y": -5.097226619720459, "z": -4.987273693084717}, "status": {"flags": 33599, "velocity_variance": 0.10184609144926071, "pos_horiz_variance": 0.007674966938793659, "pos_vert_variance": 0.03235962241888046}}, "errors": []}
{"timestamp": "2025-12-28T11:16:16.871318Z", "telemetry": {"lat": 28.7531232, "lon": 77.1178356, "satellites": 9, "altitude_gps_m": 213.88999938964844, "groundspeed_mps": 0.24005810916423798}, "flight": {"mode": "STABILIZE", "armed": false}, "ekf": {"attitude": {"roll": -0.03391609713435173, "pitch": -0.005190521944314241, "yaw": 3.046035051345825}, "local_position": {"x": 5.482200622558594, "y": -4.491468906402588, "z": -4.970215797424316}, "status": {"flags": 33599, "velocity_variance": 0.1152510717511177, "pos_horiz_variance": 0.01230960339307785, "pos_vert_variance": 0.05236172303557396}}, "errors": []}
{"timestamp": "2025-12-28T11:16:17.868869Z", "telemetry": {"lat": 28.7531183, "lon": 77.1178471, "satellites": 9, "altitude_gps_m": 213.95999145507812, "groundspeed_mps": 0.382222056388855}, "flight": {"mode": "STABILIZE", "armed": false}, "ekf": {"attitude": {"roll": -0.03558851405978203, "pitch": -0.006640884559601545, "yaw": 3.0459907054901123}, "local_position": {"x": 5.229681015014648, "y": -3.666071891784668, "z": -5.03734827041626}, "status": {"flags": 33599, "velocity_variance": 0.14711201190948486, "pos_horiz_variance": 0.019774457439780235, "pos_vert_variance": 0.01837851293385029}}, "errors": []}
{"timestamp": "2025-12-28T11:16:18.868362Z", "telemetry": {"lat": 28.7531156, "lon": 77.1178524, "satellites": 9, "altitude_gps_m": 213.989990234375, "groundspeed_mps": 0.4747764468193054}, "flight": {"mode": "STABILIZE", "armed": false}, "ekf": {"attitude": {"roll": -0.035910140722990036, "pitch": -0.00734958378598094, "yaw": 3.0461254119873047}, "local_position": {"x": 4.948533535003662, "y": -2.9579741954803467, "z": -5.068044185638428}, "status": {"flags": 33599, "velocity_variance": 0.3412870466709137, "pos_horiz_variance": 0.019516833126544952, "pos_vert_variance": 0.02582593262195587}}, "errors": []}
{"timestamp": "2025-12-28T11:16:19.869137Z", "telemetry": {"lat": 28.7531092, "lon": 77.1178668, "satellites": 8, "altitude_gps_m": 213.989990234375, "groundspeed_mps": 0.7382021546363831}, "flight": {"mode": "STABILIZE", "armed": false}, "ekf": {"attitude": {"roll": -0.03829574957489967, "pitch": -0.009333658963441849, "yaw": 3.0463013648986816}, "local_position": {"x": 4.295227527618408, "y": -1.6337337493896484, "z": -5.068791389465332}, "status": {"flags": 33599, "velocity_variance": 0.14752942323684692, "pos_horiz_variance": 0.020725710317492485, "pos_vert_variance": 0.0360431931912899}}, "errors": []}
{"timestamp": "2025-12-28T11:16:20.868096Z", "telemetry": {"lat": 28.7531097, "lon": 77.1178637, "satellites": 8, "altitude_gps_m": 214.0399932861328, "groundspeed_mps": 0.7354041934013367}, "flight": {"mode": "STABILIZE", "armed": false}, "ekf": {"attitude": {"roll": -0.03687037155032158, "pitch": -0.009708594530820847, "yaw": 3.0465376377105713}, "local_position": {"x": 3.850494384765625, "y": -1.190426230430603, "z": -5.116646766662598}, "status": {"flags": 33599, "velocity_variance": 0.3236086070537567, "pos_horiz_variance": 0.0055092410184443, "pos_vert_variance": 0.005145846866071224}}, "errors": []}
{"timestamp": "2025-12-28T11:16:21.868271Z", "telemetry": {"lat": 28.7531131, "lon": 77.1178551, "satellites": 8, "altitude_gps_m": 213.989990234375, "groundspeed_mps": 0.5687077045440674}, "flight": {"mode": "STABILIZE", "armed": false}, "ekf": {"attitude": {"roll": -0.034463535994291306, "pitch": -0.008086340501904488, "yaw": 3.0466253757476807}, "local_position": {"x": 3.9257004261016846, "y": -1.3007304668426514, "z": -5.059643268585205}, "status": {"flags": 33599, "velocity_variance": 0.4320380389690399, "pos_horiz_variance": 0.009815319441258907, "pos_vert_variance": 0.05354253202676773}}, "errors": []}
{"timestamp": "2025-12-28T11:16:22.867886Z", "telemetry": {"lat": 28.7531119, "lon": 77.1178605, "satellites": 9, "altitude_gps_m": 214.0699920654297, "groundspeed_mps": 0.5607659816741943}, "flight": {"mode": "STABILIZE", "armed": false}, "ekf": {"attitude": {"roll": -0.03430181369185448, "pitch": -0.008892310783267021, "yaw": 3.0468199253082275}, "local_position": {"x": 3.6787354946136475, "y": -1.0651922225952148, "z": -5.150328159332275}, "status": {"flags": 33599, "velocity_variance": 0.10527452826499939, "pos_horiz_variance": 0.0068297130055725574, "pos_vert_variance": 0.038336530327796936}}, "errors": []}
{"timestamp": "2025-12-28T11:16:23.868301Z", "telemetry": {"lat": 28.7531089, "lon": 77.1178651, "satellites": 9, "altitude_gps_m": 214.08999633789062, "groundspeed_mps": 0.6059820055961609}, "flight": {"mode": "STABILIZE", "armed": false}, "ekf": {"attitude": {"roll": -0.03380746766924858, "pitch": -0.00984022207558155, "yaw": 3.0468099117279053}, "local_position": {"x": 3.182401657104492, "y": -0.7397398948669434, "z": -5.16417932510376}, "status": {"flags": 33599, "velocity_variance": 0.2587762176990509, "pos_horiz_variance": 0.007053454872220755, "pos_vert_variance": 0.02455553039908409}}, "errors": []}
{"timestamp": "2025-12-28T11:16:24.867878Z", "telemetry": {"lat": 28.7531066, "lon": 77.117871, "satellites": 9, "altitude_gps_m": 214.0699920654297, "groundspeed_mps": 0.635358989238739}, "flight": {"mode": "STABILIZE", "armed": false}, "ekf": {"attitude": {"roll": -0.03378606215119362, "pitch": -0.00992165133357048, "yaw": 3.0467939376831055}, "local_position": {"x": 2.88150691986084, "y": -0.31693729758262634, "z": -5.149196147918701}, "status": {"flags": 33599, "velocity_variance": 0.27762284874916077, "pos_horiz_variance": 0.006625982001423836, "pos_vert_variance": 0.0033312838058918715}}, "errors": []}
{"timestamp": "2025-12-28T11:16:25.867844Z", "telemetry": {"lat": 28.7531086, "lon": 77.117873, "satellites": 9, "altitude_gps_m": 214.0800018310547, "groundspeed_mps": 0.6350626349449158}, "flight": {"mode": "STABILIZE", "armed": false}, "ekf": {"attitude": {"roll": -0.03321431204676628, "pitch": -0.009471425786614418, "yaw": 3.0468223094940186}, "local_position": {"x": 2.639530897140503, "y": -0.030659988522529602, "z": -5.147068023681641}, "status": {"flags": 33599, "velocity_variance": 0.14332357048988342, "pos_horiz_variance": 0.012592650018632412, "pos_vert_variance": 0.017038695514202118}}, "errors": []}
{"timestamp": "2025-12-28T11:16:26.868236Z", "telemetry": {"lat": 28.7531052, "lon": 77.1178806, "satellites": 9, "altitude_gps_m": 214.08999633789062, "groundspeed_mps": 0.5980987548828125}, "flight": {"mode": "STABILIZE", "armed": false}, "ekf": {"attitude": {"roll": -0.0330827422440052, "pitch": -0.008851097896695137, "yaw": 3.0467097759246826}, "local_position": {"x": 2.5654144287109375, "y": 0.38086989521980286, "z": -5.165679931640625}, "status": {"flags": 33599, "velocity_variance": 0.399900883436203, "pos_horiz_variance": 0.011319087818264961, "pos_vert_variance": 0.039010580629110336}}, "errors": []}
{"timestamp": "2025-12-28T11:16:27.868130Z", "telemetry": {"lat": 28.753108, "lon": 77.1178901, "satellites": 10, "altitude_gps_m": 214.09999084472656, "groundspeed_mps": 0.6124509572982788}, "flight": {"mode": "STABILIZE", "armed": false}, "ekf": {"attitude": {"roll": -0.03352806344628334, "pitch": -0.0072542461566627026, "yaw": 3.0466318130493164}, "local_position": {"x": 2.670335054397583, "y": 1.1568628549575806, "z": -5.172661781311035}, "status": {"flags": 33599, "velocity_variance": 0.24914084374904633, "pos_horiz_variance": 0.016048159450292587, "pos_vert_variance": 0.014721715822815895}}, "errors": []}
{"timestamp": "2025-12-28T11:16:28.868719Z", "telemetry": {"lat": 28.7531123, "lon": 77.1178911, "satellites": 10, "altitude_gps_m": 214.17999267578125, "groundspeed_mps": 0.5055083632469177}, "flight": {"mode": "STABILIZE", "armed": false}, "ekf": {"attitude": {"roll": -0.03247382119297981, "pitch": -0.0062381732277572155, "yaw": 3.0466549396514893}, "local_position": {"x": 2.8827996253967285, "y": 1.3912334442138672, "z": -5.256706714630127}, "status": {"flags": 33599, "velocity_variance": 0.17754845321178436, "pos_horiz_variance": 0.020069336518645287, "pos_vert_variance": 0.029990794137120247}}, "errors": []}
{"timestamp": "2025-12-28T11:16:29.868732Z", "telemetry": {"lat": 28.7531192, "lon": 77.1178905, "satellites": 10, "altitude_gps_m": 214.1599884033203, "groundspeed_mps": 0.35169538855552673}, "flight": {"mode": "STABILIZE", "armed": false}, "ekf": {"attitude": {"roll": -0.030859824270009995, "pitch": -0.00436433544382453, "yaw": 3.0465855598449707}, "local_position": {"x": 3.3405838012695312, "y": 1.4066667556762695, "z": -5.231996536254883}, "status": {"flags": 33599, "velocity_variance": 0.20453572273254395, "pos_horiz_variance": 0.02505471743643284, "pos_vert_variance": 0.04706684127449989}}, "errors": []}
{"timestamp": "2025-12-28T11:16:30.868131Z", "telemetry": {"lat": 28.7531178, "lon": 77.1178883, "satellites": 10, "altitude_gps_m": 214.25999450683594, "groundspeed_mps": 0.1771053820848465}, "flight": {"mode": "STABILIZE", "armed": false}, "ekf": {"attitude": {"roll": -0.028384331613779068, "pitch": -0.003426946233958006, "yaw": 3.046262264251709}, "local_position": {"x": 3.617814064025879, "y": 1.1762371063232422, "z": -5.330494403839111}, "status": {"flags": 33599, "velocity_variance": 0.27500516176223755, "pos_horiz_variance": 0.018773557618260384, "pos_vert_variance": 0.020165057852864265}}, "errors": []}
{"timestamp": "2025-12-28T11:16:31.868265Z", "telemetry": {"lat": 28.7531111, "lon": 77.1179008, "satellites": 10, "altitude_gps_m": 214.22000122070312, "groundspeed_mps": 0.2521001696586609}, "flight": {"mode": "STABILIZE", "armed": false}, "ekf": {"attitude": {"roll": -0.030185360461473465, "pitch": -0.004598467145115137, "yaw": 3.0462634563446045}, "local_position": {"x": 3.555391311645508, "y": 1.5138026475906372, "z": -5.313333988189697}, "status": {"flags": 33599, "velocity_variance": 0.5317614078521729, "pos_horiz_variance": 0.016901955008506775, "pos_vert_variance": 0.02198377251625061}}, "errors": []}
{"timestamp": "2025-12-28T11:16:32.868079Z", "telemetry": {"lat": 28.7531061, "lon": 77.1179053, "satellites": 9, "altitude_gps_m": 214.1699981689453, "groundspeed_mps": 0.21545520424842834}, "flight": {"mode": "STABILIZE", "armed": false}, "ekf": {"attitude": {"roll": -0.029281165450811386, "pitch": -0.0041913543827831745, "yaw": 3.0461556911468506}, "local_position": {"x": 3.428922414779663, "y": 2.047548294067383, "z": -5.246537208557129}, "status": {"flags": 33599, "velocity_variance": 0.26634159684181213, "pos_horiz_variance": 0.014164033345878124, "pos_vert_variance": 0.031339116394519806}}, "errors": []}
{"timestamp": "2025-12-28T11:16:33.868689Z", "telemetry": {"lat": 28.7530984, "lon": 77.1179074, "satellites": 9, "altitude_gps_m": 214.239990234375, "groundspeed_mps": 0.1252259761095047}, "flight": {"mode": "STABILIZE", "armed": false}, "ekf": {"attitude": {"roll": -0.02817179635167122, "pitch": -0.004522743169218302, "yaw": 3.0459303855895996}, "local_position": {"x": 3.214967727661133, "y": 2.0185511112213135, "z": -5.313029766082764}, "status": {"flags": 33599, "velocity_variance": 0.4135377109050751, "pos_horiz_variance": 0.022230805829167366, "pos_vert_variance": 0.010420208796858788}}, "errors": []}
{"timestamp": "2025-12-28T11:16:34.868609Z", "telemetry": {"lat": 28.7530971, "lon": 77.1179141, "satellites": 9, "altitude_gps_m": 214.12998962402344, "groundspeed_mps": 0.2702319025993347}, "flight": {"mode": "STABILIZE", "armed": false}, "ekf": {"attitude": {"roll": -0.029326487332582474, "pitch": -0.005421737674623728, "yaw": 3.045783758163452}, "local_position": {"x": 2.633902072906494, "y": 2.768744945526123, "z": -5.205739974975586}, "status": {"flags": 33599, "velocity_variance": 0.22744499146938324, "pos_horiz_variance": 0.01690206676721573, "pos_vert_variance": 0.06528977304697037}}, "errors": []}
{"timestamp": "2025-12-28T11:16:35.868338Z", "telemetry": {"lat": 28.7530992, "lon": 77.1179156, "satellites": 9, "altitude_gps_m": 214.17999267578125, "groundspeed_mps": 0.3109228014945984}, "flight": {"mode": "STABILIZE", "armed": false}, "ekf": {"attitude": {"roll": -0.02941674366593361, "pitch": -0.006124536972492933, "yaw": 3.045841932296753}, "local_position": {"x": 2.2756762504577637, "y": 3.1922683715820312, "z": -5.253259181976318}, "status": {"flags": 33599, "velocity_variance": 0.1304919719696045, "pos_horiz_variance": 0.013265259563922882, "pos_vert_variance": 0.051272906363010406}}, "errors": []}
{"timestamp": "2025-12-28T11:16:36.868305Z", "telemetry": {"lat": 28.7530897, "lon": 77.1179254, "satellites": 9, "altitude_gps_m": 214.1999969482422, "groundspeed_mps": 0.3411143124103546}, "flight": {"mode": "STABILIZE", "armed": false}, "ekf": {"attitude": {"roll": -0.029729854315519333, "pitch": -0.005952333565801382, "yaw": 3.045762777328491}, "local_position": {"x": 2.01656174659729, "y": 3.714632987976074, "z": -5.277941703796387}, "status": {"flags": 33599, "velocity_variance": 0.23497532308101654, "pos_horiz_variance": 0.02112046629190445, "pos_vert_variance": 0.08658681809902191}}, "errors": []}
{"timestamp": "2025-12-28T11:16:37.868340Z", "telemetry": {"lat": 28.7530875, "lon": 77.1179274, "satellites": 9, "altitude_gps_m": 214.17999267578125, "groundspeed_mps": 0.3049967885017395}, "flight": {"mode": "STABILIZE", "armed": false}, "ekf": {"attitude": {"roll": -0.029807474464178085, "pitch": -0.005935403052717447, "yaw": 3.0457324981689453}, "local_position": {"x": 1.7802343368530273, "y": 3.9808294773101807, "z": -5.251199722290039}, "status": {"flags": 33599, "velocity_variance": 0.2853797376155853, "pos_horiz_variance": 0.021063650026917458, "pos_vert_variance": 0.05650780349969864}}, "errors": []}
{"timestamp": "2025-12-28T11:16:38.868233Z", "telemetry": {"lat": 28.753079, "lon": 77.1179354, "satellites": 9, "altitude_gps_m": 214.0399932861328, "groundspeed_mps": 0.4795530140399933}, "flight": {"mode": "STABILIZE", "armed": false}, "ekf": {"attitude": {"roll": -0.031202834099531174, "pitch": -0.007501872722059488, "yaw": 3.045497179031372}, "local_position": {"x": 1.0081106424331665, "y": 4.823045253753662, "z": -5.118314743041992}, "status": {"flags": 33599, "velocity_variance": 0.13606753945350647, "pos_horiz_variance": 0.02099216729402542, "pos_vert_variance": 0.03585997223854065}}, "errors": []}
{"timestamp": "2025-12-28T11:16:39.868321Z", "telemetry": {"lat": 28.7530815, "lon": 77.117924, "satellites": 10, "altitude_gps_m": 213.94000244140625, "groundspeed_mps": 0.3408321738243103}, "flight": {"mode": "STABILIZE", "armed": false}, "ekf": {"attitude": {"roll": -0.028696183115243912, "pitch": -0.00598338944837451, "yaw": 3.0455667972564697}, "local_position": {"x": 0.8339160680770874, "y": 4.549333572387695, "z": -5.014291763305664}, "status": {"flags": 33599, "velocity_variance": 0.36611902713775635, "pos_horiz_variance": 0.006038028281182051, "pos_vert_variance": 0.023002495989203453}}, "errors": []}
{"timestamp": "2025-12-28T11:16:40.868002Z", "telemetry": {"lat": 28.7530832, "lon": 77.1179172, "satellites": 10, "altitude_gps_m": 213.89999389648438, "groundspeed_mps": 0.25325527787208557}, "flight": {"mode": "STABILIZE", "armed": false}, "ekf": {"attitude": {"roll": -0.02748970314860344, "pitch": -0.005268455948680639, "yaw": 3.045309066772461}, "local_position": {"x": 0.7932447195053101, "y": 4.173159122467041, "z": -4.9774394035339355}, "status": {"flags": 33599, "velocity_variance": 0.32922202348709106, "pos_horiz_variance": 0.0010897191241383553, "pos_vert_variance": 0.031995739787817}}, "errors": []}
{"timestamp": "2025-12-28T11:16:41.868511Z", "telemetry": {"lat": 28.7530661, "lon": 77.1179379, "satellites": 10, "altitude_gps_m": 213.7899932861328, "groundspeed_mps": 0.436190128326416}, "flight": {"mode": "STABILIZE", "armed": false}, "ekf": {"attitude": {"roll": -0.03057519719004631, "pitch": -0.007500412408262491, "yaw": 3.0454182624816895}, "local_position": {"x": -0.0515323281288147, "y": 5.073188304901123, "z": -4.861344337463379}, "status": {"flags": 33599, "velocity_variance": 0.561723530292511, "pos_horiz_variance": 0.02441740781068802, "pos_vert_variance": 0.012313510291278362}}, "errors": []}
{"timestamp": "2025-12-28T11:16:42.867913Z", "telemetry": {"lat": 28.753063, "lon": 77.1179463, "satellites": 9, "altitude_gps_m": 213.7899932861328, "groundspeed_mps": 0.6553974151611328}, "flight": {"mode": "STABILIZE", "armed": false}, "ekf": {"attitude": {"roll": -0.032395582646131516, "pitch": -0.008856777101755142, "yaw": 3.0456364154815674}, "local_position": {"x": -1.0447065830230713, "y": 6.174577713012695, "z": -4.867982864379883}, "status": {"flags": 33599, "velocity_variance": 0.17016752064228058, "pos_horiz_variance": 0.01605152152478695, "pos_vert_variance": 0.015580263920128345}}, "errors": []}
{"timestamp": "2025-12-28T11:16:43.867919Z", "telemetry": {"lat": 28.7530576, "lon": 77.1179515, "satellites": 10, "altitude_gps_m": 213.79998779296875, "groundspeed_mps": 0.6612388491630554}, "flight": {"mode": "STABILIZE", "armed": false}, "ekf": {"attitude": {"roll": -0.032177913933992386, "pitch": -0.00817573070526123, "yaw": 3.0456125736236572}, "local_position": {"x": -1.4901728630065918, "y": 6.721577167510986, "z": -4.87786340713501}, "status": {"flags": 33599, "velocity_variance": 0.09741778671741486, "pos_horiz_variance": 0.01792137138545513, "pos_vert_variance": 0.00020042694814037532}}, "errors": []}
{"timestamp": "2025-12-28T11:16:44.868156Z", "telemetry": {"lat": 28.7530574, "lon": 77.1179526, "satellites": 10, "altitude_gps_m": 213.9099884033203, "groundspeed_mps": 0.6527273654937744}, "flight": {"mode": "STABILIZE", "armed": false}, "ekf": {"attitude": {"roll": -0.03186899051070213, "pitch": -0.007638413924723864, "yaw": 3.045569658279419}, "local_position": {"x": -1.9162559509277344, "y": 7.211036205291748, "z": -4.989832401275635}, "status": {"flags": 33599, "velocity_variance": 0.11273849755525589, "pos_horiz_variance": 0.008500371128320694, "pos_vert_variance": 0.034497782588005066}}, "errors": []}
{"timestamp": "2025-12-28T11:16:45.868028Z", "telemetry": {"lat": 28.7530539, "lon": 77.1179486, "satellites": 10, "altitude_gps_m": 214.00999450683594, "groundspeed_mps": 0.49364879727363586}, "flight": {"mode": "STABILIZE", "armed": false}, "ekf": {"attitude": {"roll": -0.03002537414431572, "pitch": -0.006239708047360182, "yaw": 3.0454063415527344}, "local_position": {"x": -2.0192198753356934, "y": 7.049413204193115, "z": -5.084014892578125}, "status": {"flags": 33599, "velocity_variance": 0.35769766569137573, "pos_horiz_variance": 0.008168174885213375, "pos_vert_variance": 0.023900456726551056}}, "errors": []}
{"timestamp": "2025-12-28T11:16:46.868202Z", "telemetry": {"lat": 28.7530496, "lon": 77.1179496, "satellites": 10, "altitude_gps_m": 214.0399932861328, "groundspeed_mps": 0.4717786908149719}, "flight": {"mode": "STABILIZE", "armed": false}, "ekf": {"attitude": {"roll": -0.029434997588396072, "pitch": -0.006009466480463743, "yaw": 3.045407772064209}, "local_position": {"x": -2.4980955123901367, "y": 7.150291442871094, "z": -5.119784832000732}, "status": {"flags": 33599, "velocity_variance": 0.16741381585597992, "pos_horiz_variance": 0.008087072521448135, "pos_vert_variance": 0.004191810265183449}}, "errors": []}
{"timestamp": "2025-12-28T11:16:47.868679Z", "telemetry": {"lat": 28.7530439, "lon": 77.1179536, "satellites": 10, "altitude_gps_m": 214.08999633789062, "groundspeed_mps": 0.4288880527019501}, "flight": {"mode": "STABILIZE", "armed": false}, "ekf": {"attitude": {"roll": -0.02910897508263588, "pitch": -0.005241654347628355, "yaw": 3.0453290939331055}, "local_position": {"x": -2.8740711212158203, "y": 7.305775165557861, "z": -5.1619391441345215}, "status": {"flags": 33599, "velocity_variance": 0.42723312973976135, "pos_horiz_variance": 0.012108217924833298, "pos_vert_variance": 0.07598782330751419}}, "errors": []}
{"timestamp": "2025-12-28T11:16:48.868831Z", "telemetry": {"lat": 28.7530468, "lon": 77.1179454, "satellites": 10, "altitude_gps_m": 214.05999755859375, "groundspeed_mps": 0.366696834564209}, "flight": {"mode": "STABILIZE", "armed": false}, "ekf": {"attitude": {"roll": -0.026988502591848373, "pitch": -0.004888496827334166, "yaw": 3.045118808746338}, "local_position": {"x": -3.181992769241333, "y": 6.9625935554504395, "z": -5.136355400085449}, "status": {"flags": 33599, "velocity_variance": 0.3205113708972931, "pos_horiz_variance": 0.0034685011487454176, "pos_vert_variance": 0.045365337282419205}}, "errors": []}
{"timestamp": "2025-12-28T11:16:49.868002Z", "telemetry": {"lat": 28.7530484, "lon": 77.1179377, "satellites": 10, "altitude_gps_m": 214.02999877929688, "groundspeed_mps": 0.3854173421859741}, "flight": {"mode": "STABILIZE", "armed": false}, "ekf": {"attitude": {"roll": -0.025838788598775864, "pitch": -0.003949058707803488, "yaw": 3.044949769973755}, "local_position": {"x": -3.4781086444854736, "y": 6.4404802322387695, "z": -5.108760833740234}, "status": {"flags": 33599, "velocity_variance": 0.19112029671669006, "pos_horiz_variance": 0.008805724792182446, "pos_vert_variance": 0.05064272880554199}}, "errors": []}
{"timestamp": "2025-12-28T11:16:50.869666Z", "telemetry": {"lat": 28.7530446, "lon": 77.1179412, "satellites": 10, "altitude_gps_m": 213.97999572753906, "groundspeed_mps": 0.3663901686668396}, "flight": {"mode": "STABILIZE", "armed": false}, "ekf": {"attitude": {"roll": -0.026719126850366592, "pitch": -0.003858476411551237, "yaw": 3.0448522567749023}, "local_position": {"x": -3.6933794021606445, "y": 6.342613220214844, "z": -5.051307678222656}, "status": {"flags": 33599, "velocity_variance": 0.1485847383737564, "pos_horiz_variance": 0.0028222480323165655, "pos_vert_variance": 0.018278270959854126}}, "errors": []}
{"timestamp": "2025-12-28T11:16:51.867977Z", "telemetry": {"lat": 28.7530406, "lon": 77.1179419, "satellites": 9, "altitude_gps_m": 213.97999572753906, "groundspeed_mps": 0.3631652295589447}, "flight": {"mode": "STABILIZE", "armed": false}, "ekf": {"attitude": {"roll": -0.02741871401667595, "pitch": -0.004227993544191122, "yaw": 3.044787645339966}, "local_position": {"x": -3.953399419784546, "y": 6.32158088684082, "z": -5.086065769195557}, "status": {"flags": 33599, "velocity_variance": 0.26855191588401794, "pos_horiz_variance": 0.0019673393107950687, "pos_vert_variance": 0.019829068332910538}}, "errors": []}
{"timestamp": "2025-12-28T11:16:52.868745Z", "telemetry": {"lat": 28.7530297, "lon": 77.1179443, "satellites": 9, "altitude_gps_m": 213.95999145507812, "groundspeed_mps": 0.4075102210044861}, "flight": {"mode": "STABILIZE", "armed": false}, "ekf": {"attitude": {"roll": -0.02739029750227928, "pitch": -0.004713104572147131, "yaw": 3.0448482036590576}, "local_position": {"x": -4.606923580169678, "y": 6.452620029449463, "z": -5.038814544677734}, "status": {"flags": 33599, "velocity_variance": 0.32312148809432983, "pos_horiz_variance": 0.009495808742940426, "pos_vert_variance": 0.017444957047700882}}, "errors": []}
{"timestamp": "2025-12-28T11:16:53.870859Z", "telemetry": {"lat": 28.753023, "lon": 77.1179423, "satellites": 10, "altitude_gps_m": 214.0699920654297, "groundspeed_mps": 0.45740386843681335}, "flight": {"mode": "STABILIZE", "armed": false}, "ekf": {"attitude": {"roll": -0.02640325203537941, "pitch": -0.004535549785941839, "yaw": 3.0447850227355957}, "local_position": {"x": -5.082319259643555, "y": 6.127652645111084, "z": -5.150205135345459}, "status": {"flags": 33599, "velocity_variance": 0.32437944412231445, "pos_horiz_variance": 0.01414540410041809, "pos_vert_variance": 0.04863450676202774}}, "errors": []}
{"timestamp": "2025-12-28T11:16:54.868906Z", "telemetry": {"lat": 28.7530225, "lon": 77.1179386, "satellites": 9, "altitude_gps_m": 214.1999969482422, "groundspeed_mps": 0.47492706775665283}, "flight": {"mode": "STABILIZE", "armed": false}, "ekf": {"attitude": {"roll": -0.026269372552633286, "pitch": -0.004260529298335314, "yaw": 3.0445520877838135}, "local_position": {"x": -5.350360870361328, "y": 5.746227741241455, "z": -5.236876964569092}, "status": {"flags": 33599, "velocity_variance": 0.44144436717033386, "pos_horiz_variance": 0.012080278247594833, "pos_vert_variance": 0.06915838271379471}}, "errors": []}
{"timestamp": "2025-12-28T11:16:55.868627Z", "telemetry": {"lat": 28.7530212, "lon": 77.1179433, "satellites": 9, "altitude_gps_m": 214.22000122070312, "groundspeed_mps": 0.4204775393009186}, "flight": {"mode": "STABILIZE", "armed": false}, "ekf": {"attitude": {"roll": -0.02877134457230568, "pitch": -0.00497479597106576, "yaw": 3.0445847511291504}, "local_position": {"x": -5.956639289855957, "y": 6.290069580078125, "z": -5.29451322555542}, "status": {"flags": 33599, "velocity_variance": 0.39160364866256714, "pos_horiz_variance": 0.006492159329354763, "pos_vert_variance": 0.031864017248153687}}, "errors": []}
{"timestamp": "2025-12-28T11:16:56.868780Z", "telemetry": {"lat": 28.7530167, "lon": 77.1179493, "satellites": 9, "altitude_gps_m": 214.05999755859375, "groundspeed_mps": 0.45998480916023254}, "flight": {"mode": "STABILIZE", "armed": false}, "ekf": {"attitude": {"roll": -0.03116821125149727, "pitch": -0.006179975811392069, "yaw": 3.044640064239502}, "local_position": {"x": -6.671642780303955, "y": 6.946113586425781, "z": -5.139150142669678}, "status": {"flags": 33599, "velocity_variance": 0.2889796197414398, "pos_horiz_variance": 0.005764508154243231, "pos_vert_variance": 0.009392142295837402}}, "errors": []}
{"timestamp": "2025-12-28T11:16:57.868656Z", "telemetry": {"lat": 28.7530264, "lon": 77.1179463, "satellites": 8, "altitude_gps_m": 213.97000122070312, "groundspeed_mps": 0.36250439286231995}, "flight": {"mode": "STABILIZE", "armed": false}, "ekf": {"attitude": {"roll": -0.032122816890478134, "pitch": -0.004463359247893095, "yaw": 3.0447399616241455}, "local_position": {"x": -6.6685686111450195, "y": 7.148593425750732, "z": -5.046730995178223}, "status": {"flags": 33599, "velocity_variance": 0.2741728723049164, "pos_horiz_variance": 0.016219783574342728, "pos_vert_variance": 0.011529152281582355}}, "errors": []}
{"timestamp": "2025-12-28T11:16:58.868331Z", "telemetry": {"lat": 28.7530307, "lon": 77.1179443, "satellites": 8, "altitude_gps_m": 214.0699920654297, "groundspeed_mps": 0.24979029595851898}, "flight": {"mode": "STABILIZE", "armed": false}, "ekf": {"attitude": {"roll": -0.03163762018084526, "pitch": -0.0036707972176373005, "yaw": 3.044678211212158}, "local_position": {"x": -6.464501857757568, "y": 7.005737781524658, "z": -5.146701812744141}, "status": {"flags": 33599, "velocity_variance": 0.0719185471534729, "pos_horiz_variance": 0.021032722666859627, "pos_vert_variance": 0.034616198390722275}}, "errors": []}
{"timestamp": "2025-12-28T11:16:59.868362Z", "telemetry": {"lat": 28.7530358, "lon": 77.1179386, "satellites": 8, "altitude_gps_m": 214.0699920654297, "groundspeed_mps": 0.14604555070400238}, "flight": {"mode": "STABILIZE", "armed": false}, "ekf": {"attitude": {"roll": -0.030839581042528152, "pitch": -0.002042426262050867, "yaw": 3.0446529388427734}, "local_position": {"x": -6.187234401702881, "y": 6.721173286437988, "z": -5.145840644836426}, "status": {"flags": 33599, "velocity_variance": 0.4079247713088989, "pos_horiz_variance": 0.02679607830941677, "pos_vert_variance": 0.03700558841228485}}, "errors": []}
{"timestamp": "2025-12-28T11:17:00.868563Z", "telemetry": {"lat": 28.7530411, "lon": 77.1179339, "satellites": 9, "altitude_gps_m": 214.0399932861328, "groundspeed_mps": 0.16211333870887756}, "flight": {"mode": "STABILIZE", "armed": false}, "ekf": {"attitude": {"roll": -0.030336979776620865, "pitch": -0.0009610634297132492, "yaw": 3.0446674823760986}, "local_position": {"x": -5.665863513946533, "y": 6.199593544006348, "z": -5.118037700653076}, "status": {"flags": 33599, "velocity_variance": 0.24199709296226501, "pos_horiz_variance": 0.02741190977394581, "pos_vert_variance": 0.021433141082525253}}, "errors": []}
{"timestamp": "2025-12-28T11:17:01.868651Z", "telemetry": {"lat": 28.7530419, "lon": 77.1179405, "satellites": 9, "altitude_gps_m": 214.01998901367188, "groundspeed_mps": 0.01388323400169611}, "flight": {"mode": "STABILIZE", "armed": false}, "ekf": {"attitude": {"roll": -0.03229350224137306, "pitch": -0.0020668525248765945, "yaw": 3.0447821617126465}, "local_position": {"x": -5.617591381072998, "y": 6.54795503616333, "z": -5.086151123046875}, "status": {"flags": 33599, "velocity_variance": 0.2596966028213501, "pos_horiz_variance": 0.02698543667793274, "pos_vert_variance": 0.023240258917212486}}, "errors": []}
{"timestamp": "2025-12-28T11:17:02.868646Z", "telemetry": {"lat": 28.7530461, "lon": 77.1179397, "satellites": 9, "altitude_gps_m": 214.02999877929688, "groundspeed_mps": 0.04274513199925423}, "flight": {"mode": "STABILIZE", "armed": false}, "ekf": {"attitude": {"roll": -0.03222934529185295, "pitch": -0.0016524284146726131, "yaw": 3.0448920726776123}, "local_position": {"x": -5.400174140930176, "y": 6.643626689910889, "z": -5.104409694671631}, "status": {"flags": 33599, "velocity_variance": 0.18721790611743927, "pos_horiz_variance": 0.03122670389711857, "pos_vert_variance": 0.02850610576570034}}, "errors": []}
{"timestamp": "2025-12-28T11:17:03.868551Z", "telemetry": {"lat": 28.7530538, "lon": 77.1179395, "satellites": 7, "altitude_gps_m": 214.02999877929688, "groundspeed_mps": 0.18638984858989716}, "flight": {"mode": "STABILIZE", "armed": false}, "ekf": {"attitude": {"roll": -0.03261975571513176, "pitch": -0.0006360220722854137, "yaw": 3.0447349548339844}, "local_position": {"x": -4.811776161193848, "y": 6.610631942749023, "z": -5.113229274749756}, "status": {"flags": 33599, "velocity_variance": 0.07652529329061508, "pos_horiz_variance": 0.0348055437207222, "pos_vert_variance": 0.007236566860228777}}, "errors": []}
{"timestamp": "2025-12-28T11:17:04.868854Z", "telemetry": {"lat": 28.7530701, "lon": 77.1179238, "satellites": 7, "altitude_gps_m": 214.04998779296875, "groundspeed_mps": 0.5105687975883484}, "flight": {"mode": "STABILIZE", "armed": false}, "ekf": {"attitude": {"roll": -0.030194278806447983, "pitch": 0.002340050647035241, "yaw": 3.0446560382843018}, "local_position": {"x": -3.549039125442505, "y": 5.893551349639893, "z": -5.112367630004883}, "status": {"flags": 33599, "velocity_variance": 0.49568310379981995, "pos_horiz_variance": 0.04646774381399155, "pos_vert_variance": 0.05888937786221504}}, "errors": []}
{"timestamp": "2025-12-28T11:17:05.868097Z", "telemetry": {"lat": 28.7530769, "lon": 77.1179135, "satellites": 7, "altitude_gps_m": 214.12998962402344, "groundspeed_mps": 0.6832799315452576}, "flight": {"mode": "STABILIZE", "armed": false}, "ekf": {"attitude": {"roll": -0.029017802327871323, "pitch": 0.0032680602744221687, "yaw": 3.04449200630188}, "local_position": {"x": -2.406705379486084, "y": 4.9343767166137695, "z": -5.208926200866699}, "status": {"flags": 33599, "velocity_variance": 0.1710408478975296, "pos_horiz_variance": 0.04287084937095642, "pos_vert_variance": 0.012146894820034504}}, "errors": []}
{"timestamp": "2025-12-28T11:17:06.868772Z", "telemetry": {"lat": 28.7530753, "lon": 77.1179141, "satellites": 7, "altitude_gps_m": 214.11000061035156, "groundspeed_mps": 0.7094399929046631}, "flight": {"mode": "STABILIZE", "armed": false}, "ekf": {"attitude": {"roll": -0.02978576347231865, "pitch": 0.0023065670393407345, "yaw": 3.0443975925445557}, "local_position": {"x": -1.7922028303146362, "y": 4.558842182159424, "z": -5.183149814605713}, "status": {"flags": 33599, "velocity_variance": 0.07423433661460876, "pos_horiz_variance": 0.030389510095119476, "pos_vert_variance": 0.08250942826271057}}, "errors": []}
