{"timestamp": "2026-01-07T16:41:03.982768Z", "telemetry": {"lat": null, "lon": null, "satellites": null, "altitude_gps_m": 689.9500122070312, "groundspeed_mps": 1.2337969541549683}, "flight": {"mode": null, "armed": null}, "ekf": {"attitude": {"roll": -0.0769147127866745, "pitch": 0.023243559524416924, "yaw": 1.6405643224716187}, "local_position": {"x": null, "y": null, "z": null}, "status": {"flags": null, "velocity_variance": null, "pos_horiz_variance": null, "pos_vert_variance": null}}, "errors": ["ArduCopter V4.6.1 (57591cb8)", "ChibiOS: 88b84600", "fmuv3 00240032 33385119 36353030", "IOMCU: 420 1001 411FC231", "RCOut: PWM:1-14", "IMU0: fast sampling enabled 8.0kHz/1.0kHz", "Frame: QUAD/X"]}
{"timestamp": "2026-01-07T16:41:04.980519Z", "telemetry": {"lat": 28.7530494, "lon": 77.117355, "satellites": 6, "altitude_gps_m": 642.3499755859375, "groundspeed_mps": 0.49706923961639404}, "flight": {"mode": "STABILIZE", "armed": false}, "ekf": {"attitude": {"roll": -0.05576435849070549, "pitch": -0.08000567555427551, "yaw": 2.789043426513672}, "local_position": {"x": null, "y": null, "z": null}, "status": {"flags": 1024, "velocity_variance": 0.0, "pos_horiz_variance": 0.24804244935512543, "pos_vert_variance": 0.03356059640645981}}, "errors": ["ArduCopter V4.6.1 (57591cb8)", "ChibiOS: 88b84600", "fmuv3 00240032 33385119 36353030", "IOMCU: 420 1001 411FC231", "RCOut: PWM:1-14", "IMU0: fast sampling enabled 8.0kHz/1.0kHz", "Frame: QUAD/X", "ArduCopter V4.6.1 (57591cb8)", "ChibiOS: 88b84600", "fmuv3 00240032 33385119 36353030", "IOMCU: 420 1001 411FC231", "RCOut: PWM:1-14", "IMU0: fast sampling enabled 8.0kHz/1.0kHz", "Frame: QUAD/X"]}
{"timestamp": "2026-01-07T16:41:05.948867Z", "telemetry": {"lat": 28.7530515, "lon": 77.1173858, "satellites": 6, "altitude_gps_m": 605.4400024414062, "groundspeed_mps": 0.17752981185913086}, "flight": {"mode": "STABILIZE", "armed": false}, "ekf": {"attitude": {"roll": -0.08427521586418152, "pitch": -0.07602111250162125, "yaw": 2.5987749099731445}, "local_position": {"x": null, "y": null, "z": null}, "status": {"flags": 135, "velocity_variance": 0.0, "pos_horiz_variance": 0.1247522160410881, "pos_vert_variance": 0.031952109187841415}}, "errors": ["ChibiOS: 88b84600", "fmuv3 00240032 33385119 36353030", "IOMCU: 420 1001 411FC231", "RCOut: PWM:1-14", "IMU0: fast sampling enabled 8.0kHz/1.0kHz", "Frame: QUAD/X", "ArduCopter V4.6.1 (57591cb8)", "ChibiOS: 88b84600", "fmuv3 00240032 33385119 36353030", "IOMCU: 420 1001 411FC231", "RCOut: PWM:1-14", "IMU0: fast sampling enabled 8.0kHz/1.0kHz", "Frame: QUAD/X", "ArduCopter V4.6.1 (57591cb8)", "ChibiOS: 88b84600", "fmuv3 00240032 33385119 36353030", "IOMCU: 420 1001 411FC231", "RCOut: PWM:1-14", "IMU0: fast sampling enabled 8.0kHz/1.0kHz", "Frame: QUAD/X"]}
{"timestamp": "2026-01-07T16:41:06.948591Z", "telemetry": {"lat": 28.7530496, "lon": 77.1174091, "satellites": 6, "altitude_gps_m": 582.4599609375, "groundspeed_mps": 0.43250608444213867}, "flight": {"mode": "STABILIZE", "armed": false}, "ekf": {"attitude": {"roll": -0.09549607336521149, "pitch": -0.09309182316064835, "yaw": 2.6416232585906982}, "local_position": {"x": null, "y": null, "z": null}, "status": {"flags": 135, "velocity_variance": 0.0, "pos_horiz_variance": 0.036143068224191666, "pos_vert_variance": 0.027498887851834297}}, "errors": ["ChibiOS: 88b84600", "fmuv3 00240032 33385119 36353030", "IOMCU: 420 1001 411FC231", "RCOut: PWM:1-14", "IMU0: fast sampling enabled 8.0kHz/1.0kHz", "Frame: QUAD/X", "ArduCopter V4.6.1 (57591cb8)", "ChibiOS: 88b84600", "fmuv3 00240032 33385119 36353030", "IOMCU: 420 1001 411FC231", "RCOut: PWM:1-14", "IMU0: fast sampling enabled 8.0kHz/1.0kHz", "Frame: QUAD/X", "ArduCopter V4.6.1 (57591cb8)", "ChibiOS: 88b84600", "fmuv3 00240032 33385119 36353030", "IOMCU: 420 1001 411FC231", "RCOut: PWM:1-14", "IMU0: fast sampling enabled 8.0kHz/1.0kHz", "Frame: QUAD/X"]}
{"timestamp": "2026-01-07T16:41:07.948509Z", "telemetry": {"lat": 28.7530545, "lon": 77.1174323, "satellites": 6, "altitude_gps_m": 560.510009765625, "groundspeed_mps": 0.625759482383728}, "flight": {"mode": "STABILIZE", "armed": false}, "ekf": {"attitude": {"roll": -0.09201829135417938, "pitch": -0.09349431097507477, "yaw": 2.6271591186523438}, "local_position": {"x": null, "y": null, "z": null}, "status": {"flags": 135, "velocity_variance": 0.0, "pos_horiz_variance": 0.057883672416210175, "pos_vert_variance": 0.01028125174343586}}, "errors": ["ChibiOS: 88b84600", "fmuv3 00240032 33385119 36353030", "IOMCU: 420 1001 411FC231", "RCOut: PWM:1-14", "IMU0: fast sampling enabled 8.0kHz/1.0kHz", "Frame: QUAD/X", "ArduCopter V4.6.1 (57591cb8)", "ChibiOS: 88b84600", "fmuv3 00240032 33385119 36353030", "IOMCU: 420 1001 411FC231", "RCOut: PWM:1-14", "IMU0: fast sampling enabled 8.0kHz/1.0kHz", "Frame: QUAD/X", "ArduCopter V4.6.1 (57591cb8)", "ChibiOS: 88b84600", "fmuv3 00240032 33385119 36353030", "IOMCU: 420 1001 411FC231", "RCOut: PWM:1-14", "IMU0: fast sampling enabled 8.0kHz/1.0kHz", "Frame: QUAD/X"]}
{"timestamp": "2026-01-07T16:41:08.952767Z", "telemetry": {"lat": 28.7530713, "lon": 77.117474, "satellites": 6, "altitude_gps_m": 521.4400024414062, "groundspeed_mps": 0.711222767829895}, "flight": {"mode": "STABILIZE", "armed": false}, "ekf": {"attitude": {"roll": -0.0816955715417862, "pitch": -0.12884122133255005, "yaw": 2.6385903358459473}, "local_position": {"x": null, "y": null, "z": null}, "status": {"flags": 135, "velocity_variance": 0.0, "pos_horiz_variance": 0.1606970876455307, "pos_vert_variance": 0.0006322860717773438}}, "errors": ["ChibiOS: 88b84600", "fmuv3 00240032 33385119 36353030", "IOMCU: 420 1001 411FC231", "RCOut: PWM:1-14", "IMU0: fast sampling enabled 8.0kHz/1.0kHz", "Frame: QUAD/X", "ArduCopter V4.6.1 (57591cb8)", "ChibiOS: 88b84600", "fmuv3 00240032 33385119 36353030", "IOMCU: 420 1001 411FC231", "RCOut: PWM:1-14", "IMU0: fast sampling enabled 8.0kHz/1.0kHz", "Frame: QUAD/X", "ArduCopter V4.6.1 (57591cb8)", "ChibiOS: 88b84600", "fmuv3 00240032 33385119 36353030", "IOMCU: 420 1001 411FC231", "RCOut: PWM:1-14", "IMU0: fast sampling enabled 8.0kHz/1.0kHz", "Frame: QUAD/X"]}
{"timestamp": "2026-01-07T16:41:09.923154Z", "telemetry": {"lat": 28.7530767, "lon": 77.1174945, "satellites": 6, "altitude_gps_m": 500.9499816894531, "groundspeed_mps": 0.6577311754226685}, "flight": {"mode": "STABILIZE", "armed": false}, "ekf": {"attitude": {"roll": -0.08669683337211609, "pitch": -0.10549245029687881, "yaw": 2.6312718391418457}, "local_position": {"x": null, "y": null, "z": null}, "status": {"flags": 135, "velocity_variance": 0.0, "pos_horiz_variance": 0.1772754192352295, "pos_vert_variance": 0.017694367095828056}}, "errors": ["ChibiOS: 88b84600", "fmuv3 00240032 33385119 36353030", "IOMCU: 420 1001 411FC231", "RCOut: PWM:1-14", "IMU0: fast sampling enabled 8.0kHz/1.0kHz", "Frame: QUAD/X", "ArduCopter V4.6.1 (57591cb8)", "ChibiOS: 88b84600", "fmuv3 00240032 33385119 36353030", "IOMCU: 420 1001 411FC231", "RCOut: PWM:1-14", "IMU0: fast sampling enabled 8.0kHz/1.0kHz", "Frame: QUAD/X", "ArduCopter V4.6.1 (57591cb8)", "ChibiOS: 88b84600", "fmuv3 00240032 33385119 36353030", "IOMCU: 420 1001 411FC231", "RCOut: PWM:1-14", "IMU0: fast sampling enabled 8.0kHz/1.0kHz", "Frame: QUAD/X"]}
{"timestamp": "2026-01-07T16:41:10.922263Z", "telemetry": {"lat": 28.7530853, "lon": 77.1175088, "satellites": 6, "altitude_gps_m": 480.28997802734375, "groundspeed_mps": 0.5081543326377869}, "flight": {"mode": "STABILIZE", "armed": false}, "ekf": {"attitude": {"roll": -0.08398067951202393, "pitch": -0.0934683308005333, "yaw": 2.6252095699310303}, "local_position": {"x": null, "y": null, "z": null}, "status": {"flags": 135, "velocity_variance": 0.0, "pos_horiz_variance": 0.17061510682106018, "pos_vert_variance": 0.015573178417980671}}, "errors": ["ChibiOS: 88b84600", "fmuv3 00240032 33385119 36353030", "IOMCU: 420 1001 411FC231", "RCOut: PWM:1-14", "IMU0: fast sampling enabled 8.0kHz/1.0kHz", "Frame: QUAD/X", "ArduCopter V4.6.1 (57591cb8)", "ChibiOS: 88b84600", "fmuv3 00240032 33385119 36353030", "IOMCU: 420 1001 411FC231", "RCOut: PWM:1-14", "IMU0: fast sampling enabled 8.0kHz/1.0kHz", "Frame: QUAD/X", "ArduCopter V4.6.1 (57591cb8)", "ChibiOS: 88b84600", "fmuv3 00240032 33385119 36353030", "IOMCU: 420 1001 411FC231", "RCOut: PWM:1-14", "IMU0: fast sampling enabled 8.0kHz/1.0kHz", "Frame: QUAD/X"]}
{"timestamp": "2026-01-07T16:41:11.923331Z", "telemetry": {"lat": 28.7530857, "lon": 77.1175254, "satellites": 6, "altitude_gps_m": 463.5199890136719, "groundspeed_mps": 0.34723472595214844}, "flight": {"mode": "STABILIZE", "armed": false}, "ekf": {"attitude": {"roll": -0.0861322283744812, "pitch": -0.09990750998258591, "yaw": 2.645348072052002}, "local_position": {"x": null, "y": null, "z": null}, "status": {"flags": 135, "velocity_variance": 0.0, "pos_horiz_variance": 0.14078138768672943, "pos_vert_variance": 0.0073090954683721066}}, "errors": ["ArduCopter V4.6.1 (57591cb8)", "ChibiOS: 88b84600", "fmuv3 00240032 33385119 36353030", "IOMCU: 420 1001 411FC231", "RCOut: PWM:1-14", "IMU0: fast sampling enabled 8.0kHz/1.0kHz", "Frame: QUAD/X", "ArduCopter V4.6.1 (57591cb8)", "ChibiOS: 88b84600", "fmuv3 00240032 33385119 36353030", "IOMCU: 420 1001 411FC231", "RCOut: PWM:1-14", "IMU0: fast sampling enabled 8.0kHz/1.0kHz", "Frame: QUAD/X", "EKF3 IMU1 forced reset", "EKF3 IMU1 initialised", "PreArm: Hardware safety switch", "PreArm: Check mag field (xy diff:121>115)", "PreArm: AHRS: EKF3 Yaw inconsistent 149 deg. Wait ", "or reboot"]}
{"timestamp": "2026-01-07T16:41:12.922195Z", "telemetry": {"lat": 28.7530936, "lon": 77.1175346, "satellites": 6, "altitude_gps_m": 445.0099792480469, "groundspeed_mps": 0.2019984871149063}, "flight": {"mode": "STABILIZE", "armed": false}, "ekf": {"attitude": {"roll": -0.08003164827823639, "pitch": -0.09819120913743973, "yaw": 2.6438326835632324}, "local_position": {"x": null, "y": null, "z": null}, "status": {"flags": 135, "velocity_variance": 0.0, "pos_horiz_variance": 0.10335090756416321, "pos_vert_variance": 0.0014147738693282008}}, "errors": ["ArduCopter V4.6.1 (57591cb8)", "ChibiOS: 88b84600", "fmuv3 00240032 33385119 36353030", "IOMCU: 420 1001 411FC231", "RCOut: PWM:1-14", "IMU0: fast sampling enabled 8.0kHz/1.0kHz", "Frame: QUAD/X", "ArduCopter V4.6.1 (57591cb8)", "ChibiOS: 88b84600", "fmuv3 00240032 33385119 36353030", "IOMCU: 420 1001 411FC231", "RCOut: PWM:1-14", "IMU0: fast sampling enabled 8.0kHz/1.0kHz", "Frame: QUAD/X", "EKF3 IMU1 forced reset", "EKF3 IMU1 initialised", "PreArm: Hardware safety switch", "PreArm: Check mag field (xy diff:121>115)", "PreArm: AHRS: EKF3 Yaw inconsistent 149 deg. Wait ", "or reboot"]}
{"timestamp": "2026-01-07T16:41:13.926254Z", "telemetry": {"lat": 28.7531005, "lon": 77.1175486, "satellites": 6, "altitude_gps_m": 428.989990234375, "groundspeed_mps": 0.09513793885707855}, "flight": {"mode": "STABILIZE", "armed": false}, "ekf": {"attitude": {"roll": -0.08359146118164062, "pitch": -0.09816724061965942, "yaw": 2.614812135696411}, "local_position": {"x": null, "y": null, "z": null}, "status": {"flags": 135, "velocity_variance": 0.0, "pos_horiz_variance": 0.06482112407684326, "pos_vert_variance": 0.07748410105705261}}, "errors": ["fmuv3 00240032 33385119 36353030", "IOMCU: 420 1001 411FC231", "RCOut: PWM:1-14", "IMU0: fast sampling enabled 8.0kHz/1.0kHz", "Frame: QUAD/X", "ArduCopter V4.6.1 (57591cb8)", "ChibiOS: 88b84600", "fmuv3 00240032 33385119 36353030", "IOMCU: 420 1001 411FC231", "RCOut: PWM:1-14", "IMU0: fast sampling enabled 8.0kHz/1.0kHz", "Frame: QUAD/X", "EKF3 IMU1 forced reset", "EKF3 IMU1 initialised", "PreArm: Hardware safety switch", "PreArm: Check mag field (xy diff:121>115)", "PreArm: AHRS: EKF3 Yaw inconsistent 149 deg. Wait ", "or reboot", "EKF3 IMU1 tilt alignment complete", "EKF3 IMU1 MAG0 initial yaw alignment complete"]}
{"timestamp": "2026-01-07T16:41:14.925945Z", "telemetry": {"lat": 28.7531047, "lon": 77.1175622, "satellites": 6, "altitude_gps_m": 414.2599792480469, "groundspeed_mps": 0.16017340123653412}, "flight": {"mode": "STABILIZE", "armed": false}, "ekf": {"attitude": {"roll": -0.08671095967292786, "pitch": -0.11455050855875015, "yaw": 2.557865619659424}, "local_position": {"x": null, "y": null, "z": null}, "status": {"flags": 135, "velocity_variance": 0.0, "pos_horiz_variance": 0.03384609520435333, "pos_vert_variance": 0.051179610192775726}}, "errors": ["fmuv3 00240032 33385119 36353030", "IOMCU: 420 1001 411FC231", "RCOut: PWM:1-14", "IMU0: fast sampling enabled 8.0kHz/1.0kHz", "Frame: QUAD/X", "ArduCopter V4.6.1 (57591cb8)", "ChibiOS: 88b84600", "fmuv3 00240032 33385119 36353030", "IOMCU: 420 1001 411FC231", "RCOut: PWM:1-14", "IMU0: fast sampling enabled 8.0kHz/1.0kHz", "Frame: QUAD/X", "EKF3 IMU1 forced reset", "EKF3 IMU1 initialised", "PreArm: Hardware safety switch", "PreArm: Check mag field (xy diff:121>115)", "PreArm: AHRS: EKF3 Yaw inconsistent 149 deg. Wait ", "or reboot", "EKF3 IMU1 tilt alignment complete", "EKF3 IMU1 MAG0 initial yaw alignment complete"]}
{"timestamp": "2026-01-07T16:41:15.940393Z", "telemetry": {"lat": 28.7531063, "lon": 77.1175691, "satellites": 6, "altitude_gps_m": 401.5899963378906, "groundspeed_mps": 0.6344991326332092}, "flight": {"mode": "STABILIZE", "armed": false}, "ekf": {"attitude": {"roll": -0.06680165231227875, "pitch": -0.11466458439826965, "yaw": 2.569931745529175}, "local_position": {"x": null, "y": null, "z": null}, "status": {"flags": 135, "velocity_variance": 0.0, "pos_horiz_variance": 0.03970494866371155, "pos_vert_variance": 0.010875585488975048}}, "errors": ["fmuv3 00240032 33385119 36353030", "IOMCU: 420 1001 411FC231", "RCOut: PWM:1-14", "IMU0: fast sampling enabled 8.0kHz/1.0kHz", "Frame: QUAD/X", "ArduCopter V4.6.1 (57591cb8)", "ChibiOS: 88b84600", "fmuv3 00240032 33385119 36353030", "IOMCU: 420 1001 411FC231", "RCOut: PWM:1-14", "IMU0: fast sampling enabled 8.0kHz/1.0kHz", "Frame: QUAD/X", "EKF3 IMU1 forced reset", "EKF3 IMU1 initialised", "PreArm: Hardware safety switch", "PreArm: Check mag field (xy diff:121>115)", "PreArm: AHRS: EKF3 Yaw inconsistent 149 deg. Wait ", "or reboot", "EKF3 IMU1 tilt alignment complete", "EKF3 IMU1 MAG0 initial yaw alignment complete"]}
{"timestamp": "2026-01-07T16:41:16.944439Z", "telemetry": {"lat": 28.7531114, "lon": 77.1175845, "satellites": 6, "altitude_gps_m": 389.29998779296875, "groundspeed_mps": 1.1246095895767212}, "flight": {"mode": "STABILIZE", "armed": false}, "ekf": {"attitude": {"roll": -0.14621171355247498, "pitch": -0.06043015047907829, "yaw": 3.043513059616089}, "local_position": {"x": null, "y": null, "z": null}, "status": {"flags": 135, "velocity_variance": 0.0, "pos_horiz_variance": 0.15909947454929352, "pos_vert_variance": 0.00741164293140173}}, "errors": ["fmuv3 00240032 33385119 36353030", "IOMCU: 420 1001 411FC231", "RCOut: PWM:1-14", "IMU0: fast sampling enabled 8.0kHz/1.0kHz", "Frame: QUAD/X", "ArduCopter V4.6.1 (57591cb8)", "ChibiOS: 88b84600", "fmuv3 00240032 33385119 36353030", "IOMCU: 420 1001 411FC231", "RCOut: PWM:1-14", "IMU0: fast sampling enabled 8.0kHz/1.0kHz", "Frame: QUAD/X", "EKF3 IMU1 forced reset", "EKF3 IMU1 initialised", "PreArm: Hardware safety switch", "PreArm: Check mag field (xy diff:121>115)", "PreArm: AHRS: EKF3 Yaw inconsistent 149 deg. Wait ", "or reboot", "EKF3 IMU1 tilt alignment complete", "EKF3 IMU1 MAG0 initial yaw alignment complete"]}
{"timestamp": "2026-01-07T16:41:17.944606Z", "telemetry": {"lat": 28.7531168, "lon": 77.1175955, "satellites": 6, "altitude_gps_m": 376.19000244140625, "groundspeed_mps": 1.0393035411834717}, "flight": {"mode": "STABILIZE", "armed": false}, "ekf": {"attitude": {"roll": -0.19742576777935028, "pitch": -0.11431742459535599, "yaw": -2.930832624435425}, "local_position": {"x": null, "y": null, "z": null}, "status": {"flags": 135, "velocity_variance": 0.0, "pos_horiz_variance": 0.2302674502134323, "pos_vert_variance": 0.01920994371175766}}, "errors": ["fmuv3 00240032 33385119 36353030", "IOMCU: 420 1001 411FC231", "RCOut: PWM:1-14", "IMU0: fast sampling enabled 8.0kHz/1.0kHz", "Frame: QUAD/X", "ArduCopter V4.6.1 (57591cb8)", "ChibiOS: 88b84600", "fmuv3 00240032 33385119 36353030", "IOMCU: 420 1001 411FC231", "RCOut: PWM:1-14", "IMU0: fast sampling enabled 8.0kHz/1.0kHz", "Frame: QUAD/X", "EKF3 IMU1 forced reset", "EKF3 IMU1 initialised", "PreArm: Hardware safety switch", "PreArm: Check mag field (xy diff:121>115)", "PreArm: AHRS: EKF3 Yaw inconsistent 149 deg. Wait ", "or reboot", "EKF3 IMU1 tilt alignment complete", "EKF3 IMU1 MAG0 initial yaw alignment complete"]}
{"timestamp": "2026-01-07T16:41:18.914946Z", "telemetry": {"lat": 28.7531279, "lon": 77.1176044, "satellites": 7, "altitude_gps_m": 360.3500061035156, "groundspeed_mps": 0.3677966594696045}, "flight": {"mode": "STABILIZE", "armed": false}, "ekf": {"attitude": {"roll": -0.19123154878616333, "pitch": -0.027890389785170555, "yaw": -2.924910545349121}, "local_position": {"x": null, "y": null, "z": null}, "status": {"flags": 135, "velocity_variance": 0.0, "pos_horiz_variance": 0.2302674502134323, "pos_vert_variance": 0.01920994371175766}}, "errors": ["fmuv3 00240032 33385119 36353030", "IOMCU: 420 1001 411FC231", "RCOut: PWM:1-14", "IMU0: fast sampling enabled 8.0kHz/1.0kHz", "Frame: QUAD/X", "ArduCopter V4.6.1 (57591cb8)", "ChibiOS: 88b84600", "fmuv3 00240032 33385119 36353030", "IOMCU: 420 1001 411FC231", "RCOut: PWM:1-14", "IMU0: fast sampling enabled 8.0kHz/1.0kHz", "Frame: QUAD/X", "EKF3 IMU1 forced reset", "EKF3 IMU1 initialised", "PreArm: Hardware safety switch", "PreArm: Check mag field (xy diff:121>115)", "PreArm: AHRS: EKF3 Yaw inconsistent 149 deg. Wait ", "or reboot", "EKF3 IMU1 tilt alignment complete", "EKF3 IMU1 MAG0 initial yaw alignment complete"]}
{"timestamp": "2026-01-07T16:41:19.915045Z", "telemetry": {"lat": 28.7531381, "lon": 77.1176243, "satellites": 7, "altitude_gps_m": 339.72998046875, "groundspeed_mps": 0.46740368008613586}, "flight": {"mode": "STABILIZE", "armed": false}, "ekf": {"attitude": {"roll": -0.2421339750289917, "pitch": -0.17117905616760254, "yaw": 3.1099579334259033}, "local_position": {"x": null, "y": null, "z": null}, "status": {"flags": 135, "velocity_variance": 0.0, "pos_horiz_variance": 0.11590281128883362, "pos_vert_variance": 0.057425759732723236}}, "errors": ["fmuv3 00240032 33385119 36353030", "IOMCU: 420 1001 411FC231", "RCOut: PWM:1-14", "IMU0: fast sampling enabled 8.0kHz/1.0kHz", "Frame: QUAD/X", "ArduCopter V4.6.1 (57591cb8)", "ChibiOS: 88b84600", "fmuv3 00240032 33385119 36353030", "IOMCU: 420 1001 411FC231", "RCOut: PWM:1-14", "IMU0: fast sampling enabled 8.0kHz/1.0kHz", "Frame: QUAD/X", "EKF3 IMU1 forced reset", "EKF3 IMU1 initialised", "PreArm: Hardware safety switch", "PreArm: Check mag field (xy diff:121>115)", "PreArm: AHRS: EKF3 Yaw inconsistent 149 deg. Wait ", "or reboot", "EKF3 IMU1 tilt alignment complete", "EKF3 IMU1 MAG0 initial yaw alignment complete"]}
{"timestamp": "2026-01-07T16:41:20.914276Z", "telemetry": {"lat": 28.7531434, "lon": 77.1176414, "satellites": 7, "altitude_gps_m": 322.8800048828125, "groundspeed_mps": 0.9385126829147339}, "flight": {"mode": "STABILIZE", "armed": false}, "ekf": {"attitude": {"roll": -0.2892945408821106, "pitch": -0.08061814308166504, "yaw": 2.6855809688568115}, "local_position": {"x": null, "y": null, "z": null}, "status": {"flags": 135, "velocity_variance": 0.0, "pos_horiz_variance": 0.11075768619775772, "pos_vert_variance": 0.03849010169506073}}, "errors": ["fmuv3 00240032 33385119 36353030", "IOMCU: 420 1001 411FC231", "RCOut: PWM:1-14", "IMU0: fast sampling enabled 8.0kHz/1.0kHz", "Frame: QUAD/X", "ArduCopter V4.6.1 (57591cb8)", "ChibiOS: 88b84600", "fmuv3 00240032 33385119 36353030", "IOMCU: 420 1001 411FC231", "RCOut: PWM:1-14", "IMU0: fast sampling enabled 8.0kHz/1.0kHz", "Frame: QUAD/X", "EKF3 IMU1 forced reset", "EKF3 IMU1 initialised", "PreArm: Hardware safety switch", "PreArm: Check mag field (xy diff:121>115)", "PreArm: AHRS: EKF3 Yaw inconsistent 149 deg. Wait ", "or reboot", "EKF3 IMU1 tilt alignment complete", "EKF3 IMU1 MAG0 initial yaw alignment complete"]}
{"timestamp": "2026-01-07T16:41:21.914165Z", "telemetry": {"lat": 28.753156, "lon": 77.117658, "satellites": 7, "altitude_gps_m": 310.1199951171875, "groundspeed_mps": 0.6724598407745361}, "flight": {"mode": "STABILIZE", "armed": false}, "ekf": {"attitude": {"roll": -0.07701727747917175, "pitch": -0.03668362274765968, "yaw": 3.0525732040405273}, "local_position": {"x": null, "y": null, "z": null}, "status": {"flags": 135, "velocity_variance": 0.0, "pos_horiz_variance": 0.13682341575622559, "pos_vert_variance": 0.02106897346675396}}, "errors": ["fmuv3 00240032 33385119 36353030", "IOMCU: 420 1001 411FC231", "RCOut: PWM:1-14", "IMU0: fast sampling enabled 8.0kHz/1.0kHz", "Frame: QUAD/X", "ArduCopter V4.6.1 (57591cb8)", "ChibiOS: 88b84600", "fmuv3 00240032 33385119 36353030", "IOMCU: 420 1001 411FC231", "RCOut: PWM:1-14", "IMU0: fast sampling enabled 8.0kHz/1.0kHz", "Frame: QUAD/X", "EKF3 IMU1 forced reset", "EKF3 IMU1 initialised", "PreArm: Hardware safety switch", "PreArm: Check mag field (xy diff:121>115)", "PreArm: AHRS: EKF3 Yaw inconsistent 149 deg. Wait ", "or reboot", "EKF3 IMU1 tilt alignment complete", "EKF3 IMU1 MAG0 initial yaw alignment complete"]}
{"timestamp": "2026-01-07T16:41:22.919190Z", "telemetry": {"lat": 28.7531629, "lon": 77.1176658, "satellites": 7, "altitude_gps_m": 299.4499816894531, "groundspeed_mps": 0.9971848726272583}, "flight": {"mode": "STABILIZE", "armed": false}, "ekf": {"attitude": {"roll": 0.03022676706314087, "pitch": -0.015070674940943718, "yaw": -2.889266014099121}, "local_position": {"x": null, "y": null, "z": null}, "status": {"flags": 135, "velocity_variance": 0.0, "pos_horiz_variance": 0.12761153280735016, "pos_vert_variance": 0.027513235807418823}}, "errors": ["fmuv3 00240032 33385119 36353030", "IOMCU: 420 1001 411FC231", "RCOut: PWM:1-14", "IMU0: fast sampling enabled 8.0kHz/1.0kHz", "Frame: QUAD/X", "ArduCopter V4.6.1 (57591cb8)", "ChibiOS: 88b84600", "fmuv3 00240032 33385119 36353030", "IOMCU: 420 1001 411FC231", "RCOut: PWM:1-14", "IMU0: fast sampling enabled 8.0kHz/1.0kHz", "Frame: QUAD/X", "EKF3 IMU1 forced reset", "EKF3 IMU1 initialised", "PreArm: Hardware safety switch", "PreArm: Check mag field (xy diff:121>115)", "PreArm: AHRS: EKF3 Yaw inconsistent 149 deg. Wait ", "or reboot", "EKF3 IMU1 tilt alignment complete", "EKF3 IMU1 MAG0 initial yaw alignment complete"]}
{"timestamp": "2026-01-07T16:41:23.948621Z", "telemetry": {"lat": 28.7531759, "lon": 77.1176757, "satellites": 7, "altitude_gps_m": 291.2799987792969, "groundspeed_mps": 1.1148885488510132}, "flight": {"mode": "STABILIZE", "armed": false}, "ekf": {"attitude": {"roll": 0.09464579075574875, "pitch": 0.026736369356513023, "yaw": -2.778427839279175}, "local_position": {"x": null, "y": null, "z": null}, "status": {"flags": 135, "velocity_variance": 0.0, "pos_horiz_variance": 0.21903416514396667, "pos_vert_variance": 0.04248427599668503}}, "errors": ["fmuv3 00240032 33385119 36353030", "IOMCU: 420 1001 411FC231", "RCOut: PWM:1-14", "IMU0: fast sampling enabled 8.0kHz/1.0kHz", "Frame: QUAD/X", "ArduCopter V4.6.1 (57591cb8)", "ChibiOS: 88b84600", "fmuv3 00240032 33385119 36353030", "IOMCU: 420 1001 411FC231", "RCOut: PWM:1-14", "IMU0: fast sampling enabled 8.0kHz/1.0kHz", "Frame: QUAD/X", "EKF3 IMU1 forced reset", "EKF3 IMU1 initialised", "PreArm: Hardware safety switch", "PreArm: Check mag field (xy diff:121>115)", "PreArm: AHRS: EKF3 Yaw inconsistent 149 deg. Wait ", "or reboot", "EKF3 IMU1 tilt alignment complete", "EKF3 IMU1 MAG0 initial yaw alignment complete"]}
{"timestamp": "2026-01-07T16:41:24.948695Z", "telemetry": {"lat": 28.7531759, "lon": 77.1176757, "satellites": 7, "altitude_gps_m": 284.7099914550781, "groundspeed_mps": 0.6741055846214294}, "flight": {"mode": "STABILIZE", "armed": false}, "ekf": {"attitude": {"roll": 0.04392391815781593, "pitch": 0.013059007003903389, "yaw": -2.708005666732788}, "local_position": {"x": null, "y": null, "z": null}, "status": {"flags": 135, "velocity_variance": 0.0, "pos_horiz_variance": 0.23244823515415192, "pos_vert_variance": 0.022149745374917984}}, "errors": ["fmuv3 00240032 33385119 36353030", "IOMCU: 420 1001 411FC231", "RCOut: PWM:1-14", "IMU0: fast sampling enabled 8.0kHz/1.0kHz", "Frame: QUAD/X", "ArduCopter V4.6.1 (57591cb8)", "ChibiOS: 88b84600", "fmuv3 00240032 33385119 36353030", "IOMCU: 420 1001 411FC231", "RCOut: PWM:1-14", "IMU0: fast sampling enabled 8.0kHz/1.0kHz", "Frame: QUAD/X", "EKF3 IMU1 forced reset", "EKF3 IMU1 initialised", "PreArm: Hardware safety switch", "PreArm: Check mag field (xy diff:121>115)", "PreArm: AHRS: EKF3 Yaw inconsistent 149 deg. Wait ", "or reboot", "EKF3 IMU1 tilt alignment complete", "EKF3 IMU1 MAG0 initial yaw alignment complete"]}
{"timestamp": "2026-01-07T16:41:25.952756Z", "telemetry": {"lat": 28.7531909, "lon": 77.117694, "satellites": 7, "altitude_gps_m": 278.8999938964844, "groundspeed_mps": 0.27074486017227173}, "flight": {"mode": "STABILIZE", "armed": false}, "ekf": {"attitude": {"roll": 0.07099837064743042, "pitch": -0.009970111772418022, "yaw": -2.7630534172058105}, "local_position": {"x": null, "y": null, "z": null}, "status": {"flags": 135, "velocity_variance": 0.0, "pos_horiz_variance": 0.17216886579990387, "pos_vert_variance": 0.0006379060796461999}}, "errors": ["fmuv3 00240032 33385119 36353030", "IOMCU: 420 1001 411FC231", "RCOut: PWM:1-14", "IMU0: fast sampling enabled 8.0kHz/1.0kHz", "Frame: QUAD/X", "ArduCopter V4.6.1 (57591cb8)", "ChibiOS: 88b84600", "fmuv3 00240032 33385119 36353030", "IOMCU: 420 1001 411FC231", "RCOut: PWM:1-14", "IMU0: fast sampling enabled 8.0kHz/1.0kHz", "Frame: QUAD/X", "EKF3 IMU1 forced reset", "EKF3 IMU1 initialised", "PreArm: Hardware safety switch", "PreArm: Check mag field (xy diff:121>115)", "PreArm: AHRS: EKF3 Yaw inconsistent 149 deg. Wait ", "or reboot", "EKF3 IMU1 tilt alignment complete", "EKF3 IMU1 MAG0 initial yaw alignment complete"]}
{"timestamp": "2026-01-07T16:41:26.923373Z", "telemetry": {"lat": 28.7531975, "lon": 77.1177064, "satellites": 7, "altitude_gps_m": 272.8299865722656, "groundspeed_mps": 0.17756159603595734}, "flight": {"mode": "STABILIZE", "armed": false}, "ekf": {"attitude": {"roll": 0.07488149404525757, "pitch": -0.010029997676610947, "yaw": -2.768245220184326}, "local_position": {"x": null, "y": null, "z": null}, "status": {"flags": 135, "velocity_variance": 0.0, "pos_horiz_variance": 0.08583515137434006, "pos_vert_variance": 0.03284347429871559}}, "errors": ["fmuv3 00240032 33385119 36353030", "IOMCU: 420 1001 411FC231", "RCOut: PWM:1-14", "IMU0: fast sampling enabled 8.0kHz/1.0kHz", "Frame: QUAD/X", "ArduCopter V4.6.1 (57591cb8)", "ChibiOS: 88b84600", "fmuv3 00240032 33385119 36353030", "IOMCU: 420 1001 411FC231", "RCOut: PWM:1-14", "IMU0: fast sampling enabled 8.0kHz/1.0kHz", "Frame: QUAD/X", "EKF3 IMU1 forced reset", "EKF3 IMU1 initialised", "PreArm: Hardware safety switch", "PreArm: Check mag field (xy diff:121>115)", "PreArm: AHRS: EKF3 Yaw inconsistent 149 deg. Wait ", "or reboot", "EKF3 IMU1 tilt alignment complete", "EKF3 IMU1 MAG0 initial yaw alignment complete"]}
{"timestamp": "2026-01-07T16:41:27.922355Z", "telemetry": {"lat": 28.753207, "lon": 77.1177123, "satellites": 7, "altitude_gps_m": 269.6000061035156, "groundspeed_mps": 0.3943939507007599}, "flight": {"mode": "STABILIZE", "armed": false}, "ekf": {"attitude": {"roll": 0.07655910402536392, "pitch": -0.010266708210110664, "yaw": -2.773000478744507}, "local_position": {"x": null, "y": null, "z": null}, "status": {"flags": 135, "velocity_variance": 0.0, "pos_horiz_variance": 0.03544043377041817, "pos_vert_variance": 0.03638064116239548}}, "errors": ["fmuv3 00240032 33385119 36353030", "IOMCU: 420 1001 411FC231", "RCOut: PWM:1-14", "IMU0: fast sampling enabled 8.0kHz/1.0kHz", "Frame: QUAD/X", "ArduCopter V4.6.1 (57591cb8)", "ChibiOS: 88b84600", "fmuv3 00240032 33385119 36353030", "IOMCU: 420 1001 411FC231", "RCOut: PWM:1-14", "IMU0: fast sampling enabled 8.0kHz/1.0kHz", "Frame: QUAD/X", "EKF3 IMU1 forced reset", "EKF3 IMU1 initialised", "PreArm: Hardware safety switch", "PreArm: Check mag field (xy diff:121>115)", "PreArm: AHRS: EKF3 Yaw inconsistent 149 deg. Wait ", "or reboot", "EKF3 IMU1 tilt alignment complete", "EKF3 IMU1 MAG0 initial yaw alignment complete"]}
{"timestamp": "2026-01-07T16:41:28.922138Z", "telemetry": {"lat": 28.7532073, "lon": 77.1177161, "satellites": 7, "altitude_gps_m": 265.30999755859375, "groundspeed_mps": 0.5175397396087646}, "flight": {"mode": "STABILIZE", "armed": false}, "ekf": {"attitude": {"roll": 0.0759347528219223, "pitch": -0.010553775355219841, "yaw": -2.7774603366851807}, "local_position": {"x": null, "y": null, "z": null}, "status": {"flags": 135, "velocity_variance": 0.0, "pos_horiz_variance": 0.07733605057001114, "pos_vert_variance": 0.08550038188695908}}, "errors": ["fmuv3 00240032 33385119 36353030", "IOMCU: 420 1001 411FC231", "RCOut: PWM:1-14", "IMU0: fast sampling enabled 8.0kHz/1.0kHz", "Frame: QUAD/X", "ArduCopter V4.6.1 (57591cb8)", "ChibiOS: 88b84600", "fmuv3 00240032 33385119 36353030", "IOMCU: 420 1001 411FC231", "RCOut: PWM:1-14", "IMU0: fast sampling enabled 8.0kHz/1.0kHz", "Frame: QUAD/X", "EKF3 IMU1 forced reset", "EKF3 IMU1 initialised", "PreArm: Hardware safety switch", "PreArm: Check mag field (xy diff:121>115)", "PreArm: AHRS: EKF3 Yaw inconsistent 149 deg. Wait ", "or reboot", "EKF3 IMU1 tilt alignment complete", "EKF3 IMU1 MAG0 initial yaw alignment complete"]}
{"timestamp": "2026-01-07T16:41:29.922019Z", "telemetry": {"lat": 28.7532109, "lon": 77.117722, "satellites": 7, "altitude_gps_m": 261.0099792480469, "groundspeed_mps": 0.5386630892753601}, "flight": {"mode": "STABILIZE", "armed": false}, "ekf": {"attitude": {"roll": 0.07369781285524368, "pitch": -0.010866411030292511, "yaw": -2.782010555267334}, "local_position": {"x": null, "y": null, "z": null}, "status": {"flags": 135, "velocity_variance": 0.0, "pos_horiz_variance": 0.11179621517658234, "pos_vert_variance": 0.018997101113200188}}, "errors": ["fmuv3 00240032 33385119 36353030", "IOMCU: 420 1001 411FC231", "RCOut: PWM:1-14", "IMU0: fast sampling enabled 8.0kHz/1.0kHz", "Frame: QUAD/X", "ArduCopter V4.6.1 (57591cb8)", "ChibiOS: 88b84600", "fmuv3 00240032 33385119 36353030", "IOMCU: 420 1001 411FC231", "RCOut: PWM:1-14", "IMU0: fast sampling enabled 8.0kHz/1.0kHz", "Frame: QUAD/X", "EKF3 IMU1 forced reset", "EKF3 IMU1 initialised", "PreArm: Hardware safety switch", "PreArm: Check mag field (xy diff:121>115)", "PreArm: AHRS: EKF3 Yaw inconsistent 149 deg. Wait ", "or reboot", "EKF3 IMU1 tilt alignment complete", "EKF3 IMU1 MAG0 initial yaw alignment complete"]}
{"timestamp": "2026-01-07T16:41:30.926264Z", "telemetry": {"lat": 28.7532154, "lon": 77.1177313, "satellites": 7, "altitude_gps_m": 255.9499969482422, "groundspeed_mps": 0.4902283251285553}, "flight": {"mode": "STABILIZE", "armed": false}, "ekf": {"attitude": {"roll": 0.07053449749946594, "pitch": -0.011182470247149467, "yaw": -2.786684989929199}, "local_position": {"x": null, "y": null, "z": null}, "status": {"flags": 135, "velocity_variance": 0.0, "pos_horiz_variance": 0.11179621517658234, "pos_vert_variance": 0.018997101113200188}}, "errors": ["fmuv3 00240032 33385119 36353030", "IOMCU: 420 1001 411FC231", "RCOut: PWM:1-14", "IMU0: fast sampling enabled 8.0kHz/1.0kHz", "Frame: QUAD/X", "ArduCopter V4.6.1 (57591cb8)", "ChibiOS: 88b84600", "fmuv3 00240032 33385119 36353030", "IOMCU: 420 1001 411FC231", "RCOut: PWM:1-14", "IMU0: fast sampling enabled 8.0kHz/1.0kHz", "Frame: QUAD/X", "EKF3 IMU1 forced reset", "EKF3 IMU1 initialised", "PreArm: Hardware safety switch", "PreArm: Check mag field (xy diff:121>115)", "PreArm: AHRS: EKF3 Yaw inconsistent 149 deg. Wait ", "or reboot", "EKF3 IMU1 tilt alignment complete", "EKF3 IMU1 MAG0 initial yaw alignment complete"]}
{"timestamp": "2026-01-07T16:41:31.926100Z", "telemetry": {"lat": 28.7532159, "lon": 77.1177306, "satellites": 7, "altitude_gps_m": 251.88999938964844, "groundspeed_mps": 0.39949411153793335}, "flight": {"mode": "STABILIZE", "armed": false}, "ekf": {"attitude": {"roll": 0.06744985282421112, "pitch": -0.011869721114635468, "yaw": -2.7917628288269043}, "local_position": {"x": null, "y": null, "z": null}, "status": {"flags": 135, "velocity_variance": 0.0, "pos_horiz_variance": 0.12072474509477615, "pos_vert_variance": 0.006197111681103706}}, "errors": ["fmuv3 00240032 33385119 36353030", "IOMCU: 420 1001 411FC231", "RCOut: PWM:1-14", "IMU0: fast sampling enabled 8.0kHz/1.0kHz", "Frame: QUAD/X", "ArduCopter V4.6.1 (57591cb8)", "ChibiOS: 88b84600", "fmuv3 00240032 33385119 36353030", "IOMCU: 420 1001 411FC231", "RCOut: PWM:1-14", "IMU0: fast sampling enabled 8.0kHz/1.0kHz", "Frame: QUAD/X", "EKF3 IMU1 forced reset", "EKF3 IMU1 initialised", "PreArm: Hardware safety switch", "PreArm: Check mag field (xy diff:121>115)", "PreArm: AHRS: EKF3 Yaw inconsistent 149 deg. Wait ", "or reboot", "EKF3 IMU1 tilt alignment complete", "EKF3 IMU1 MAG0 initial yaw alignment complete"]}
{"timestamp": "2026-01-07T16:41:32.926435Z", "telemetry": {"lat": 28.7532163, "lon": 77.1177308, "satellites": 6, "altitude_gps_m": 248.9099884033203, "groundspeed_mps": 0.2910594046115875}, "flight": {"mode": "STABILIZE", "armed": false}, "ekf": {"attitude": {"roll": 0.06414394825696945, "pitch": -0.012515956535935402, "yaw": -2.7964119911193848}, "local_position": {"x": null, "y": null, "z": null}, "status": {"flags": 135, "velocity_variance": 0.0, "pos_horiz_variance": 0.10426920652389526, "pos_vert_variance": 0.010736069642007351}}, "errors": ["fmuv3 00240032 33385119 36353030", "IOMCU: 420 1001 411FC231", "RCOut: PWM:1-14", "IMU0: fast sampling enabled 8.0kHz/1.0kHz", "Frame: QUAD/X", "ArduCopter V4.6.1 (57591cb8)", "ChibiOS: 88b84600", "fmuv3 00240032 33385119 36353030", "IOMCU: 420 1001 411FC231", "RCOut: PWM:1-14", "IMU0: fast sampling enabled 8.0kHz/1.0kHz", "Frame: QUAD/X", "EKF3 IMU1 forced reset", "EKF3 IMU1 initialised", "PreArm: Hardware safety switch", "PreArm: Check mag field (xy diff:121>115)", "PreArm: AHRS: EKF3 Yaw inconsistent 149 deg. Wait ", "or reboot", "EKF3 IMU1 tilt alignment complete", "EKF3 IMU1 MAG0 initial yaw alignment complete"]}
{"timestamp": "2026-01-07T16:41:33.960640Z", "telemetry": {"lat": 28.7532229, "lon": 77.1177433, "satellites": 6, "altitude_gps_m": 242.47000122070312, "groundspeed_mps": 0.18234100937843323}, "flight": {"mode": "STABILIZE", "armed": false}, "ekf": {"attitude": {"roll": 0.061117056757211685, "pitch": -0.012745669111609459, "yaw": -2.8008885383605957}, "local_position": {"x": null, "y": null, "z": null}, "status": {"flags": 135, "velocity_variance": 0.0, "pos_horiz_variance": 0.08096799999475479, "pos_vert_variance": 0.001607666490599513}}, "errors": ["fmuv3 00240032 33385119 36353030", "IOMCU: 420 1001 411FC231", "RCOut: PWM:1-14", "IMU0: fast sampling enabled 8.0kHz/1.0kHz", "Frame: QUAD/X", "ArduCopter V4.6.1 (57591cb8)", "ChibiOS: 88b84600", "fmuv3 00240032 33385119 36353030", "IOMCU: 420 1001 411FC231", "RCOut: PWM:1-14", "IMU0: fast sampling enabled 8.0kHz/1.0kHz", "Frame: QUAD/X", "EKF3 IMU1 forced reset", "EKF3 IMU1 initialised", "PreArm: Hardware safety switch", "PreArm: Check mag field (xy diff:121>115)", "PreArm: AHRS: EKF3 Yaw inconsistent 149 deg. Wait ", "or reboot", "EKF3 IMU1 tilt alignment complete", "EKF3 IMU1 MAG0 initial yaw alignment complete"]}
{"timestamp": "2026-01-07T16:41:34.929857Z", "telemetry": {"lat": 28.7532235, "lon": 77.1177556, "satellites": 6, "altitude_gps_m": 238.11000061035156, "groundspeed_mps": 0.09806054830551147}, "flight": {"mode": "STABILIZE", "armed": false}, "ekf": {"attitude": {"roll": 0.061117056757211685, "pitch": -0.012745669111609459, "yaw": -2.8008885383605957}, "local_position": {"x": null, "y": null, "z": null}, "status": {"flags": 135, "velocity_variance": 0.0, "pos_horiz_variance": 0.05638105794787407, "pos_vert_variance": 0.02812352403998375}}, "errors": ["fmuv3 00240032 33385119 36353030", "IOMCU: 420 1001 411FC231", "RCOut: PWM:1-14", "IMU0: fast sampling enabled 8.0kHz/1.0kHz", "Frame: QUAD/X", "ArduCopter V4.6.1 (57591cb8)", "ChibiOS: 88b84600", "fmuv3 00240032 33385119 36353030", "IOMCU: 420 1001 411FC231", "RCOut: PWM:1-14", "IMU0: fast sampling enabled 8.0kHz/1.0kHz", "Frame: QUAD/X", "EKF3 IMU1 forced reset", "EKF3 IMU1 initialised", "PreArm: Hardware safety switch", "PreArm: Check mag field (xy diff:121>115)", "PreArm: AHRS: EKF3 Yaw inconsistent 149 deg. Wait ", "or reboot", "EKF3 IMU1 tilt alignment complete", "EKF3 IMU1 MAG0 initial yaw alignment complete"]}
{"timestamp": "2026-01-07T16:41:35.928845Z", "telemetry": {"lat": 28.7532254, "lon": 77.117766, "satellites": 5, "altitude_gps_m": 234.59999084472656, "groundspeed_mps": 0.07093387097120285}, "flight": {"mode": "STABILIZE", "armed": false}, "ekf": {"attitude": {"roll": 0.05709724873304367, "pitch": -0.012585081160068512, "yaw": -2.808675527572632}, "local_position": {"x": null, "y": null, "z": null}, "status": {"flags": 135, "velocity_variance": 0.0, "pos_horiz_variance": 0.03542143478989601, "pos_vert_variance": 0.036198027431964874}}, "errors": ["fmuv3 00240032 33385119 36353030", "IOMCU: 420 1001 411FC231", "RCOut: PWM:1-14", "IMU0: fast sampling enabled 8.0kHz/1.0kHz", "Frame: QUAD/X", "ArduCopter V4.6.1 (57591cb8)", "ChibiOS: 88b84600", "fmuv3 00240032 33385119 36353030", "IOMCU: 420 1001 411FC231", "RCOut: PWM:1-14", "IMU0: fast sampling enabled 8.0kHz/1.0kHz", "Frame: QUAD/X", "EKF3 IMU1 forced reset", "EKF3 IMU1 initialised", "PreArm: Hardware safety switch", "PreArm: Check mag field (xy diff:121>115)", "PreArm: AHRS: EKF3 Yaw inconsistent 149 deg. Wait ", "or reboot", "EKF3 IMU1 tilt alignment complete", "EKF3 IMU1 MAG0 initial yaw alignment complete"]}
{"timestamp": "2026-01-07T16:41:36.928908Z", "telemetry": {"lat": 28.7532185, "lon": 77.1177645, "satellites": 5, "altitude_gps_m": 230.52999877929688, "groundspeed_mps": 0.08989350497722626}, "flight": {"mode": "STABILIZE", "armed": false}, "ekf": {"attitude": {"roll": 0.055897120386362076, "pitch": -0.012733764946460724, "yaw": -2.813580274581909}, "local_position": {"x": null, "y": null, "z": null}, "status": {"flags": 135, "velocity_variance": 0.0, "pos_horiz_variance": 0.022185521200299263, "pos_vert_variance": 0.0024805981665849686}}, "errors": ["fmuv3 00240032 33385119 36353030", "IOMCU: 420 1001 411FC231", "RCOut: PWM:1-14", "IMU0: fast sampling enabled 8.0kHz/1.0kHz", "Frame: QUAD/X", "ArduCopter V4.6.1 (57591cb8)", "ChibiOS: 88b84600", "fmuv3 00240032 33385119 36353030", "IOMCU: 420 1001 411FC231", "RCOut: PWM:1-14", "IMU0: fast sampling enabled 8.0kHz/1.0kHz", "Frame: QUAD/X", "EKF3 IMU1 forced reset", "EKF3 IMU1 initialised", "PreArm: Hardware safety switch", "PreArm: Check mag field (xy diff:121>115)", "PreArm: AHRS: EKF3 Yaw inconsistent 149 deg. Wait ", "or reboot", "EKF3 IMU1 tilt alignment complete", "EKF3 IMU1 MAG0 initial yaw alignment complete"]}
{"timestamp": "2026-01-07T16:41:37.928759Z", "telemetry": {"lat": 28.7532214, "lon": 77.1177686, "satellites": 7, "altitude_gps_m": 228.45999145507812, "groundspeed_mps": 0.10357022285461426}, "flight": {"mode": "STABILIZE", "armed": false}, "ekf": {"attitude": {"roll": 0.05576687306165695, "pitch": -0.012765131890773773, "yaw": -2.8160221576690674}, "local_position": {"x": null, "y": null, "z": null}, "status": {"flags": 135, "velocity_variance": 0.0, "pos_horiz_variance": 0.020765911787748337, "pos_vert_variance": 0.011984833516180515}}, "errors": ["fmuv3 00240032 33385119 36353030", "IOMCU: 420 1001 411FC231", "RCOut: PWM:1-14", "IMU0: fast sampling enabled 8.0kHz/1.0kHz", "Frame: QUAD/X", "ArduCopter V4.6.1 (57591cb8)", "ChibiOS: 88b84600", "fmuv3 00240032 33385119 36353030", "IOMCU: 420 1001 411FC231", "RCOut: PWM:1-14", "IMU0: fast sampling enabled 8.0kHz/1.0kHz", "Frame: QUAD/X", "EKF3 IMU1 forced reset", "EKF3 IMU1 initialised", "PreArm: Hardware safety switch", "PreArm: Check mag field (xy diff:121>115)", "PreArm: AHRS: EKF3 Yaw inconsistent 149 deg. Wait ", "or reboot", "EKF3 IMU1 tilt alignment complete", "EKF3 IMU1 MAG0 initial yaw alignment complete"]}
{"timestamp": "2026-01-07T16:41:38.932859Z", "telemetry": {"lat": 28.753224, "lon": 77.1177842, "satellites": 6, "altitude_gps_m": 224.83999633789062, "groundspeed_mps": 0.1096828281879425}, "flight": {"mode": "STABILIZE", "armed": false}, "ekf": {"attitude": {"roll": 0.05577317625284195, "pitch": -0.012898821383714676, "yaw": -2.819007158279419}, "local_position": {"x": null, "y": null, "z": null}, "status": {"flags": 135, "velocity_variance": 0.0, "pos_horiz_variance": 0.024139808490872383, "pos_vert_variance": 0.007718339562416077}}, "errors": ["fmuv3 00240032 33385119 36353030", "IOMCU: 420 1001 411FC231", "RCOut: PWM:1-14", "IMU0: fast sampling enabled 8.0kHz/1.0kHz", "Frame: QUAD/X", "ArduCopter V4.6.1 (57591cb8)", "ChibiOS: 88b84600", "fmuv3 00240032 33385119 36353030", "IOMCU: 420 1001 411FC231", "RCOut: PWM:1-14", "IMU0: fast sampling enabled 8.0kHz/1.0kHz", "Frame: QUAD/X", "EKF3 IMU1 forced reset", "EKF3 IMU1 initialised", "PreArm: Hardware safety switch", "PreArm: Check mag field (xy diff:121>115)", "PreArm: AHRS: EKF3 Yaw inconsistent 149 deg. Wait ", "or reboot", "EKF3 IMU1 tilt alignment complete", "EKF3 IMU1 MAG0 initial yaw alignment complete"]}
{"timestamp": "2026-01-07T16:41:39.932621Z", "telemetry": {"lat": 28.7532248, "lon": 77.1177986, "satellites": 5, "altitude_gps_m": 220.27999877929688, "groundspeed_mps": 0.10193801671266556}, "flight": {"mode": "STABILIZE", "armed": false}, "ekf": {"attitude": {"roll": 0.056220900267362595, "pitch": -0.014047190546989441, "yaw": -2.8235421180725098}, "local_position": {"x": null, "y": null, "z": null}, "status": {"flags": 135, "velocity_variance": 0.0, "pos_horiz_variance": 0.02623627334833145, "pos_vert_variance": 0.02741621620953083}}, "errors": ["fmuv3 00240032 33385119 36353030", "IOMCU: 420 1001 411FC231", "RCOut: PWM:1-14", "IMU0: fast sampling enabled 8.0kHz/1.0kHz", "Frame: QUAD/X", "ArduCopter V4.6.1 (57591cb8)", "ChibiOS: 88b84600", "fmuv3 00240032 33385119 36353030", "IOMCU: 420 1001 411FC231", "RCOut: PWM:1-14", "IMU0: fast sampling enabled 8.0kHz/1.0kHz", "Frame: QUAD/X", "EKF3 IMU1 forced reset", "EKF3 IMU1 initialised", "PreArm: Hardware safety switch", "PreArm: Check mag field (xy diff:121>115)", "PreArm: AHRS: EKF3 Yaw inconsistent 149 deg. Wait ", "or reboot", "EKF3 IMU1 tilt alignment complete", "EKF3 IMU1 MAG0 initial yaw alignment complete"]}
{"timestamp": "2026-01-07T16:41:40.932836Z", "telemetry": {"lat": 28.7532238, "lon": 77.1177981, "satellites": 5, "altitude_gps_m": 217.51998901367188, "groundspeed_mps": 0.09465838223695755}, "flight": {"mode": "STABILIZE", "armed": false}, "ekf": {"attitude": {"roll": 0.0558474063873291, "pitch": -0.012721924111247063, "yaw": -2.8244121074676514}, "local_position": {"x": null, "y": null, "z": null}, "status": {"flags": 135, "velocity_variance": 0.0, "pos_horiz_variance": 0.026496052742004395, "pos_vert_variance": 0.027217740193009377}}, "errors": ["fmuv3 00240032 33385119 36353030", "IOMCU: 420 1001 411FC231", "RCOut: PWM:1-14", "IMU0: fast sampling enabled 8.0kHz/1.0kHz", "Frame: QUAD/X", "ArduCopter V4.6.1 (57591cb8)", "ChibiOS: 88b84600", "fmuv3 00240032 33385119 36353030", "IOMCU: 420 1001 411FC231", "RCOut: PWM:1-14", "IMU0: fast sampling enabled 8.0kHz/1.0kHz", "Frame: QUAD/X", "EKF3 IMU1 forced reset", "EKF3 IMU1 initialised", "PreArm: Hardware safety switch", "PreArm: Check mag field (xy diff:121>115)", "PreArm: AHRS: EKF3 Yaw inconsistent 149 deg. Wait ", "or reboot", "EKF3 IMU1 tilt alignment complete", "EKF3 IMU1 MAG0 initial yaw alignment complete"]}
{"timestamp": "2026-01-07T16:41:41.902229Z", "telemetry": {"lat": 28.7532243, "lon": 77.117798, "satellites": 5, "altitude_gps_m": 216.39999389648438, "groundspeed_mps": 0.08280443400144577}, "flight": {"mode": "STABILIZE", "armed": false}, "ekf": {"attitude": {"roll": 0.05652564391493797, "pitch": -0.014020372182130814, "yaw": -2.8285834789276123}, "local_position": {"x": null, "y": null, "z": null}, "status": {"flags": 135, "velocity_variance": 0.0, "pos_horiz_variance": 0.025127317756414413, "pos_vert_variance": 0.012632804922759533}}, "errors": ["IOMCU: 420 1001 411FC231", "RCOut: PWM:1-14", "IMU0: fast sampling enabled 8.0kHz/1.0kHz", "Frame: QUAD/X", "ArduCopter V4.6.1 (57591cb8)", "ChibiOS: 88b84600", "fmuv3 00240032 33385119 36353030", "IOMCU: 420 1001 411FC231", "RCOut: PWM:1-14", "IMU0: fast sampling enabled 8.0kHz/1.0kHz", "Frame: QUAD/X", "EKF3 IMU1 forced reset", "EKF3 IMU1 initialised", "PreArm: Hardware safety switch", "PreArm: Check mag field (xy diff:121>115)", "PreArm: AHRS: EKF3 Yaw inconsistent 149 deg. Wait ", "or reboot", "EKF3 IMU1 tilt alignment complete", "EKF3 IMU1 MAG0 initial yaw alignment complete", "PreArm: Hardware safety switch"]}
