{"timestamp": "2026-01-15T12:52:07.663567Z", "telemetry": {"lat": 28.753095, "lon": 77.1178902, "satellites": 8, "altitude_gps_m": 229.489990234375, "groundspeed_mps": 0.27640584111213684}, "flight": {"mode": "STABILIZE", "armed": false}, "ekf": {"attitude": {"roll": 0.052567578852176666, "pitch": -0.004607901442795992, "yaw": -2.020901679992676}, "local_position": {"x": 1.7953598499298096, "y": -0.7249395847320557, "z": -17.16423988342285}, "status": {"flags": 33599, "velocity_variance": 0.12855511903762817, "pos_horiz_variance": 0.043778035789728165, "pos_vert_variance": 0.03174335137009621}}, "errors": []}
{"timestamp": "2026-01-15T12:52:08.611507Z", "telemetry": {"lat": 28.7530906, "lon": 77.1178965, "satellites": 9, "altitude_gps_m": 229.50999450683594, "groundspeed_mps": 0.3353402018547058}, "flight": {"mode": "STABILIZE", "armed": false}, "ekf": {"attitude": {"roll": 0.0521291121840477, "pitch": -0.0044686258770525455, "yaw": -2.0209197998046875}, "local_position": {"x": 1.4321531057357788, "y": -0.22439813613891602, "z": -17.17768096923828}, "status": {"flags": 33599, "velocity_variance": 0.12707211077213287, "pos_horiz_variance": 0.04776912182569504, "pos_vert_variance": 0.0073810601606965065}}, "errors": []}
{"timestamp": "2026-01-15T12:52:09.592275Z", "telemetry": {"lat": 28.7530853, "lon": 77.1179031, "satellites": 9, "altitude_gps_m": 229.54998779296875, "groundspeed_mps": 0.4002513289451599}, "flight": {"mode": "STABILIZE", "armed": false}, "ekf": {"attitude": {"roll": 0.051059626042842865, "pitch": -0.004773242864757776, "yaw": -2.020595073699951}, "local_position": {"x": 0.8562113046646118, "y": 0.32299622893333435, "z": -17.234983444213867}, "status": {"flags": 33599, "velocity_variance": 0.1283029466867447, "pos_horiz_variance": 0.05220374837517738, "pos_vert_variance": 0.012438972480595112}}, "errors": []}
{"timestamp": "2026-01-15T12:52:10.522376Z", "telemetry": {"lat": 28.7530794, "lon": 77.1179088, "satellites": 9, "altitude_gps_m": 229.47999572753906, "groundspeed_mps": 0.4891003966331482}, "flight": {"mode": "STABILIZE", "armed": false}, "ekf": {"attitude": {"roll": 0.050299420952796936, "pitch": -0.00489073945209384, "yaw": -2.020656108856201}, "local_position": {"x": 0.07292920351028442, "y": 1.065003752708435, "z": -17.15224266052246}, "status": {"flags": 33599, "velocity_variance": 0.17855139076709747, "pos_horiz_variance": 0.04750583693385124, "pos_vert_variance": 0.0325004905462265}}, "errors": []}
{"timestamp": "2026-01-15T12:52:11.483414Z", "telemetry": {"lat": 28.7530765, "lon": 77.1179108, "satellites": 9, "altitude_gps_m": 229.38999938964844, "groundspeed_mps": 0.5049645304679871}, "flight": {"mode": "STABILIZE", "armed": false}, "ekf": {"attitude": {"roll": 0.05034139007329941, "pitch": -0.0053605274297297, "yaw": -2.0207133293151855}, "local_position": {"x": -0.4259686768054962, "y": 1.4907493591308594, "z": -17.075517654418945}, "status": {"flags": 33599, "velocity_variance": 0.0607689805328846, "pos_horiz_variance": 0.04332849010825157, "pos_vert_variance": 0.015872392803430557}}, "errors": []}
{"timestamp": "2026-01-15T12:52:12.489255Z", "telemetry": {"lat": 28.753072, "lon": 77.1179162, "satellites": 9, "altitude_gps_m": 229.44000244140625, "groundspeed_mps": 0.5371454358100891}, "flight": {"mode": "STABILIZE", "armed": false}, "ekf": {"attitude": {"roll": 0.05053148418664932, "pitch": -0.005508576985448599, "yaw": -2.0206832885742188}, "local_position": {"x": -1.0608298778533936, "y": 2.128819704055786, "z": -17.098493576049805}, "status": {"flags": 33599, "velocity_variance": 0.27001428604125977, "pos_horiz_variance": 0.038411032408475876, "pos_vert_variance": 0.014462308026850224}}, "errors": []}
{"timestamp": "2026-01-15T12:52:13.473337Z", "telemetry": {"lat": 28.753071, "lon": 77.1179181, "satellites": 9, "altitude_gps_m": 229.4499969482422, "groundspeed_mps": 0.47082996368408203}, "flight": {"mode": "STABILIZE", "armed": false}, "ekf": {"attitude": {"roll": 0.05198647454380989, "pitch": -0.00578294275328517, "yaw": -2.020643711090088}, "local_position": {"x": -1.382025957107544, "y": 2.510554075241089, "z": -17.12013816833496}, "status": {"flags": 33599, "velocity_variance": 0.19896629452705383, "pos_horiz_variance": 0.030597778037190437, "pos_vert_variance": 0.030863573774695396}}, "errors": []}
{"timestamp": "2026-01-15T12:52:14.495716Z", "telemetry": {"lat": 28.7530718, "lon": 77.1179186, "satellites": 9, "altitude_gps_m": 229.54998779296875, "groundspeed_mps": 0.284406840801239}, "flight": {"mode": "STABILIZE", "armed": false}, "ekf": {"attitude": {"roll": 0.05458210036158562, "pitch": -0.006349518429487944, "yaw": -2.0206029415130615}, "local_position": {"x": -1.4130470752716064, "y": 2.681377410888672, "z": -17.195735931396484}, "status": {"flags": 33599, "velocity_variance": 0.3448423147201538, "pos_horiz_variance": 0.02364184707403183, "pos_vert_variance": 0.032720670104026794}}, "errors": []}
{"timestamp": "2026-01-15T12:52:15.499887Z", "telemetry": {"lat": 28.7530683, "lon": 77.1179217, "satellites": 9, "altitude_gps_m": 229.61000061035156, "groundspeed_mps": 0.26724177598953247}, "flight": {"mode": "STABILIZE", "armed": false}, "ekf": {"attitude": {"roll": 0.05452314019203186, "pitch": -0.006076405290514231, "yaw": -2.0204691886901855}, "local_position": {"x": -1.683464765548706, "y": 2.9986226558685303, "z": -17.26915740966797}, "status": {"flags": 33599, "velocity_variance": 0.09297235310077667, "pos_horiz_variance": 0.025555087253451347, "pos_vert_variance": 0.010016746819019318}}, "errors": []}
{"timestamp": "2026-01-15T12:52:16.499565Z", "telemetry": {"lat": 28.7530689, "lon": 77.1179209, "satellites": 9, "altitude_gps_m": 229.5699920654297, "groundspeed_mps": 0.13534216582775116}, "flight": {"mode": "STABILIZE", "armed": false}, "ekf": {"attitude": {"roll": 0.056553978472948074, "pitch": -0.006920328829437494, "yaw": -2.020681858062744}, "local_position": {"x": -1.7243268489837646, "y": 3.0719432830810547, "z": -17.239654541015625}, "status": {"flags": 33599, "velocity_variance": 0.22323013842105865, "pos_horiz_variance": 0.01992233656346798, "pos_vert_variance": 0.08053579926490784}}, "errors": []}
{"timestamp": "2026-01-15T12:52:17.499722Z", "telemetry": {"lat": 28.7530676, "lon": 77.1179244, "satellites": 8, "altitude_gps_m": 229.54998779296875, "groundspeed_mps": 0.0952058807015419}, "flight": {"mode": "STABILIZE", "armed": false}, "ekf": {"attitude": {"roll": 0.0565900094807148, "pitch": -0.006604437250643969, "yaw": -2.0188188552856445}, "local_position": {"x": -1.876035213470459, "y": 3.249608278274536, "z": -17.245220184326172}, "status": {"flags": 33599, "velocity_variance": 0.07031674683094025, "pos_horiz_variance": 0.02233426459133625, "pos_vert_variance": 0.0761295035481453}}, "errors": []}
{"timestamp": "2026-01-15T12:52:18.500255Z", "telemetry": {"lat": 28.7530652, "lon": 77.1179292, "satellites": 7, "altitude_gps_m": 229.47999572753906, "groundspeed_mps": 0.10164941102266312}, "flight": {"mode": "STABILIZE", "armed": false}, "ekf": {"attitude": {"roll": 0.05654425919055939, "pitch": -0.007172260899096727, "yaw": -2.0148372650146484}, "local_position": {"x": -2.1022346019744873, "y": 3.612020492553711, "z": -17.1538143157959}, "status": {"flags": 33599, "velocity_variance": 0.2022155523300171, "pos_horiz_variance": 0.025535469874739647, "pos_vert_variance": 0.11894602328538895}}, "errors": []}
{"timestamp": "2026-01-15T12:52:19.504256Z", "telemetry": {"lat": 28.7530639, "lon": 77.1179319, "satellites": 8, "altitude_gps_m": 229.47000122070312, "groundspeed_mps": 0.0486457534134388}, "flight": {"mode": "STABILIZE", "armed": false}, "ekf": {"attitude": {"roll": 0.05645076185464859, "pitch": -0.007449547294527292, "yaw": -2.0118844509124756}, "local_position": {"x": -2.3006932735443115, "y": 3.760456085205078, "z": -17.142417907714844}, "status": {"flags": 33599, "velocity_variance": 0.09453650563955307, "pos_horiz_variance": 0.027882548049092293, "pos_vert_variance": 0.07769216597080231}}, "errors": []}
{"timestamp": "2026-01-15T12:52:20.503470Z", "telemetry": {"lat": 28.7530609, "lon": 77.1179363, "satellites": 9, "altitude_gps_m": 229.5699920654297, "groundspeed_mps": 0.0362088605761528}, "flight": {"mode": "STABILIZE", "armed": false}, "ekf": {"attitude": {"roll": 0.05652729049324989, "pitch": -0.007427518721669912, "yaw": -2.0069661140441895}, "local_position": {"x": -2.3977956771850586, "y": 3.9898767471313477, "z": -17.207115173339844}, "status": {"flags": 33599, "velocity_variance": 0.11071157455444336, "pos_horiz_variance": 0.02995835617184639, "pos_vert_variance": 0.11040142923593521}}, "errors": []}
{"timestamp": "2026-01-15T12:52:21.478857Z", "telemetry": {"lat": 28.753059, "lon": 77.1179378, "satellites": 9, "altitude_gps_m": 229.63999938964844, "groundspeed_mps": 0.03689972311258316}, "flight": {"mode": "STABILIZE", "armed": false}, "ekf": {"attitude": {"roll": 0.05536171421408653, "pitch": -0.007508866023272276, "yaw": -2.0032143592834473}, "local_position": {"x": -2.679050922393799, "y": 4.255722522735596, "z": -17.337112426757812}, "status": {"flags": 33599, "velocity_variance": 0.0877106562256813, "pos_horiz_variance": 0.034297991544008255, "pos_vert_variance": 0.12591016292572021}}, "errors": ["PreArm: Hardware safety switch", "PreArm: Compasses inconsistent"]}
{"timestamp": "2026-01-15T12:52:22.479334Z", "telemetry": {"lat": 28.7530563, "lon": 77.1179421, "satellites": 9, "altitude_gps_m": 229.64999389648438, "groundspeed_mps": 0.07280214875936508}, "flight": {"mode": "STABILIZE", "armed": false}, "ekf": {"attitude": {"roll": 0.05471697449684143, "pitch": -0.0072962637059390545, "yaw": -2.000476837158203}, "local_position": {"x": -3.019355297088623, "y": 4.642443656921387, "z": -17.324174880981445}, "status": {"flags": 33599, "velocity_variance": 0.051718439906835556, "pos_horiz_variance": 0.034741152077913284, "pos_vert_variance": 0.07136022299528122}}, "errors": ["PreArm: Hardware safety switch", "PreArm: Compasses inconsistent"]}
{"timestamp": "2026-01-15T12:52:23.479926Z", "telemetry": {"lat": 28.753053, "lon": 77.1179451, "satellites": 10, "altitude_gps_m": 210.12998962402344, "groundspeed_mps": 0.08145742118358612}, "flight": {"mode": "STABILIZE", "armed": false}, "ekf": {"attitude": {"roll": 0.054303839802742004, "pitch": -0.007330492604523897, "yaw": -1.996140956878662}, "local_position": {"x": -3.293933868408203, "y": 4.900150299072266, "z": 2.2032554149627686}, "status": {"flags": 831, "velocity_variance": 0.023989226669073105, "pos_horiz_variance": 0.03361234813928604, "pos_vert_variance": 0.004907608963549137}}, "errors": ["PreArm: Hardware safety switch", "PreArm: Compasses inconsistent", "Glitch cleared"]}
{"timestamp": "2026-01-15T12:52:24.507423Z", "telemetry": {"lat": 28.7530514, "lon": 77.117945, "satellites": 10, "altitude_gps_m": 210.14999389648438, "groundspeed_mps": 0.11246957629919052}, "flight": {"mode": "STABILIZE", "armed": false}, "ekf": {"attitude": {"roll": 0.053437985479831696, "pitch": -0.007291063200682402, "yaw": -1.9927726984024048}, "local_position": {"x": -3.5528488159179688, "y": 5.225460529327393, "z": 2.1747472286224365}, "status": {"flags": 831, "velocity_variance": 0.03756077215075493, "pos_horiz_variance": 0.029795566573739052, "pos_vert_variance": 0.008441010490059853}}, "errors": ["PreArm: Hardware safety switch", "PreArm: Compasses inconsistent", "Glitch cleared"]}
{"timestamp": "2026-01-15T12:52:25.508376Z", "telemetry": {"lat": 28.7530494, "lon": 77.1179473, "satellites": 10, "altitude_gps_m": 210.17999267578125, "groundspeed_mps": 0.10334566235542297}, "flight": {"mode": "STABILIZE", "armed": false}, "ekf": {"attitude": {"roll": 0.05351261422038078, "pitch": -0.007378607522696257, "yaw": -1.9902023077011108}, "local_position": {"x": -3.8346240520477295, "y": 5.43234395980835, "z": 2.1485354900360107}, "status": {"flags": 831, "velocity_variance": 0.01645032688975334, "pos_horiz_variance": 0.029725493863224983, "pos_vert_variance": 0.00145885965321213}}, "errors": ["PreArm: Hardware safety switch", "PreArm: Compasses inconsistent", "Glitch cleared"]}
{"timestamp": "2026-01-15T12:52:26.507325Z", "telemetry": {"lat": 28.7530512, "lon": 77.1179471, "satellites": 10, "altitude_gps_m": 210.29998779296875, "groundspeed_mps": 0.007954711094498634}, "flight": {"mode": "STABILIZE", "armed": false}, "ekf": {"attitude": {"roll": 0.05483783781528473, "pitch": -0.007365739438682795, "yaw": -1.9860509634017944}, "local_position": {"x": -3.8107781410217285, "y": 5.5379319190979, "z": 2.048367977142334}, "status": {"flags": 831, "velocity_variance": 0.19217321276664734, "pos_horiz_variance": 0.021787434816360474, "pos_vert_variance": 0.007138669025152922}}, "errors": ["PreArm: Hardware safety switch", "PreArm: Compasses inconsistent", "Glitch cleared"]}
{"timestamp": "2026-01-15T12:52:27.512214Z", "telemetry": {"lat": 28.7530509, "lon": 77.117947, "satellites": 10, "altitude_gps_m": 210.3699951171875, "groundspeed_mps": 0.03354625031352043}, "flight": {"mode": "STABILIZE", "armed": false}, "ekf": {"attitude": {"roll": 0.054657842963933945, "pitch": -0.007452493999153376, "yaw": -1.9828431606292725}, "local_position": {"x": -3.834425687789917, "y": 5.613638877868652, "z": 1.9575928449630737}, "status": {"flags": 831, "velocity_variance": 0.1250367909669876, "pos_horiz_variance": 0.020746223628520966, "pos_vert_variance": 0.0075070662423968315}}, "errors": ["PreArm: Hardware safety switch", "PreArm: Compasses inconsistent", "Glitch cleared"]}
{"timestamp": "2026-01-15T12:52:28.511463Z", "telemetry": {"lat": 28.7530497, "lon": 77.1179484, "satellites": 10, "altitude_gps_m": 210.47000122070312, "groundspeed_mps": 0.04619520157575607}, "flight": {"mode": "STABILIZE", "armed": false}, "ekf": {"attitude": {"roll": 0.054815441370010376, "pitch": -0.007552014198154211, "yaw": -1.9804812669754028}, "local_position": {"x": -3.9546141624450684, "y": 5.708676815032959, "z": 1.8494621515274048}, "status": {"flags": 831, "velocity_variance": 0.11870812624692917, "pos_horiz_variance": 0.020767707377672195, "pos_vert_variance": 0.01895335502922535}}, "errors": ["PreArm: Hardware safety switch", "PreArm: Compasses inconsistent", "Glitch cleared"]}
{"timestamp": "2026-01-15T12:52:29.485716Z", "telemetry": {"lat": 28.75305, "lon": 77.1179478, "satellites": 10, "altitude_gps_m": 210.6599884033203, "groundspeed_mps": 0.08770119398832321}, "flight": {"mode": "STABILIZE", "armed": false}, "ekf": {"attitude": {"roll": 0.05478572100400925, "pitch": -0.007281760219484568, "yaw": -1.976711630821228}, "local_position": {"x": -3.983788251876831, "y": 5.736896991729736, "z": 1.6939018964767456}, "status": {"flags": 831, "velocity_variance": 0.0787786915898323, "pos_horiz_variance": 0.017490463331341743, "pos_vert_variance": 0.014017326757311821}}, "errors": ["PreArm: Hardware safety switch", "PreArm: Compasses inconsistent", "Glitch cleared"]}
{"timestamp": "2026-01-15T12:52:30.488578Z", "telemetry": {"lat": 28.7530477, "lon": 77.117951, "satellites": 10, "altitude_gps_m": 210.70999145507812, "groundspeed_mps": 0.033406659960746765}, "flight": {"mode": "STABILIZE", "armed": false}, "ekf": {"attitude": {"roll": 0.0534285232424736, "pitch": -0.007008230779320002, "yaw": -1.9743866920471191}, "local_position": {"x": -4.1366353034973145, "y": 5.883902072906494, "z": 1.6281557083129883}, "status": {"flags": 831, "velocity_variance": 0.20550400018692017, "pos_horiz_variance": 0.023893142119050026, "pos_vert_variance": 0.012917140498757362}}, "errors": ["PreArm: Hardware safety switch", "PreArm: Compasses inconsistent", "Glitch cleared"]}
{"timestamp": "2026-01-15T12:52:31.486680Z", "telemetry": {"lat": 28.7530453, "lon": 77.1179538, "satellites": 10, "altitude_gps_m": 210.7899932861328, "groundspeed_mps": 0.03343858942389488}, "flight": {"mode": "STABILIZE", "armed": false}, "ekf": {"attitude": {"roll": 0.0527113601565361, "pitch": -0.006819792557507753, "yaw": -1.971445918083191}, "local_position": {"x": -4.486100196838379, "y": 6.181358337402344, "z": 1.5302679538726807}, "status": {"flags": 831, "velocity_variance": 0.12590938806533813, "pos_horiz_variance": 0.022471018135547638, "pos_vert_variance": 0.02210954762995243}}, "errors": ["PreArm: Hardware safety switch", "PreArm: Compasses inconsistent", "Glitch cleared"]}
{"timestamp": "2026-01-15T12:52:32.489653Z", "telemetry": {"lat": 28.7530482, "lon": 77.1179522, "satellites": 10, "altitude_gps_m": 210.489990234375, "groundspeed_mps": 0.027826545760035515}, "flight": {"mode": "STABILIZE", "armed": false}, "ekf": {"attitude": {"roll": 0.05340087413787842, "pitch": -0.006924539338797331, "yaw": -1.9686323404312134}, "local_position": {"x": -4.46532678604126, "y": 6.218454360961914, "z": 1.8346580266952515}, "status": {"flags": 33599, "velocity_variance": 0.07583395391702652, "pos_horiz_variance": 0.011911732144653797, "pos_vert_variance": 0.019329676404595375}}, "errors": ["PreArm: Hardware safety switch", "PreArm: Compasses inconsistent", "Glitch cleared", "GPS Glitch or Compass error"]}
{"timestamp": "2026-01-15T12:52:33.493414Z", "telemetry": {"lat": 28.7530492, "lon": 77.1179523, "satellites": 10, "altitude_gps_m": 210.6599884033203, "groundspeed_mps": 0.06266140937805176}, "flight": {"mode": "STABILIZE", "armed": false}, "ekf": {"attitude": {"roll": 0.053299691528081894, "pitch": -0.006723289843648672, "yaw": -1.9650830030441284}, "local_position": {"x": -4.400567531585693, "y": 6.229815483093262, "z": 1.6979161500930786}, "status": {"flags": 33599, "velocity_variance": 0.11388294398784637, "pos_horiz_variance": 0.010889172554016113, "pos_vert_variance": 0.06870515644550323}}, "errors": ["PreArm: Hardware safety switch", "PreArm: Compasses inconsistent", "Glitch cleared", "GPS Glitch or Compass error"]}
{"timestamp": "2026-01-15T12:52:34.514993Z", "telemetry": {"lat": 28.7530511, "lon": 77.1179527, "satellites": 10, "altitude_gps_m": 210.69000244140625, "groundspeed_mps": 0.09429723024368286}, "flight": {"mode": "STABILIZE", "armed": false}, "ekf": {"attitude": {"roll": 0.05374126508831978, "pitch": -0.006657372694462538, "yaw": -1.9629037380218506}, "local_position": {"x": -4.3042168617248535, "y": 6.307416915893555, "z": 1.633118987083435}, "status": {"flags": 33599, "velocity_variance": 0.2765617370605469, "pos_horiz_variance": 0.008634449914097786, "pos_vert_variance": 0.01792282983660698}}, "errors": ["PreArm: Hardware safety switch", "PreArm: Compasses inconsistent", "Glitch cleared", "GPS Glitch or Compass error"]}
{"timestamp": "2026-01-15T12:52:35.518984Z", "telemetry": {"lat": 28.7530528, "lon": 77.1179523, "satellites": 10, "altitude_gps_m": 210.79998779296875, "groundspeed_mps": 0.1457313746213913}, "flight": {"mode": "STABILIZE", "armed": false}, "ekf": {"attitude": {"roll": 0.05365500599145889, "pitch": -0.006746046710759401, "yaw": -1.960181474685669}, "local_position": {"x": -4.120731830596924, "y": 6.27256441116333, "z": 1.5215578079223633}, "status": {"flags": 33599, "velocity_variance": 0.17330621182918549, "pos_horiz_variance": 0.008732280693948269, "pos_vert_variance": 0.023783542215824127}}, "errors": ["PreArm: Hardware safety switch", "PreArm: Compasses inconsistent", "Glitch cleared", "GPS Glitch or Compass error"]}
{"timestamp": "2026-01-15T12:52:36.487399Z", "telemetry": {"lat": 28.7530537, "lon": 77.1179516, "satellites": 10, "altitude_gps_m": 210.86000061035156, "groundspeed_mps": 0.16237519681453705}, "flight": {"mode": "STABILIZE", "armed": false}, "ekf": {"attitude": {"roll": 0.05345505475997925, "pitch": -0.007094125729054213, "yaw": -1.9569379091262817}, "local_position": {"x": -4.037786960601807, "y": 6.264655113220215, "z": 1.4691870212554932}, "status": {"flags": 33599, "velocity_variance": 0.061082322150468826, "pos_horiz_variance": 0.006974152754992247, "pos_vert_variance": 0.08683208376169205}}, "errors": ["PreArm: Hardware safety switch", "PreArm: Compasses inconsistent", "Glitch cleared", "GPS Glitch or Compass error"]}
{"timestamp": "2026-01-15T12:52:37.491715Z", "telemetry": {"lat": 28.7530563, "lon": 77.1179495, "satellites": 10, "altitude_gps_m": 210.8300018310547, "groundspeed_mps": 0.22172804176807404}, "flight": {"mode": "STABILIZE", "armed": false}, "ekf": {"attitude": {"roll": 0.05418245121836662, "pitch": -0.007409338373690844, "yaw": -1.9549797773361206}, "local_position": {"x": -3.831632614135742, "y": 6.096613883972168, "z": 1.4974238872528076}, "status": {"flags": 33599, "velocity_variance": 0.09652937948703766, "pos_horiz_variance": 0.007217565085738897, "pos_vert_variance": 0.03398655727505684}}, "errors": ["PreArm: Hardware safety switch", "PreArm: Compasses inconsistent", "Glitch cleared", "GPS Glitch or Compass error"]}
{"timestamp": "2026-01-15T12:52:38.495820Z", "telemetry": {"lat": 28.7530579, "lon": 77.1179486, "satellites": 10, "altitude_gps_m": 210.8300018310547, "groundspeed_mps": 0.24887673556804657}, "flight": {"mode": "STABILIZE", "armed": false}, "ekf": {"attitude": {"roll": 0.05375510826706886, "pitch": -0.0073345196433365345, "yaw": -1.9526585340499878}, "local_position": {"x": -3.6258492469787598, "y": 6.008645057678223, "z": 1.4919663667678833}, "status": {"flags": 33599, "velocity_variance": 0.2813519239425659, "pos_horiz_variance": 0.006274465471506119, "pos_vert_variance": 0.08363215625286102}}, "errors": ["PreArm: Hardware safety switch", "PreArm: Compasses inconsistent", "Glitch cleared", "GPS Glitch or Compass error"]}
{"timestamp": "2026-01-15T12:52:39.493753Z", "telemetry": {"lat": 28.7530609, "lon": 77.1179462, "satellites": 10, "altitude_gps_m": 210.79998779296875, "groundspeed_mps": 0.3258156478404999}, "flight": {"mode": "STABILIZE", "armed": false}, "ekf": {"attitude": {"roll": 0.054455749690532684, "pitch": -0.007744210306555033, "yaw": -1.949757695198059}, "local_position": {"x": -3.3782174587249756, "y": 5.815606594085693, "z": 1.5164642333984375}, "status": {"flags": 33599, "velocity_variance": 0.043106697499752045, "pos_horiz_variance": 0.00829443521797657, "pos_vert_variance": 0.07748481631278992}}, "errors": ["PreArm: Hardware safety switch", "PreArm: Compasses inconsistent", "Glitch cleared", "GPS Glitch or Compass error"]}
{"timestamp": "2026-01-15T12:52:40.497719Z", "telemetry": {"lat": 28.7530648, "lon": 77.1179446, "satellites": 10, "altitude_gps_m": 210.6999969482422, "groundspeed_mps": 0.3890536427497864}, "flight": {"mode": "STABILIZE", "armed": false}, "ekf": {"attitude": {"roll": 0.05498380959033966, "pitch": -0.007837150245904922, "yaw": -1.9481908082962036}, "local_position": {"x": -2.956458806991577, "y": 5.575443267822266, "z": 1.6287788152694702}, "status": {"flags": 33599, "velocity_variance": 0.1328883171081543, "pos_horiz_variance": 0.011111496947705746, "pos_vert_variance": 0.03147215396165848}}, "errors": ["PreArm: Hardware safety switch", "PreArm: Compasses inconsistent", "Glitch cleared", "GPS Glitch or Compass error"]}
{"timestamp": "2026-01-15T12:52:41.499235Z", "telemetry": {"lat": 28.7530653, "lon": 77.1179458, "satellites": 10, "altitude_gps_m": 210.6699981689453, "groundspeed_mps": 0.3598174750804901}, "flight": {"mode": "STABILIZE", "armed": false}, "ekf": {"attitude": {"roll": 0.05371565744280815, "pitch": -0.007180602755397558, "yaw": -1.9460288286209106}, "local_position": {"x": -2.7313954830169678, "y": 5.563082695007324, "z": 1.6563256978988647}, "status": {"flags": 33599, "velocity_variance": 0.06950045377016068, "pos_horiz_variance": 0.010551055893301964, "pos_vert_variance": 0.015405559912323952}}, "errors": ["PreArm: Hardware safety switch", "PreArm: Compasses inconsistent", "Glitch cleared", "GPS Glitch or Compass error"]}
{"timestamp": "2026-01-15T12:52:42.502458Z", "telemetry": {"lat": 28.7530678, "lon": 77.1179462, "satellites": 10, "altitude_gps_m": 210.6599884033203, "groundspeed_mps": 0.3200656473636627}, "flight": {"mode": "STABILIZE", "armed": false}, "ekf": {"attitude": {"roll": 0.05257149040699005, "pitch": -0.0062236725352704525, "yaw": -1.9433199167251587}, "local_position": {"x": -2.474091053009033, "y": 5.5498833656311035, "z": 1.6810357570648193}, "status": {"flags": 33599, "velocity_variance": 0.1790241301059723, "pos_horiz_variance": 0.012793531641364098, "pos_vert_variance": 0.019692426547408104}}, "errors": ["PreArm: Hardware safety switch", "PreArm: Compasses inconsistent", "Glitch cleared", "GPS Glitch or Compass error"]}
{"timestamp": "2026-01-15T12:52:43.471143Z", "telemetry": {"lat": 28.7530668, "lon": 77.1179477, "satellites": 10, "altitude_gps_m": 210.72000122070312, "groundspeed_mps": 0.26205572485923767}, "flight": {"mode": "STABILIZE", "armed": false}, "ekf": {"attitude": {"roll": 0.051596373319625854, "pitch": -0.006229535210877657, "yaw": -1.941211223602295}, "local_position": {"x": -2.4250285625457764, "y": 5.623488903045654, "z": 1.6305692195892334}, "status": {"flags": 33599, "velocity_variance": 0.191742405295372, "pos_horiz_variance": 0.015681516379117966, "pos_vert_variance": 0.034080006182193756}}, "errors": ["PreArm: Hardware safety switch", "PreArm: Compasses inconsistent", "Glitch cleared", "GPS Glitch or Compass error"]}
{"timestamp": "2026-01-15T12:52:44.491222Z", "telemetry": {"lat": 28.7530685, "lon": 77.1179474, "satellites": 10, "altitude_gps_m": 210.76998901367188, "groundspeed_mps": 0.23833347856998444}, "flight": {"mode": "STABILIZE", "armed": false}, "ekf": {"attitude": {"roll": 0.051435552537441254, "pitch": -0.006013019476085901, "yaw": -1.9395753145217896}, "local_position": {"x": -2.329655885696411, "y": 5.644201278686523, "z": 1.5522671937942505}, "status": {"flags": 33599, "velocity_variance": 0.2564208209514618, "pos_horiz_variance": 0.013082023710012436, "pos_vert_variance": 0.0054170857183635235}}, "errors": ["PreArm: Hardware safety switch", "PreArm: Compasses inconsistent", "Glitch cleared", "GPS Glitch or Compass error"]}
{"timestamp": "2026-01-15T12:52:45.494808Z", "telemetry": {"lat": 28.7530698, "lon": 77.117949, "satellites": 10, "altitude_gps_m": 210.72000122070312, "groundspeed_mps": 0.21946032345294952}, "flight": {"mode": "STABILIZE", "armed": false}, "ekf": {"attitude": {"roll": 0.05079815909266472, "pitch": -0.005182809662073851, "yaw": -1.9368813037872314}, "local_position": {"x": -2.150023937225342, "y": 5.684596538543701, "z": 1.5998717546463013}, "status": {"flags": 33599, "velocity_variance": 0.0641990602016449, "pos_horiz_variance": 0.0167344082146883, "pos_vert_variance": 0.010558582842350006}}, "errors": ["PreArm: Hardware safety switch", "PreArm: Compasses inconsistent", "Glitch cleared", "GPS Glitch or Compass error"]}
{"timestamp": "2026-01-15T12:52:46.493228Z", "telemetry": {"lat": 28.7530714, "lon": 77.1179516, "satellites": 10, "altitude_gps_m": 210.70999145507812, "groundspeed_mps": 0.21389050781726837}, "flight": {"mode": "STABILIZE", "armed": false}, "ekf": {"attitude": {"roll": 0.05029630661010742, "pitch": -0.004603672306984663, "yaw": -1.9353653192520142}, "local_position": {"x": -1.8983166217803955, "y": 5.82060432434082, "z": 1.6203678846359253}, "status": {"flags": 33599, "velocity_variance": 0.13951313495635986, "pos_horiz_variance": 0.021568039432168007, "pos_vert_variance": 0.05035312473773956}}, "errors": ["PreArm: Hardware safety switch", "PreArm: Compasses inconsistent", "Glitch cleared", "GPS Glitch or Compass error"]}
{"timestamp": "2026-01-15T12:52:47.495344Z", "telemetry": {"lat": 28.7530716, "lon": 77.1179529, "satellites": 10, "altitude_gps_m": 210.75999450683594, "groundspeed_mps": 0.1683647483587265}, "flight": {"mode": "STABILIZE", "armed": false}, "ekf": {"attitude": {"roll": 0.04967893287539482, "pitch": -0.00420518359169364, "yaw": -1.9333866834640503}, "local_position": {"x": -1.8398107290267944, "y": 6.001415252685547, "z": 1.5591317415237427}, "status": {"flags": 33599, "velocity_variance": 0.06821512430906296, "pos_horiz_variance": 0.021059073507785797, "pos_vert_variance": 0.04989839345216751}}, "errors": ["PreArm: Hardware safety switch", "PreArm: Compasses inconsistent", "Glitch cleared", "GPS Glitch or Compass error"]}
{"timestamp": "2026-01-15T12:52:48.497262Z", "telemetry": {"lat": 28.7530738, "lon": 77.1179514, "satellites": 11, "altitude_gps_m": 210.6699981689453, "groundspeed_mps": 0.14981962740421295}, "flight": {"mode": "STABILIZE", "armed": false}, "ekf": {"attitude": {"roll": 0.049101296812295914, "pitch": -0.0039765541441738605, "yaw": -1.9308948516845703}, "local_position": {"x": -1.7161506414413452, "y": 6.148748397827148, "z": 1.6305590867996216}, "status": {"flags": 33599, "velocity_variance": 0.04598570987582207, "pos_horiz_variance": 0.011368279345333576, "pos_vert_variance": 0.022469207644462585}}, "errors": ["PreArm: Hardware safety switch", "PreArm: Compasses inconsistent", "Glitch cleared", "GPS Glitch or Compass error"]}
{"timestamp": "2026-01-15T12:52:49.500907Z", "telemetry": {"lat": 28.7530769, "lon": 77.1179498, "satellites": 11, "altitude_gps_m": 210.62998962402344, "groundspeed_mps": 0.17003817856311798}, "flight": {"mode": "STABILIZE", "armed": false}, "ekf": {"attitude": {"roll": 0.04943881183862686, "pitch": -0.003954040352255106, "yaw": -1.9295705556869507}, "local_position": {"x": -1.506497859954834, "y": 6.240747451782227, "z": 1.689988374710083}, "status": {"flags": 33599, "velocity_variance": 0.2342621088027954, "pos_horiz_variance": 0.005968241952359676, "pos_vert_variance": 0.053744301199913025}}, "errors": ["PreArm: Hardware safety switch", "PreArm: Compasses inconsistent", "Glitch cleared", "GPS Glitch or Compass error"]}
{"timestamp": "2026-01-15T12:52:50.499026Z", "telemetry": {"lat": 28.7530801, "lon": 77.1179464, "satellites": 10, "altitude_gps_m": 210.58999633789062, "groundspeed_mps": 0.19876031577587128}, "flight": {"mode": "STABILIZE", "armed": false}, "ekf": {"attitude": {"roll": 0.04992322623729706, "pitch": -0.004336222540587187, "yaw": -1.9278067350387573}, "local_position": {"x": -1.1752922534942627, "y": 6.135451316833496, "z": 1.7311694622039795}, "status": {"flags": 33599, "velocity_variance": 0.25142034888267517, "pos_horiz_variance": 0.006408685818314552, "pos_vert_variance": 0.018465014174580574}}, "errors": ["PreArm: Hardware safety switch", "PreArm: Compasses inconsistent", "Glitch cleared", "GPS Glitch or Compass error"]}
{"timestamp": "2026-01-15T12:52:51.499219Z", "telemetry": {"lat": 28.7530822, "lon": 77.1179457, "satellites": 10, "altitude_gps_m": 210.62998962402344, "groundspeed_mps": 0.2146628499031067}, "flight": {"mode": "STABILIZE", "armed": false}, "ekf": {"attitude": {"roll": 0.050079137086868286, "pitch": -0.004592517856508493, "yaw": -1.9257928133010864}, "local_position": {"x": -0.9173427224159241, "y": 6.087962627410889, "z": 1.700783371925354}, "status": {"flags": 33599, "velocity_variance": 0.11760523170232773, "pos_horiz_variance": 0.008573402650654316, "pos_vert_variance": 0.050303246825933456}}, "errors": ["PreArm: Hardware safety switch", "PreArm: Compasses inconsistent", "Glitch cleared", "GPS Glitch or Compass error", "PreArm: Hardware safety switch", "PreArm: Compasses inconsistent"]}
{"timestamp": "2026-01-15T12:52:52.474014Z", "telemetry": {"lat": 28.7530791, "lon": 77.1179501, "satellites": 10, "altitude_gps_m": 210.6199951171875, "groundspeed_mps": 0.13608913123607635}, "flight": {"mode": "STABILIZE", "armed": false}, "ekf": {"attitude": {"roll": 0.04852256923913956, "pitch": -0.004506729077547789, "yaw": -1.9240589141845703}, "local_position": {"x": -0.9231436252593994, "y": 6.1798319816589355, "z": 1.7201147079467773}, "status": {"flags": 33599, "velocity_variance": 0.0552556999027729, "pos_horiz_variance": 0.006877816282212734, "pos_vert_variance": 0.10437685251235962}}, "errors": ["PreArm: Hardware safety switch", "PreArm: Compasses inconsistent", "Glitch cleared", "GPS Glitch or Compass error", "PreArm: Hardware safety switch", "PreArm: Compasses inconsistent"]}
{"timestamp": "2026-01-15T12:52:53.471958Z", "telemetry": {"lat": 28.7530784, "lon": 77.1179516, "satellites": 9, "altitude_gps_m": 210.6699981689453, "groundspeed_mps": 0.10193482041358948}, "flight": {"mode": "STABILIZE", "armed": false}, "ekf": {"attitude": {"roll": 0.0473380908370018, "pitch": -0.004331012722104788, "yaw": -1.9225305318832397}, "local_position": {"x": -0.970298171043396, "y": 6.318843841552734, "z": 1.6634646654129028}, "status": {"flags": 33599, "velocity_variance": 0.13116812705993652, "pos_horiz_variance": 0.010216542519629002, "pos_vert_variance": 0.028800804167985916}}, "errors": ["PreArm: Hardware safety switch", "PreArm: Compasses inconsistent", "Glitch cleared", "GPS Glitch or Compass error", "PreArm: Hardware safety switch", "PreArm: Compasses inconsistent"]}
{"timestamp": "2026-01-15T12:52:54.479068Z", "telemetry": {"lat": 28.753077, "lon": 77.1179533, "satellites": 9, "altitude_gps_m": 210.59999084472656, "groundspeed_mps": 0.12527647614479065}, "flight": {"mode": "STABILIZE", "armed": false}, "ekf": {"attitude": {"roll": 0.04624068737030029, "pitch": -0.0043143643997609615, "yaw": -1.920800805091858}, "local_position": {"x": -1.1149554252624512, "y": 6.466327667236328, "z": 1.7233062982559204}, "status": {"flags": 33599, "velocity_variance": 0.1334691345691681, "pos_horiz_variance": 0.01220498327165842, "pos_vert_variance": 0.03581380844116211}}, "errors": ["PreArm: Hardware safety switch", "PreArm: Compasses inconsistent", "Glitch cleared", "GPS Glitch or Compass error", "PreArm: Hardware safety switch", "PreArm: Compasses inconsistent"]}
{"timestamp": "2026-01-15T12:52:55.485043Z", "telemetry": {"lat": 28.7530734, "lon": 77.1179572, "satellites": 9, "altitude_gps_m": 210.61000061035156, "groundspeed_mps": 0.2217659205198288}, "flight": {"mode": "STABILIZE", "armed": false}, "ekf": {"attitude": {"roll": 0.04498100280761719, "pitch": -0.004070440772920847, "yaw": -1.9192641973495483}, "local_position": {"x": -1.4029783010482788, "y": 6.735255718231201, "z": 1.7085304260253906}, "status": {"flags": 33599, "velocity_variance": 0.07019590586423874, "pos_horiz_variance": 0.017400871962308884, "pos_vert_variance": 0.018536580726504326}}, "errors": ["PreArm: Hardware safety switch", "PreArm: Compasses inconsistent", "Glitch cleared", "GPS Glitch or Compass error", "PreArm: Hardware safety switch", "PreArm: Compasses inconsistent"]}
