{"timestamp": "2026-01-15T14:01:33.469271Z", "telemetry": {"lat": 28.7530059, "lon": 77.1179622, "satellites": 0, "altitude_gps_m": 0.28999999165534973, "groundspeed_mps": 0.007969846948981285}, "flight": {"mode": "STABILIZE", "armed": false}, "ekf": {"attitude": {"roll": 0.022371776401996613, "pitch": 0.0007917401380836964, "yaw": -0.5127903819084167}, "local_position": {"x": null, "y": null, "z": null}, "status": {"flags": 135, "velocity_variance": 0.0, "pos_horiz_variance": 0.002306975657120347, "pos_vert_variance": 0.015247674658894539}}, "errors": []}
{"timestamp": "2026-01-15T14:01:34.484067Z", "telemetry": {"lat": 28.7530059, "lon": 77.1179622, "satellites": 0, "altitude_gps_m": 0.28999999165534973, "groundspeed_mps": 0.011606910265982151}, "flight": {"mode": "STABILIZE", "armed": false}, "ekf": {"attitude": {"roll": 0.022721437737345695, "pitch": 0.0016761571168899536, "yaw": -0.5127809643745422}, "local_position": {"x": null, "y": null, "z": null}, "status": {"flags": 135, "velocity_variance": 0.0, "pos_horiz_variance": 0.0024536936543881893, "pos_vert_variance": 0.09572827070951462}}, "errors": []}
{"timestamp": "2026-01-15T14:01:35.487098Z", "telemetry": {"lat": 28.7530059, "lon": 77.1179622, "satellites": 0, "altitude_gps_m": 0.28999999165534973, "groundspeed_mps": 0.010502908378839493}, "flight": {"mode": "STABILIZE", "armed": false}, "ekf": {"attitude": {"roll": 0.022917792201042175, "pitch": 0.001981886103749275, "yaw": -0.5128413438796997}, "local_position": {"x": null, "y": null, "z": null}, "status": {"flags": 135, "velocity_variance": 0.0, "pos_horiz_variance": 0.0026145470328629017, "pos_vert_variance": 0.01567043550312519}}, "errors": []}
{"timestamp": "2026-01-15T14:01:36.513845Z", "telemetry": {"lat": 28.7530059, "lon": 77.1179622, "satellites": 0, "altitude_gps_m": 0.28999999165534973, "groundspeed_mps": 0.010566603392362595}, "flight": {"mode": "STABILIZE", "armed": false}, "ekf": {"attitude": {"roll": 0.022761721163988113, "pitch": 0.0015994813293218613, "yaw": -0.5129643678665161}, "local_position": {"x": null, "y": null, "z": null}, "status": {"flags": 135, "velocity_variance": 0.0, "pos_horiz_variance": 0.0028375457040965557, "pos_vert_variance": 0.02793339639902115}}, "errors": []}
{"timestamp": "2026-01-15T14:01:37.513689Z", "telemetry": {"lat": 28.7530059, "lon": 77.1179622, "satellites": 0, "altitude_gps_m": 0.28999999165534973, "groundspeed_mps": 0.005431693978607655}, "flight": {"mode": "STABILIZE", "armed": false}, "ekf": {"attitude": {"roll": 0.02299981750547886, "pitch": 0.0022183640394359827, "yaw": -0.5123403072357178}, "local_position": {"x": null, "y": null, "z": null}, "status": {"flags": 135, "velocity_variance": 0.0, "pos_horiz_variance": 0.003051730105653405, "pos_vert_variance": 0.058789778500795364}}, "errors": []}
{"timestamp": "2026-01-15T14:01:38.487989Z", "telemetry": {"lat": 28.7530059, "lon": 77.1179622, "satellites": 0, "altitude_gps_m": 0.28999999165534973, "groundspeed_mps": 0.020451264455914497}, "flight": {"mode": "STABILIZE", "armed": false}, "ekf": {"attitude": {"roll": 0.0226986575871706, "pitch": 0.002039999468252063, "yaw": -0.5126421451568604}, "local_position": {"x": null, "y": null, "z": null}, "status": {"flags": 135, "velocity_variance": 0.0, "pos_horiz_variance": 0.0035273698158562183, "pos_vert_variance": 0.09418994933366776}}, "errors": []}
{"timestamp": "2026-01-15T14:01:39.493731Z", "telemetry": {"lat": 28.7530059, "lon": 77.1179622, "satellites": 0, "altitude_gps_m": 0.28999999165534973, "groundspeed_mps": 0.01685870811343193}, "flight": {"mode": "STABILIZE", "armed": false}, "ekf": {"attitude": {"roll": 0.022794120013713837, "pitch": 0.0013972234446555376, "yaw": -0.5126283168792725}, "local_position": {"x": null, "y": null, "z": null}, "status": {"flags": 135, "velocity_variance": 0.0, "pos_horiz_variance": 0.003987232223153114, "pos_vert_variance": 0.049116455018520355}}, "errors": []}
{"timestamp": "2026-01-15T14:01:40.493613Z", "telemetry": {"lat": 28.7530059, "lon": 77.1179622, "satellites": 0, "altitude_gps_m": 0.28999999165534973, "groundspeed_mps": 0.013841191306710243}, "flight": {"mode": "STABILIZE", "armed": false}, "ekf": {"attitude": {"roll": 0.022908728569746017, "pitch": 0.001497912686318159, "yaw": -0.5127719044685364}, "local_position": {"x": null, "y": null, "z": null}, "status": {"flags": 135, "velocity_variance": 0.0, "pos_horiz_variance": 0.0037666489370167255, "pos_vert_variance": 0.0034533122088760138}}, "errors": []}
{"timestamp": "2026-01-15T14:01:41.492891Z", "telemetry": {"lat": 28.7530059, "lon": 77.1179622, "satellites": 0, "altitude_gps_m": 0.28999999165534973, "groundspeed_mps": 0.00825044047087431}, "flight": {"mode": "STABILIZE", "armed": false}, "ekf": {"attitude": {"roll": 0.022868890315294266, "pitch": 0.0016782693564891815, "yaw": -0.5128164291381836}, "local_position": {"x": null, "y": null, "z": null}, "status": {"flags": 135, "velocity_variance": 0.0, "pos_horiz_variance": 0.003122438210994005, "pos_vert_variance": 0.012362959794700146}}, "errors": []}
{"timestamp": "2026-01-15T14:01:42.490174Z", "telemetry": {"lat": 28.7530059, "lon": 77.1179622, "satellites": 0, "altitude_gps_m": 0.28999999165534973, "groundspeed_mps": 0.010016494430601597}, "flight": {"mode": "STABILIZE", "armed": false}, "ekf": {"attitude": {"roll": 0.02292688377201557, "pitch": 0.0017950469627976418, "yaw": -0.5127145648002625}, "local_position": {"x": null, "y": null, "z": null}, "status": {"flags": 135, "velocity_variance": 0.0, "pos_horiz_variance": 0.002433291869238019, "pos_vert_variance": 0.04608782380819321}}, "errors": []}
{"timestamp": "2026-01-15T14:01:43.494191Z", "telemetry": {"lat": 28.7530059, "lon": 77.1179622, "satellites": 0, "altitude_gps_m": 0.28999999165534973, "groundspeed_mps": 0.011053632944822311}, "flight": {"mode": "STABILIZE", "armed": false}, "ekf": {"attitude": {"roll": 0.022911526262760162, "pitch": 0.0018982940819114447, "yaw": -0.5129194855690002}, "local_position": {"x": null, "y": null, "z": null}, "status": {"flags": 135, "velocity_variance": 0.0, "pos_horiz_variance": 0.0020735140424221754, "pos_vert_variance": 0.09281444549560547}}, "errors": []}
{"timestamp": "2026-01-15T14:01:44.497568Z", "telemetry": {"lat": 28.7530059, "lon": 77.1179622, "satellites": 0, "altitude_gps_m": 0.28999999165534973, "groundspeed_mps": 0.007107289973646402}, "flight": {"mode": "STABILIZE", "armed": false}, "ekf": {"attitude": {"roll": 0.022689953446388245, "pitch": 0.0014542576391249895, "yaw": -0.5130680799484253}, "local_position": {"x": null, "y": null, "z": null}, "status": {"flags": 135, "velocity_variance": 0.0, "pos_horiz_variance": 0.0020825539249926805, "pos_vert_variance": 0.15910565853118896}}, "errors": []}
{"timestamp": "2026-01-15T14:01:45.499531Z", "telemetry": {"lat": 28.7530059, "lon": 77.1179622, "satellites": 0, "altitude_gps_m": 0.28999999165534973, "groundspeed_mps": 0.007523176725953817}, "flight": {"mode": "STABILIZE", "armed": false}, "ekf": {"attitude": {"roll": 0.022700896486639977, "pitch": 0.0012590009719133377, "yaw": -0.5130808353424072}, "local_position": {"x": null, "y": null, "z": null}, "status": {"flags": 135, "velocity_variance": 0.0, "pos_horiz_variance": 0.001967695541679859, "pos_vert_variance": 0.0017515114741399884}}, "errors": []}
{"timestamp": "2026-01-15T14:01:46.499914Z", "telemetry": {"lat": 28.7530059, "lon": 77.1179622, "satellites": 0, "altitude_gps_m": 0.28999999165534973, "groundspeed_mps": 0.01126229390501976}, "flight": {"mode": "STABILIZE", "armed": false}, "ekf": {"attitude": {"roll": 0.022783959284424782, "pitch": 0.0017182237934321165, "yaw": -0.5129266977310181}, "local_position": {"x": null, "y": null, "z": null}, "status": {"flags": 135, "velocity_variance": 0.0, "pos_horiz_variance": 0.0020017584320157766, "pos_vert_variance": 0.00033524897298775613}}, "errors": []}
{"timestamp": "2026-01-15T14:01:47.505175Z", "telemetry": {"lat": 28.7530059, "lon": 77.1179622, "satellites": 0, "altitude_gps_m": 0.28999999165534973, "groundspeed_mps": 0.007112812716513872}, "flight": {"mode": "STABILIZE", "armed": false}, "ekf": {"attitude": {"roll": 0.022681614384055138, "pitch": 0.0017049522139132023, "yaw": -0.5132043361663818}, "local_position": {"x": null, "y": null, "z": null}, "status": {"flags": 135, "velocity_variance": 0.0, "pos_horiz_variance": 0.0021660570055246353, "pos_vert_variance": 0.12189611792564392}}, "errors": []}
{"timestamp": "2026-01-15T14:01:48.499769Z", "telemetry": {"lat": 28.7530059, "lon": 77.1179622, "satellites": 0, "altitude_gps_m": 0.28999999165534973, "groundspeed_mps": 0.0070804813876748085}, "flight": {"mode": "STABILIZE", "armed": false}, "ekf": {"attitude": {"roll": 0.022726666182279587, "pitch": 0.0015530460514128208, "yaw": -0.5129912495613098}, "local_position": {"x": null, "y": null, "z": null}, "status": {"flags": 135, "velocity_variance": 0.0, "pos_horiz_variance": 0.002186269499361515, "pos_vert_variance": 0.005469669122248888}}, "errors": []}
{"timestamp": "2026-01-15T14:01:49.496036Z", "telemetry": {"lat": 28.7530059, "lon": 77.1179622, "satellites": 0, "altitude_gps_m": 0.28999999165534973, "groundspeed_mps": 0.007645482197403908}, "flight": {"mode": "STABILIZE", "armed": false}, "ekf": {"attitude": {"roll": 0.02277742326259613, "pitch": 0.0016498796176165342, "yaw": -0.513264000415802}, "local_position": {"x": null, "y": null, "z": null}, "status": {"flags": 135, "velocity_variance": 0.0, "pos_horiz_variance": 0.0020671484526246786, "pos_vert_variance": 0.04645286500453949}}, "errors": ["PreArm: Hardware safety switch", "PreArm: Battery 1 low voltage failsafe"]}
{"timestamp": "2026-01-15T14:01:50.471121Z", "telemetry": {"lat": 28.7530059, "lon": 77.1179622, "satellites": 0, "altitude_gps_m": 0.28999999165534973, "groundspeed_mps": 0.008405695669353008}, "flight": {"mode": "STABILIZE", "armed": false}, "ekf": {"attitude": {"roll": 0.02281944453716278, "pitch": 0.001538741635158658, "yaw": -0.5131009817123413}, "local_position": {"x": null, "y": null, "z": null}, "status": {"flags": 135, "velocity_variance": 0.0, "pos_horiz_variance": 0.002042182022705674, "pos_vert_variance": 0.02227594517171383}}, "errors": ["PreArm: Hardware safety switch", "PreArm: Battery 1 low voltage failsafe"]}
{"timestamp": "2026-01-15T14:01:51.471629Z", "telemetry": {"lat": 28.7530059, "lon": 77.1179622, "satellites": 0, "altitude_gps_m": 0.28999999165534973, "groundspeed_mps": 0.009853404015302658}, "flight": {"mode": "STABILIZE", "armed": false}, "ekf": {"attitude": {"roll": 0.022767484188079834, "pitch": 0.0017722880002111197, "yaw": -0.513008713722229}, "local_position": {"x": null, "y": null, "z": null}, "status": {"flags": 135, "velocity_variance": 0.0, "pos_horiz_variance": 0.002191551262512803, "pos_vert_variance": 0.016696929931640625}}, "errors": ["PreArm: Hardware safety switch", "PreArm: Battery 1 low voltage failsafe"]}
{"timestamp": "2026-01-15T14:01:52.470051Z", "telemetry": {"lat": 28.7530059, "lon": 77.1179622, "satellites": 0, "altitude_gps_m": 0.28999999165534973, "groundspeed_mps": 0.0068588717840611935}, "flight": {"mode": "STABILIZE", "armed": false}, "ekf": {"attitude": {"roll": 0.022829802706837654, "pitch": 0.0018721267115324736, "yaw": -0.5126494765281677}, "local_position": {"x": null, "y": null, "z": null}, "status": {"flags": 135, "velocity_variance": 0.0, "pos_horiz_variance": 0.0019228756427764893, "pos_vert_variance": 0.058384619653224945}}, "errors": ["PreArm: Hardware safety switch", "PreArm: Battery 1 low voltage failsafe"]}
{"timestamp": "2026-01-15T14:01:53.497765Z", "telemetry": {"lat": 28.7530059, "lon": 77.1179622, "satellites": 0, "altitude_gps_m": 0.28999999165534973, "groundspeed_mps": 0.004561931360512972}, "flight": {"mode": "STABILIZE", "armed": false}, "ekf": {"attitude": {"roll": 0.02271067164838314, "pitch": 0.0019226144067943096, "yaw": -0.5128244757652283}, "local_position": {"x": null, "y": null, "z": null}, "status": {"flags": 135, "velocity_variance": 0.0, "pos_horiz_variance": 0.0014101520646363497, "pos_vert_variance": 0.07194773852825165}}, "errors": ["PreArm: Hardware safety switch", "PreArm: Battery 1 low voltage failsafe"]}
{"timestamp": "2026-01-15T14:01:54.497753Z", "telemetry": {"lat": 28.7530059, "lon": 77.1179622, "satellites": 0, "altitude_gps_m": 0.28999999165534973, "groundspeed_mps": 0.004574585240334272}, "flight": {"mode": "STABILIZE", "armed": false}, "ekf": {"attitude": {"roll": 0.022777123376727104, "pitch": 0.0022679315879940987, "yaw": -0.5127609372138977}, "local_position": {"x": null, "y": null, "z": null}, "status": {"flags": 135, "velocity_variance": 0.0, "pos_horiz_variance": 0.0008535684901289642, "pos_vert_variance": 0.03684379532933235}}, "errors": ["PreArm: Hardware safety switch", "PreArm: Battery 1 low voltage failsafe"]}
{"timestamp": "2026-01-15T14:01:55.501791Z", "telemetry": {"lat": 28.7530059, "lon": 77.1179622, "satellites": 0, "altitude_gps_m": 0.28999999165534973, "groundspeed_mps": 0.0062112086452543736}, "flight": {"mode": "STABILIZE", "armed": false}, "ekf": {"attitude": {"roll": 0.02274693362414837, "pitch": 0.0019474267028272152, "yaw": -0.5128763318061829}, "local_position": {"x": null, "y": null, "z": null}, "status": {"flags": 135, "velocity_variance": 0.0, "pos_horiz_variance": 0.0008106480818241835, "pos_vert_variance": 0.02305142767727375}}, "errors": ["PreArm: Hardware safety switch", "PreArm: Battery 1 low voltage failsafe"]}
{"timestamp": "2026-01-15T14:01:56.508852Z", "telemetry": {"lat": 28.7530059, "lon": 77.1179622, "satellites": 0, "altitude_gps_m": 0.28999999165534973, "groundspeed_mps": 0.004513642285019159}, "flight": {"mode": "STABILIZE", "armed": false}, "ekf": {"attitude": {"roll": 0.02266146056354046, "pitch": 0.0019345271866768599, "yaw": -0.5130589604377747}, "local_position": {"x": null, "y": null, "z": null}, "status": {"flags": 135, "velocity_variance": 0.0, "pos_horiz_variance": 0.0009872474474832416, "pos_vert_variance": 0.0009405373129993677}}, "errors": ["PreArm: Hardware safety switch", "PreArm: Battery 1 low voltage failsafe"]}
{"timestamp": "2026-01-15T14:01:57.501556Z", "telemetry": {"lat": 28.7530059, "lon": 77.1179622, "satellites": 0, "altitude_gps_m": 0.28999999165534973, "groundspeed_mps": 0.009248040616512299}, "flight": {"mode": "STABILIZE", "armed": false}, "ekf": {"attitude": {"roll": 0.02279045060276985, "pitch": 0.001913020620122552, "yaw": -0.5128777623176575}, "local_position": {"x": null, "y": null, "z": null}, "status": {"flags": 135, "velocity_variance": 0.0, "pos_horiz_variance": 0.001054260297678411, "pos_vert_variance": 0.06004370003938675}}, "errors": ["PreArm: Hardware safety switch", "PreArm: Battery 1 low voltage failsafe"]}
{"timestamp": "2026-01-15T14:01:58.501881Z", "telemetry": {"lat": 28.7530059, "lon": 77.1179622, "satellites": 0, "altitude_gps_m": 0.28999999165534973, "groundspeed_mps": 0.010934021323919296}, "flight": {"mode": "STABILIZE", "armed": false}, "ekf": {"attitude": {"roll": 0.02300923876464367, "pitch": 0.003037975635379553, "yaw": -0.513123631477356}, "local_position": {"x": null, "y": null, "z": null}, "status": {"flags": 135, "velocity_variance": 0.0, "pos_horiz_variance": 0.0011596035910770297, "pos_vert_variance": 0.0260014645755291}}, "errors": ["PreArm: Hardware safety switch", "PreArm: Battery 1 low voltage failsafe"]}
{"timestamp": "2026-01-15T14:01:59.475434Z", "telemetry": {"lat": 28.7530059, "lon": 77.1179622, "satellites": 0, "altitude_gps_m": 0.28999999165534973, "groundspeed_mps": 0.004519603215157986}, "flight": {"mode": "STABILIZE", "armed": false}, "ekf": {"attitude": {"roll": 0.022765912115573883, "pitch": 0.0027337907813489437, "yaw": -0.5126193761825562}, "local_position": {"x": null, "y": null, "z": null}, "status": {"flags": 135, "velocity_variance": 0.0, "pos_horiz_variance": 0.0012085962807759643, "pos_vert_variance": 0.01640893518924713}}, "errors": ["PreArm: Hardware safety switch", "PreArm: Battery 1 low voltage failsafe"]}
{"timestamp": "2026-01-15T14:02:00.474392Z", "telemetry": {"lat": 28.7530059, "lon": 77.1179622, "satellites": 0, "altitude_gps_m": 0.28999999165534973, "groundspeed_mps": 0.0019667758606374264}, "flight": {"mode": "STABILIZE", "armed": false}, "ekf": {"attitude": {"roll": 0.022596467286348343, "pitch": 0.0019511093851178885, "yaw": -0.5122634172439575}, "local_position": {"x": null, "y": null, "z": null}, "status": {"flags": 135, "velocity_variance": 0.0, "pos_horiz_variance": 0.0015734942862764, "pos_vert_variance": 0.040639474987983704}}, "errors": ["PreArm: Hardware safety switch", "PreArm: Battery 1 low voltage failsafe"]}
{"timestamp": "2026-01-15T14:02:01.482734Z", "telemetry": {"lat": 28.7530059, "lon": 77.1179622, "satellites": 0, "altitude_gps_m": 0.28999999165534973, "groundspeed_mps": 0.0055947392247617245}, "flight": {"mode": "STABILIZE", "armed": false}, "ekf": {"attitude": {"roll": 0.022604217752814293, "pitch": 0.0022937720641493797, "yaw": -0.5119537711143494}, "local_position": {"x": null, "y": null, "z": null}, "status": {"flags": 135, "velocity_variance": 0.0, "pos_horiz_variance": 0.0011280531762167811, "pos_vert_variance": 0.07081182301044464}}, "errors": ["PreArm: Hardware safety switch", "PreArm: Battery 1 low voltage failsafe"]}
{"timestamp": "2026-01-15T14:02:02.480304Z", "telemetry": {"lat": 28.7530059, "lon": 77.1179622, "satellites": 0, "altitude_gps_m": 0.28999999165534973, "groundspeed_mps": 0.013924844563007355}, "flight": {"mode": "STABILIZE", "armed": false}, "ekf": {"attitude": {"roll": 0.02244485914707184, "pitch": 0.0019698983523994684, "yaw": -0.5115715265274048}, "local_position": {"x": null, "y": null, "z": null}, "status": {"flags": 135, "velocity_variance": 0.0, "pos_horiz_variance": 0.0018483531894162297, "pos_vert_variance": 0.002770183142274618}}, "errors": ["PreArm: Hardware safety switch", "PreArm: Battery 1 low voltage failsafe"]}
{"timestamp": "2026-01-15T14:02:03.509281Z", "telemetry": {"lat": 28.7530059, "lon": 77.1179622, "satellites": 0, "altitude_gps_m": 0.28999999165534973, "groundspeed_mps": 0.008663561195135117}, "flight": {"mode": "STABILIZE", "armed": false}, "ekf": {"attitude": {"roll": 0.02265201136469841, "pitch": 0.0028690327890217304, "yaw": -0.511255145072937}, "local_position": {"x": null, "y": null, "z": null}, "status": {"flags": 135, "velocity_variance": 0.0, "pos_horiz_variance": 0.0016837532166391611, "pos_vert_variance": 0.00021443187142722309}}, "errors": ["PreArm: Hardware safety switch", "PreArm: Battery 1 low voltage failsafe"]}
{"timestamp": "2026-01-15T14:02:04.509561Z", "telemetry": {"lat": 28.7530059, "lon": 77.1179622, "satellites": 0, "altitude_gps_m": 0.28999999165534973, "groundspeed_mps": 0.007591474335640669}, "flight": {"mode": "STABILIZE", "armed": false}, "ekf": {"attitude": {"roll": 0.02223578840494156, "pitch": 0.0018708452116698027, "yaw": -0.5114803910255432}, "local_position": {"x": null, "y": null, "z": null}, "status": {"flags": 135, "velocity_variance": 0.0, "pos_horiz_variance": 0.0017247420037165284, "pos_vert_variance": 0.03807174041867256}}, "errors": ["PreArm: Hardware safety switch", "PreArm: Battery 1 low voltage failsafe"]}
{"timestamp": "2026-01-15T14:02:05.509429Z", "telemetry": {"lat": 28.7530059, "lon": 77.1179622, "satellites": 0, "altitude_gps_m": 0.28999999165534973, "groundspeed_mps": 0.004281466826796532}, "flight": {"mode": "STABILIZE", "armed": false}, "ekf": {"attitude": {"roll": 0.02224688045680523, "pitch": 0.0019903278443962336, "yaw": -0.5113726258277893}, "local_position": {"x": null, "y": null, "z": null}, "status": {"flags": 135, "velocity_variance": 0.0, "pos_horiz_variance": 0.0013860692270100117, "pos_vert_variance": 0.015346257016062737}}, "errors": ["PreArm: Hardware safety switch", "PreArm: Battery 1 low voltage failsafe"]}
{"timestamp": "2026-01-15T14:02:06.509491Z", "telemetry": {"lat": 28.7530059, "lon": 77.1179622, "satellites": 0, "altitude_gps_m": 0.28999999165534973, "groundspeed_mps": 0.0023190893698483706}, "flight": {"mode": "STABILIZE", "armed": false}, "ekf": {"attitude": {"roll": 0.022382967174053192, "pitch": 0.0017061610706150532, "yaw": -0.5115628242492676}, "local_position": {"x": null, "y": null, "z": null}, "status": {"flags": 135, "velocity_variance": 0.0, "pos_horiz_variance": 0.0008794244495220482, "pos_vert_variance": 0.031440917402505875}}, "errors": ["PreArm: Hardware safety switch", "PreArm: Battery 1 low voltage failsafe"]}
{"timestamp": "2026-01-15T14:02:07.483145Z", "telemetry": {"lat": 28.7530059, "lon": 77.1179622, "satellites": 0, "altitude_gps_m": 0.28999999165534973, "groundspeed_mps": 0.0030241881031543016}, "flight": {"mode": "STABILIZE", "armed": false}, "ekf": {"attitude": {"roll": 0.022520529106259346, "pitch": 0.0017672686371952295, "yaw": -0.5116517543792725}, "local_position": {"x": null, "y": null, "z": null}, "status": {"flags": 135, "velocity_variance": 0.0, "pos_horiz_variance": 0.0006671989103779197, "pos_vert_variance": 0.07950404286384583}}, "errors": ["PreArm: Hardware safety switch", "PreArm: Battery 1 low voltage failsafe"]}
{"timestamp": "2026-01-15T14:02:08.478596Z", "telemetry": {"lat": 28.7530059, "lon": 77.1179622, "satellites": 0, "altitude_gps_m": 0.28999999165534973, "groundspeed_mps": 0.0010569404112175107}, "flight": {"mode": "STABILIZE", "armed": false}, "ekf": {"attitude": {"roll": 0.02273881621658802, "pitch": 0.0014349054545164108, "yaw": -0.5117721557617188}, "local_position": {"x": null, "y": null, "z": null}, "status": {"flags": 135, "velocity_variance": 0.0, "pos_horiz_variance": 0.000401932280510664, "pos_vert_variance": 0.08736738562583923}}, "errors": ["PreArm: Hardware safety switch", "PreArm: Battery 1 low voltage failsafe"]}
{"timestamp": "2026-01-15T14:02:09.484691Z", "telemetry": {"lat": 28.7530059, "lon": 77.1179622, "satellites": 0, "altitude_gps_m": 0.28999999165534973, "groundspeed_mps": 0.007376986090093851}, "flight": {"mode": "STABILIZE", "armed": false}, "ekf": {"attitude": {"roll": 0.022679422050714493, "pitch": 0.0021417862735688686, "yaw": -0.5116552114486694}, "local_position": {"x": null, "y": null, "z": null}, "status": {"flags": 135, "velocity_variance": 0.0, "pos_horiz_variance": 0.0004556837666314095, "pos_vert_variance": 0.09875330328941345}}, "errors": ["PreArm: Hardware safety switch", "PreArm: Battery 1 low voltage failsafe"]}
{"timestamp": "2026-01-15T14:02:10.492288Z", "telemetry": {"lat": 28.7530059, "lon": 77.1179622, "satellites": 0, "altitude_gps_m": 0.28999999165534973, "groundspeed_mps": 0.008806883357465267}, "flight": {"mode": "STABILIZE", "armed": false}, "ekf": {"attitude": {"roll": 0.022545550018548965, "pitch": 0.001642477000132203, "yaw": -0.5119581818580627}, "local_position": {"x": null, "y": null, "z": null}, "status": {"flags": 135, "velocity_variance": 0.0, "pos_horiz_variance": 0.001188076799735427, "pos_vert_variance": 0.0724412202835083}}, "errors": ["PreArm: Hardware safety switch", "PreArm: Battery 1 low voltage failsafe"]}
{"timestamp": "2026-01-15T14:02:11.489450Z", "telemetry": {"lat": 28.7530059, "lon": 77.1179622, "satellites": 0, "altitude_gps_m": 0.28999999165534973, "groundspeed_mps": 0.008538955822587013}, "flight": {"mode": "STABILIZE", "armed": false}, "ekf": {"attitude": {"roll": 0.022601092234253883, "pitch": 0.0020723233465105295, "yaw": -0.511938214302063}, "local_position": {"x": null, "y": null, "z": null}, "status": {"flags": 135, "velocity_variance": 0.0, "pos_horiz_variance": 0.001575256115756929, "pos_vert_variance": 0.0373678132891655}}, "errors": ["PreArm: Hardware safety switch", "PreArm: Battery 1 low voltage failsafe"]}
{"timestamp": "2026-01-15T14:02:12.517430Z", "telemetry": {"lat": 28.7530059, "lon": 77.1179622, "satellites": 0, "altitude_gps_m": 0.28999999165534973, "groundspeed_mps": 0.005753147881478071}, "flight": {"mode": "STABILIZE", "armed": false}, "ekf": {"attitude": {"roll": 0.022627713158726692, "pitch": 0.00236748275347054, "yaw": -0.512066662311554}, "local_position": {"x": null, "y": null, "z": null}, "status": {"flags": 135, "velocity_variance": 0.0, "pos_horiz_variance": 0.001310468651354313, "pos_vert_variance": 0.09694553166627884}}, "errors": ["PreArm: Hardware safety switch", "PreArm: Battery 1 low voltage failsafe"]}
{"timestamp": "2026-01-15T14:02:13.518606Z", "telemetry": {"lat": 28.7530059, "lon": 77.1179622, "satellites": 0, "altitude_gps_m": 0.28999999165534973, "groundspeed_mps": 0.008108440786600113}, "flight": {"mode": "STABILIZE", "armed": false}, "ekf": {"attitude": {"roll": 0.022351834923028946, "pitch": 0.0020749226678162813, "yaw": -0.5124185085296631}, "local_position": {"x": null, "y": null, "z": null}, "status": {"flags": 135, "velocity_variance": 0.0, "pos_horiz_variance": 0.0011216169223189354, "pos_vert_variance": 0.004945115186274052}}, "errors": ["PreArm: Hardware safety switch", "PreArm: Battery 1 low voltage failsafe"]}
{"timestamp": "2026-01-15T14:02:14.487471Z", "telemetry": {"lat": 28.7530059, "lon": 77.1179622, "satellites": 0, "altitude_gps_m": 0.28999999165534973, "groundspeed_mps": 0.0071700140833854675}, "flight": {"mode": "STABILIZE", "armed": false}, "ekf": {"attitude": {"roll": 0.02260362170636654, "pitch": 0.002062890911474824, "yaw": -0.5121356248855591}, "local_position": {"x": null, "y": null, "z": null}, "status": {"flags": 135, "velocity_variance": 0.0, "pos_horiz_variance": 0.0010272811632603407, "pos_vert_variance": 0.10508103668689728}}, "errors": ["PreArm: Hardware safety switch", "PreArm: Battery 1 low voltage failsafe"]}
{"timestamp": "2026-01-15T14:02:15.489495Z", "telemetry": {"lat": 28.7530059, "lon": 77.1179622, "satellites": 0, "altitude_gps_m": 0.28999999165534973, "groundspeed_mps": 0.0071700140833854675}, "flight": {"mode": "STABILIZE", "armed": false}, "ekf": {"attitude": {"roll": 0.02260362170636654, "pitch": 0.002062890911474824, "yaw": -0.5121356248855591}, "local_position": {"x": null, "y": null, "z": null}, "status": {"flags": 135, "velocity_variance": 0.0, "pos_horiz_variance": 0.0010272811632603407, "pos_vert_variance": 0.10508103668689728}}, "errors": ["PreArm: Hardware safety switch", "PreArm: Battery 1 low voltage failsafe"]}
