{"timestamp": "2026-01-15T11:47:11.846990Z", "telemetry": {"lat": null, "lon": null, "satellites": null, "altitude_gps_m": null, "groundspeed_mps": null}, "flight": {"mode": null, "armed": null}, "ekf": {"attitude": {"roll": null, "pitch": null, "yaw": null}, "local_position": {"x": null, "y": null, "z": null}, "status": {"flags": null, "velocity_variance": null, "pos_horiz_variance": null, "pos_vert_variance": null}}, "errors": []}
{"timestamp": "2026-01-15T11:47:12.913455Z", "telemetry": {"lat": 28.7524123, "lon": 77.1180539, "satellites": 9, "altitude_gps_m": 204.86000061035156, "groundspeed_mps": 1.176904559135437}, "flight": {"mode": null, "armed": null}, "ekf": {"attitude": {"roll": 0.025997871533036232, "pitch": -0.31722885370254517, "yaw": -2.6583425998687744}, "local_position": {"x": -75.81184387207031, "y": 19.73248863220215, "z": 3.1318559646606445}, "status": {"flags": 831, "velocity_variance": 0.1156381294131279, "pos_horiz_variance": 0.025117501616477966, "pos_vert_variance": 0.10055478662252426}}, "errors": []}
{"timestamp": "2026-01-15T11:47:13.949227Z", "telemetry": {"lat": 28.7524123, "lon": 77.1180539, "satellites": 9, "altitude_gps_m": 204.86000061035156, "groundspeed_mps": 1.176904559135437}, "flight": {"mode": null, "armed": null}, "ekf": {"attitude": {"roll": 0.025997871533036232, "pitch": -0.31722885370254517, "yaw": -2.6583425998687744}, "local_position": {"x": -74.62820434570312, "y": 18.529224395751953, "z": 2.5518906116485596}, "status": {"flags": 831, "velocity_variance": 0.025782762095332146, "pos_horiz_variance": 0.011821680702269077, "pos_vert_variance": 0.12854351103305817}}, "errors": []}
{"timestamp": "2026-01-15T11:47:14.995888Z", "telemetry": {"lat": 28.7524123, "lon": 77.1180539, "satellites": 9, "altitude_gps_m": 204.86000061035156, "groundspeed_mps": 1.176904559135437}, "flight": {"mode": null, "armed": null}, "ekf": {"attitude": {"roll": 0.025997871533036232, "pitch": -0.31722885370254517, "yaw": -2.6583425998687744}, "local_position": {"x": -74.14186096191406, "y": 17.877113342285156, "z": 2.2529430389404297}, "status": {"flags": 831, "velocity_variance": 0.025782762095332146, "pos_horiz_variance": 0.011821680702269077, "pos_vert_variance": 0.12854351103305817}}, "errors": []}
{"timestamp": "2026-01-15T11:47:15.981247Z", "telemetry": {"lat": 28.7524123, "lon": 77.1180539, "satellites": 9, "altitude_gps_m": 204.86000061035156, "groundspeed_mps": 1.176904559135437}, "flight": {"mode": null, "armed": null}, "ekf": {"attitude": {"roll": 0.025997871533036232, "pitch": -0.31722885370254517, "yaw": -2.6583425998687744}, "local_position": {"x": -74.14186096191406, "y": 17.877113342285156, "z": 2.2529430389404297}, "status": {"flags": 831, "velocity_variance": 0.025782762095332146, "pos_horiz_variance": 0.011821680702269077, "pos_vert_variance": 0.12854351103305817}}, "errors": []}
{"timestamp": "2026-01-15T11:47:16.980257Z", "telemetry": {"lat": 28.7524388, "lon": 77.1180178, "satellites": 9, "altitude_gps_m": 204.86000061035156, "groundspeed_mps": 1.176904559135437}, "flight": {"mode": "STABILIZE", "armed": false}, "ekf": {"attitude": {"roll": 0.025997871533036232, "pitch": -0.31722885370254517, "yaw": -2.6583425998687744}, "local_position": {"x": -74.14186096191406, "y": 17.877113342285156, "z": 2.2529430389404297}, "status": {"flags": 831, "velocity_variance": 0.025782762095332146, "pos_horiz_variance": 0.011821680702269077, "pos_vert_variance": 0.12854351103305817}}, "errors": []}
{"timestamp": "2026-01-15T11:47:17.980102Z", "telemetry": {"lat": 28.7524388, "lon": 77.1180178, "satellites": 9, "altitude_gps_m": 204.86000061035156, "groundspeed_mps": 1.176904559135437}, "flight": {"mode": "STABILIZE", "armed": false}, "ekf": {"attitude": {"roll": 0.025997871533036232, "pitch": -0.31722885370254517, "yaw": -2.6583425998687744}, "local_position": {"x": -74.14186096191406, "y": 17.877113342285156, "z": 2.2529430389404297}, "status": {"flags": 831, "velocity_variance": 0.025782762095332146, "pos_horiz_variance": 0.011821680702269077, "pos_vert_variance": 0.12854351103305817}}, "errors": []}
{"timestamp": "2026-01-15T11:47:18.990858Z", "telemetry": {"lat": 28.7524388, "lon": 77.1180178, "satellites": 9, "altitude_gps_m": 204.86000061035156, "groundspeed_mps": 1.176904559135437}, "flight": {"mode": "STABILIZE", "armed": false}, "ekf": {"attitude": {"roll": 0.025997871533036232, "pitch": -0.31722885370254517, "yaw": -2.6583425998687744}, "local_position": {"x": -74.14186096191406, "y": 17.877113342285156, "z": 2.2529430389404297}, "status": {"flags": 831, "velocity_variance": 0.025782762095332146, "pos_horiz_variance": 0.011821680702269077, "pos_vert_variance": 0.12854351103305817}}, "errors": []}
{"timestamp": "2026-01-15T11:47:19.981664Z", "telemetry": {"lat": 28.7524388, "lon": 77.1180178, "satellites": 9, "altitude_gps_m": 204.86000061035156, "groundspeed_mps": 1.176904559135437}, "flight": {"mode": "STABILIZE", "armed": false}, "ekf": {"attitude": {"roll": 0.025997871533036232, "pitch": -0.31722885370254517, "yaw": -2.6583425998687744}, "local_position": {"x": -74.14186096191406, "y": 17.877113342285156, "z": 2.2529430389404297}, "status": {"flags": 831, "velocity_variance": 0.025782762095332146, "pos_horiz_variance": 0.011821680702269077, "pos_vert_variance": 0.12854351103305817}}, "errors": []}
{"timestamp": "2026-01-15T11:47:20.980030Z", "telemetry": {"lat": 28.7524388, "lon": 77.1180178, "satellites": 9, "altitude_gps_m": 207.12998962402344, "groundspeed_mps": 0.9940410852432251}, "flight": {"mode": "STABILIZE", "armed": false}, "ekf": {"attitude": {"roll": -0.4516570270061493, "pitch": -0.17000317573547363, "yaw": -2.62605881690979}, "local_position": {"x": -69.23260498046875, "y": 13.265701293945312, "z": 0.5279343724250793}, "status": {"flags": 831, "velocity_variance": 0.07583625614643097, "pos_horiz_variance": 0.014978408813476562, "pos_vert_variance": 0.055271215736866}}, "errors": []}
{"timestamp": "2026-01-15T11:47:21.980998Z", "telemetry": {"lat": 28.7524388, "lon": 77.1180178, "satellites": 9, "altitude_gps_m": 207.12998962402344, "groundspeed_mps": 0.9940410852432251}, "flight": {"mode": "STABILIZE", "armed": false}, "ekf": {"attitude": {"roll": -0.4516570270061493, "pitch": -0.17000317573547363, "yaw": -2.62605881690979}, "local_position": {"x": -69.23260498046875, "y": 13.265701293945312, "z": 0.5279343724250793}, "status": {"flags": 831, "velocity_variance": 0.07583625614643097, "pos_horiz_variance": 0.014978408813476562, "pos_vert_variance": 0.055271215736866}}, "errors": []}
{"timestamp": "2026-01-15T11:47:22.980437Z", "telemetry": {"lat": 28.7524388, "lon": 77.1180178, "satellites": 9, "altitude_gps_m": 207.12998962402344, "groundspeed_mps": 0.9940410852432251}, "flight": {"mode": "STABILIZE", "armed": false}, "ekf": {"attitude": {"roll": -0.4516570270061493, "pitch": -0.17000317573547363, "yaw": -2.62605881690979}, "local_position": {"x": -69.23260498046875, "y": 13.265701293945312, "z": 0.5279343724250793}, "status": {"flags": 831, "velocity_variance": 0.07583625614643097, "pos_horiz_variance": 0.014978408813476562, "pos_vert_variance": 0.055271215736866}}, "errors": []}
{"timestamp": "2026-01-15T11:47:24.006624Z", "telemetry": {"lat": 28.7524388, "lon": 77.1180178, "satellites": 9, "altitude_gps_m": 207.12998962402344, "groundspeed_mps": 0.9940410852432251}, "flight": {"mode": "STABILIZE", "armed": false}, "ekf": {"attitude": {"roll": -0.4516570270061493, "pitch": -0.17000317573547363, "yaw": -2.62605881690979}, "local_position": {"x": -69.23260498046875, "y": 13.265701293945312, "z": 0.5279343724250793}, "status": {"flags": 831, "velocity_variance": 0.07583625614643097, "pos_horiz_variance": 0.014978408813476562, "pos_vert_variance": 0.055271215736866}}, "errors": []}
{"timestamp": "2026-01-15T11:47:24.980596Z", "telemetry": {"lat": 28.7524388, "lon": 77.1180178, "satellites": 9, "altitude_gps_m": 207.4099884033203, "groundspeed_mps": 1.2441272735595703}, "flight": {"mode": "STABILIZE", "armed": false}, "ekf": {"attitude": {"roll": -0.467712938785553, "pitch": -0.16009844839572906, "yaw": -2.0479001998901367}, "local_position": {"x": -69.23260498046875, "y": 13.265701293945312, "z": 0.5279343724250793}, "status": {"flags": 831, "velocity_variance": 0.07583625614643097, "pos_horiz_variance": 0.014978408813476562, "pos_vert_variance": 0.055271215736866}}, "errors": []}
{"timestamp": "2026-01-15T11:47:25.980111Z", "telemetry": {"lat": 28.752516, "lon": 77.1179675, "satellites": 9, "altitude_gps_m": 207.4199981689453, "groundspeed_mps": 1.228305459022522}, "flight": {"mode": "STABILIZE", "armed": false}, "ekf": {"attitude": {"roll": -0.45967769622802734, "pitch": -0.20626117289066315, "yaw": -1.9113965034484863}, "local_position": {"x": -63.844947814941406, "y": 10.923294067382812, "z": 0.23970720171928406}, "status": {"flags": 831, "velocity_variance": 0.0762183666229248, "pos_horiz_variance": 0.012915407307446003, "pos_vert_variance": 0.015966996550559998}}, "errors": []}
{"timestamp": "2026-01-15T11:47:26.980549Z", "telemetry": {"lat": 28.7525258, "lon": 77.1179652, "satellites": 9, "altitude_gps_m": 207.36000061035156, "groundspeed_mps": 1.2445060014724731}, "flight": {"mode": "STABILIZE", "armed": false}, "ekf": {"attitude": {"roll": -0.40790408849716187, "pitch": -0.20205920934677124, "yaw": -1.8719764947891235}, "local_position": {"x": -62.670169830322266, "y": 10.695768356323242, "z": 0.2917000651359558}, "status": {"flags": 831, "velocity_variance": 0.06225975230336189, "pos_horiz_variance": 0.011245365254580975, "pos_vert_variance": 0.013815121725201607}}, "errors": []}
{"timestamp": "2026-01-15T11:47:27.979912Z", "telemetry": {"lat": 28.7525359, "lon": 77.1179627, "satellites": 9, "altitude_gps_m": 207.30999755859375, "groundspeed_mps": 1.191773772239685}, "flight": {"mode": "STABILIZE", "armed": false}, "ekf": {"attitude": {"roll": -0.3815505802631378, "pitch": -0.2384987473487854, "yaw": -1.9169310331344604}, "local_position": {"x": -61.5485725402832, "y": 10.463458061218262, "z": 0.343335896730423}, "status": {"flags": 831, "velocity_variance": 0.09689664840698242, "pos_horiz_variance": 0.016585880890488625, "pos_vert_variance": 0.03659164533019066}}, "errors": []}
{"timestamp": "2026-01-15T11:47:28.980784Z", "telemetry": {"lat": 28.7525456, "lon": 77.1179623, "satellites": 9, "altitude_gps_m": 207.22999572753906, "groundspeed_mps": 1.2382917404174805}, "flight": {"mode": "STABILIZE", "armed": false}, "ekf": {"attitude": {"roll": -0.3429262936115265, "pitch": -0.15118670463562012, "yaw": -1.9875117540359497}, "local_position": {"x": -60.434181213378906, "y": 10.374653816223145, "z": 0.43045470118522644}, "status": {"flags": 831, "velocity_variance": 0.06558500975370407, "pos_horiz_variance": 0.015490517020225525, "pos_vert_variance": 0.02699272707104683}}, "errors": []}
{"timestamp": "2026-01-15T11:47:29.980798Z", "telemetry": {"lat": 28.7525571, "lon": 77.11796, "satellites": 9, "altitude_gps_m": 207.0800018310547, "groundspeed_mps": 1.2697888612747192}, "flight": {"mode": "STABILIZE", "armed": false}, "ekf": {"attitude": {"roll": -0.3410888910293579, "pitch": -0.15316779911518097, "yaw": -2.0186874866485596}, "local_position": {"x": -59.24459457397461, "y": 10.197160720825195, "z": 0.577878475189209}, "status": {"flags": 831, "velocity_variance": 0.028486356139183044, "pos_horiz_variance": 0.012821761891245842, "pos_vert_variance": 0.054417774081230164}}, "errors": []}
{"timestamp": "2026-01-15T11:47:30.980453Z", "telemetry": {"lat": 28.7525571, "lon": 77.11796, "satellites": 9, "altitude_gps_m": 206.9499969482422, "groundspeed_mps": 1.1598318815231323}, "flight": {"mode": "STABILIZE", "armed": false}, "ekf": {"attitude": {"roll": -0.3518666625022888, "pitch": -0.13012611865997314, "yaw": -2.072866678237915}, "local_position": {"x": -58.029659271240234, "y": 10.042119979858398, "z": 0.7072290182113647}, "status": {"flags": 831, "velocity_variance": 0.011139223352074623, "pos_horiz_variance": 0.010422037914395332, "pos_vert_variance": 0.055377330631017685}}, "errors": []}
{"timestamp": "2026-01-15T11:47:31.980694Z", "telemetry": {"lat": 28.7525789, "lon": 77.1179579, "satellites": 9, "altitude_gps_m": 206.9499969482422, "groundspeed_mps": 1.1598318815231323}, "flight": {"mode": "STABILIZE", "armed": false}, "ekf": {"attitude": {"roll": -0.3518666625022888, "pitch": -0.13012611865997314, "yaw": -2.072866678237915}, "local_position": {"x": -58.029659271240234, "y": 10.042119979858398, "z": 0.7072290182113647}, "status": {"flags": 831, "velocity_variance": 0.011139223352074623, "pos_horiz_variance": 0.010422037914395332, "pos_vert_variance": 0.055377330631017685}}, "errors": []}
{"timestamp": "2026-01-15T11:47:32.980609Z", "telemetry": {"lat": 28.7525897, "lon": 77.1179572, "satellites": 9, "altitude_gps_m": 206.76998901367188, "groundspeed_mps": 1.1243565082550049}, "flight": {"mode": "STABILIZE", "armed": false}, "ekf": {"attitude": {"roll": -0.3178728520870209, "pitch": -0.1704072207212448, "yaw": -1.9672678709030151}, "local_position": {"x": -55.69487762451172, "y": 9.8524169921875, "z": 0.8880096673965454}, "status": {"flags": 831, "velocity_variance": 0.049081869423389435, "pos_horiz_variance": 0.010574198327958584, "pos_vert_variance": 0.04685467854142189}}, "errors": []}
{"timestamp": "2026-01-15T11:47:33.980115Z", "telemetry": {"lat": 28.7526013, "lon": 77.1179568, "satellites": 9, "altitude_gps_m": 206.59999084472656, "groundspeed_mps": 1.2827253341674805}, "flight": {"mode": "STABILIZE", "armed": false}, "ekf": {"attitude": {"roll": -0.28585442900657654, "pitch": -0.15813051164150238, "yaw": -1.9457165002822876}, "local_position": {"x": -54.43731689453125, "y": 9.801227569580078, "z": 1.050014615058899}, "status": {"flags": 831, "velocity_variance": 0.066079281270504, "pos_horiz_variance": 0.017575882375240326, "pos_vert_variance": 0.052702125161886215}}, "errors": []}
{"timestamp": "2026-01-15T11:47:35.006475Z", "telemetry": {"lat": 28.7526013, "lon": 77.1179568, "satellites": 9, "altitude_gps_m": 206.59999084472656, "groundspeed_mps": 1.2827253341674805}, "flight": {"mode": "STABILIZE", "armed": false}, "ekf": {"attitude": {"roll": -0.28585442900657654, "pitch": -0.15813051164150238, "yaw": -1.9457165002822876}, "local_position": {"x": -54.43731689453125, "y": 9.801227569580078, "z": 1.050014615058899}, "status": {"flags": 831, "velocity_variance": 0.066079281270504, "pos_horiz_variance": 0.017575882375240326, "pos_vert_variance": 0.052702125161886215}}, "errors": []}
{"timestamp": "2026-01-15T11:47:36.043151Z", "telemetry": {"lat": 28.7526226, "lon": 77.1179554, "satellites": 9, "altitude_gps_m": 206.38999938964844, "groundspeed_mps": 1.1286659240722656}, "flight": {"mode": "STABILIZE", "armed": false}, "ekf": {"attitude": {"roll": -0.3039504289627075, "pitch": -0.16350357234477997, "yaw": -1.9542635679244995}, "local_position": {"x": -54.43731689453125, "y": 9.801227569580078, "z": 1.050014615058899}, "status": {"flags": 831, "velocity_variance": 0.066079281270504, "pos_horiz_variance": 0.017575882375240326, "pos_vert_variance": 0.052702125161886215}}, "errors": []}
{"timestamp": "2026-01-15T11:47:37.029433Z", "telemetry": {"lat": 28.7526226, "lon": 77.1179554, "satellites": 9, "altitude_gps_m": 206.38999938964844, "groundspeed_mps": 1.1286659240722656}, "flight": {"mode": "STABILIZE", "armed": false}, "ekf": {"attitude": {"roll": -0.3039504289627075, "pitch": -0.16350357234477997, "yaw": -1.9542635679244995}, "local_position": {"x": -54.43731689453125, "y": 9.801227569580078, "z": 1.050014615058899}, "status": {"flags": 831, "velocity_variance": 0.066079281270504, "pos_horiz_variance": 0.017575882375240326, "pos_vert_variance": 0.052702125161886215}}, "errors": []}
{"timestamp": "2026-01-15T11:47:38.015332Z", "telemetry": {"lat": 28.7526455, "lon": 77.1179519, "satellites": 9, "altitude_gps_m": 206.26998901367188, "groundspeed_mps": 1.25359046459198}, "flight": {"mode": "STABILIZE", "armed": false}, "ekf": {"attitude": {"roll": -0.11972364783287048, "pitch": -0.16890135407447815, "yaw": -2.0809760093688965}, "local_position": {"x": -49.47162628173828, "y": 9.310118675231934, "z": 1.3883559703826904}, "status": {"flags": 831, "velocity_variance": 0.06339383125305176, "pos_horiz_variance": 0.01218618918210268, "pos_vert_variance": 0.01568647474050522}}, "errors": []}
{"timestamp": "2026-01-15T11:47:39.017242Z", "telemetry": {"lat": 28.7526565, "lon": 77.1179492, "satellites": 9, "altitude_gps_m": 206.27999877929688, "groundspeed_mps": 1.183855414390564}, "flight": {"mode": "STABILIZE", "armed": false}, "ekf": {"attitude": {"roll": -0.14497686922550201, "pitch": -0.15268371999263763, "yaw": -2.0984504222869873}, "local_position": {"x": -48.204898834228516, "y": 9.014787673950195, "z": 1.3738582134246826}, "status": {"flags": 831, "velocity_variance": 0.11162379384040833, "pos_horiz_variance": 0.003983057104051113, "pos_vert_variance": 0.00384048861451447}}, "errors": []}
{"timestamp": "2026-01-15T11:47:40.022725Z", "telemetry": {"lat": 28.7526679, "lon": 77.1179452, "satellites": 9, "altitude_gps_m": 206.38999938964844, "groundspeed_mps": 1.2500118017196655}, "flight": {"mode": "STABILIZE", "armed": false}, "ekf": {"attitude": {"roll": -0.14292818307876587, "pitch": -0.17436255514621735, "yaw": -2.186976432800293}, "local_position": {"x": -46.969635009765625, "y": 8.683547019958496, "z": 1.268592357635498}, "status": {"flags": 831, "velocity_variance": 0.12468485534191132, "pos_horiz_variance": 0.011919012293219566, "pos_vert_variance": 0.009459513239562511}}, "errors": []}
{"timestamp": "2026-01-15T11:47:41.005887Z", "telemetry": {"lat": 28.7526783, "lon": 77.1179414, "satellites": 9, "altitude_gps_m": 206.1999969482422, "groundspeed_mps": 1.219122290611267}, "flight": {"mode": "STABILIZE", "armed": false}, "ekf": {"attitude": {"roll": -0.0293351449072361, "pitch": -0.16683900356292725, "yaw": -1.934536099433899}, "local_position": {"x": -45.66083908081055, "y": 8.477676391601562, "z": 1.3874508142471313}, "status": {"flags": 831, "velocity_variance": 0.19588789343833923, "pos_horiz_variance": 0.018856829032301903, "pos_vert_variance": 0.0348336398601532}}, "errors": []}
{"timestamp": "2026-01-15T11:47:42.025655Z", "telemetry": {"lat": 28.7526899, "lon": 77.1179408, "satellites": 9, "altitude_gps_m": 206.14999389648438, "groundspeed_mps": 1.1687349081039429}, "flight": {"mode": "STABILIZE", "armed": false}, "ekf": {"attitude": {"roll": -0.0181451253592968, "pitch": -0.15103814005851746, "yaw": -1.9539766311645508}, "local_position": {"x": -44.250362396240234, "y": 8.380696296691895, "z": 1.5033340454101562}, "status": {"flags": 831, "velocity_variance": 0.09308647364377975, "pos_horiz_variance": 0.02253618836402893, "pos_vert_variance": 0.008411025628447533}}, "errors": []}
{"timestamp": "2026-01-15T11:47:43.026635Z", "telemetry": {"lat": 28.7527, "lon": 77.1179414, "satellites": 9, "altitude_gps_m": 206.239990234375, "groundspeed_mps": 1.165710687637329}, "flight": {"mode": "STABILIZE", "armed": false}, "ekf": {"attitude": {"roll": -0.0598490945994854, "pitch": -0.19891011714935303, "yaw": -1.908384919166565}, "local_position": {"x": -43.1340446472168, "y": 8.327105522155762, "z": 1.4363592863082886}, "status": {"flags": 831, "velocity_variance": 0.07311307638883591, "pos_horiz_variance": 0.015636615455150604, "pos_vert_variance": 0.009770240634679794}}, "errors": []}
{"timestamp": "2026-01-15T11:47:43.995869Z", "telemetry": {"lat": 28.7527117, "lon": 77.1179412, "satellites": 9, "altitude_gps_m": 206.1999969482422, "groundspeed_mps": 1.1753160953521729}, "flight": {"mode": "STABILIZE", "armed": false}, "ekf": {"attitude": {"roll": -0.08598284423351288, "pitch": -0.20536252856254578, "yaw": -1.9491455554962158}, "local_position": {"x": -41.93601989746094, "y": 8.273890495300293, "z": 1.4494966268539429}, "status": {"flags": 831, "velocity_variance": 0.01892291195690632, "pos_horiz_variance": 0.004888528026640415, "pos_vert_variance": 0.010105373337864876}}, "errors": []}
{"timestamp": "2026-01-15T11:47:45.016850Z", "telemetry": {"lat": 28.7527226, "lon": 77.1179419, "satellites": 9, "altitude_gps_m": 206.1599884033203, "groundspeed_mps": 1.232372760772705}, "flight": {"mode": "STABILIZE", "armed": false}, "ekf": {"attitude": {"roll": -0.02618957683444023, "pitch": -0.18805280327796936, "yaw": -1.9063537120819092}, "local_position": {"x": -40.7387580871582, "y": 8.346309661865234, "z": 1.497320294380188}, "status": {"flags": 831, "velocity_variance": 0.17188017070293427, "pos_horiz_variance": 0.006987328641116619, "pos_vert_variance": 0.008184310048818588}}, "errors": []}
{"timestamp": "2026-01-15T11:47:46.003506Z", "telemetry": {"lat": 28.7527326, "lon": 77.1179428, "satellites": 9, "altitude_gps_m": 206.25, "groundspeed_mps": 1.1749237775802612}, "flight": {"mode": "STABILIZE", "armed": false}, "ekf": {"attitude": {"roll": 0.0027868635952472687, "pitch": -0.24028374254703522, "yaw": -2.011291980743408}, "local_position": {"x": -39.58356857299805, "y": 8.361501693725586, "z": 1.4073688983917236}, "status": {"flags": 831, "velocity_variance": 0.04910760372877121, "pos_horiz_variance": 0.012524752877652645, "pos_vert_variance": 0.02649649791419506}}, "errors": []}
{"timestamp": "2026-01-15T11:47:46.982252Z", "telemetry": {"lat": 28.7527427, "lon": 77.1179434, "satellites": 9, "altitude_gps_m": 206.38999938964844, "groundspeed_mps": 1.1452728509902954}, "flight": {"mode": "STABILIZE", "armed": false}, "ekf": {"attitude": {"roll": -0.08918383717536926, "pitch": -0.23707252740859985, "yaw": -2.0727481842041016}, "local_position": {"x": -38.468597412109375, "y": 8.42840576171875, "z": 1.2672673463821411}, "status": {"flags": 831, "velocity_variance": 0.09580975770950317, "pos_horiz_variance": 0.013173104263842106, "pos_vert_variance": 0.012001468800008297}}, "errors": []}
{"timestamp": "2026-01-15T11:47:48.014155Z", "telemetry": {"lat": 28.7527496, "lon": 77.1179427, "satellites": 9, "altitude_gps_m": 206.4199981689453, "groundspeed_mps": 1.2095155715942383}, "flight": {"mode": "STABILIZE", "armed": false}, "ekf": {"attitude": {"roll": -0.1069372147321701, "pitch": -0.26301753520965576, "yaw": -2.004727363586426}, "local_position": {"x": -37.88646697998047, "y": 8.475919723510742, "z": 1.2221684455871582}, "status": {"flags": 831, "velocity_variance": 0.0362655371427536, "pos_horiz_variance": 0.0021812794730067253, "pos_vert_variance": 0.008243190124630928}}, "errors": []}
{"timestamp": "2026-01-15T11:47:48.993960Z", "telemetry": {"lat": 28.7527648, "lon": 77.1179419, "satellites": 9, "altitude_gps_m": 206.37998962402344, "groundspeed_mps": 1.1377595663070679}, "flight": {"mode": "STABILIZE", "armed": false}, "ekf": {"attitude": {"roll": -0.07564197480678558, "pitch": -0.2282903492450714, "yaw": -2.0395312309265137}, "local_position": {"x": -36.14636993408203, "y": 8.563933372497559, "z": 1.2625350952148438}, "status": {"flags": 831, "velocity_variance": 0.07131217420101166, "pos_horiz_variance": 0.0217102263122797, "pos_vert_variance": 0.016294429078698158}}, "errors": []}
{"timestamp": "2026-01-15T11:47:49.990531Z", "telemetry": {"lat": 28.7527729, "lon": 77.1179418, "satellites": 9, "altitude_gps_m": 206.3300018310547, "groundspeed_mps": 1.1588054895401}, "flight": {"mode": "STABILIZE", "armed": false}, "ekf": {"attitude": {"roll": -0.04563138261437416, "pitch": -0.25407907366752625, "yaw": -1.8907288312911987}, "local_position": {"x": -35.247947692871094, "y": 8.568931579589844, "z": 1.3237742185592651}, "status": {"flags": 831, "velocity_variance": 0.05385671928524971, "pos_horiz_variance": 0.023507380858063698, "pos_vert_variance": 0.01348375529050827}}, "errors": []}
{"timestamp": "2026-01-15T11:47:51.008648Z", "telemetry": {"lat": 28.7527848, "lon": 77.1179445, "satellites": 9, "altitude_gps_m": 206.30999755859375, "groundspeed_mps": 1.1786038875579834}, "flight": {"mode": "STABILIZE", "armed": false}, "ekf": {"attitude": {"roll": -0.04833393171429634, "pitch": -0.20427386462688446, "yaw": -2.046315908432007}, "local_position": {"x": -33.792823791503906, "y": 8.72256088256836, "z": 1.3814376592636108}, "status": {"flags": 831, "velocity_variance": 0.08407012373209, "pos_horiz_variance": 0.010794924572110176, "pos_vert_variance": 0.01825394295156002}}, "errors": ["PreArm: Hardware safety switch"]}
{"timestamp": "2026-01-15T11:47:52.028403Z", "telemetry": {"lat": 28.752796, "lon": 77.1179427, "satellites": 9, "altitude_gps_m": 206.29998779296875, "groundspeed_mps": 1.2657694816589355}, "flight": {"mode": "STABILIZE", "armed": false}, "ekf": {"attitude": {"roll": -0.05403437837958336, "pitch": -0.20515504479408264, "yaw": -2.0369820594787598}, "local_position": {"x": -32.5782356262207, "y": 8.627442359924316, "z": 1.3612421751022339}, "status": {"flags": 831, "velocity_variance": 0.11102579534053802, "pos_horiz_variance": 0.019111977890133858, "pos_vert_variance": 0.02284938469529152}}, "errors": ["PreArm: Hardware safety switch"]}
{"timestamp": "2026-01-15T11:47:53.031514Z", "telemetry": {"lat": 28.752807, "lon": 77.117942, "satellites": 9, "altitude_gps_m": 206.3300018310547, "groundspeed_mps": 1.2976285219192505}, "flight": {"mode": "STABILIZE", "armed": false}, "ekf": {"attitude": {"roll": -0.0985724925994873, "pitch": -0.18077552318572998, "yaw": -2.032235860824585}, "local_position": {"x": -31.337560653686523, "y": 8.479650497436523, "z": 1.2999008893966675}, "status": {"flags": 831, "velocity_variance": 0.06270065158605576, "pos_horiz_variance": 0.011872048489749432, "pos_vert_variance": 0.024178851395845413}}, "errors": ["PreArm: Hardware safety switch"]}
{"timestamp": "2026-01-15T11:47:54.006500Z", "telemetry": {"lat": 28.7528171, "lon": 77.1179388, "satellites": 9, "altitude_gps_m": 206.14999389648438, "groundspeed_mps": 1.1869765520095825}, "flight": {"mode": "STABILIZE", "armed": false}, "ekf": {"attitude": {"roll": -0.15846629440784454, "pitch": -0.146709144115448, "yaw": -1.969296932220459}, "local_position": {"x": -30.198331832885742, "y": 8.247550010681152, "z": 1.443021535873413}, "status": {"flags": 831, "velocity_variance": 0.2250666618347168, "pos_horiz_variance": 0.02018607407808304, "pos_vert_variance": 0.0021957233548164368}}, "errors": ["PreArm: Hardware safety switch"]}
{"timestamp": "2026-01-15T11:47:54.996206Z", "telemetry": {"lat": 28.7528292, "lon": 77.1179349, "satellites": 9, "altitude_gps_m": 206.09999084472656, "groundspeed_mps": 1.2605057954788208}, "flight": {"mode": "STABILIZE", "armed": false}, "ekf": {"attitude": {"roll": -0.14318905770778656, "pitch": -0.1510113924741745, "yaw": -1.91938054561615}, "local_position": {"x": -29.11872673034668, "y": 7.672982215881348, "z": 1.5328172445297241}, "status": {"flags": 831, "velocity_variance": 1.0168529748916626, "pos_horiz_variance": 0.01814231276512146, "pos_vert_variance": 0.011477296240627766}}, "errors": ["PreArm: Hardware safety switch"]}
{"timestamp": "2026-01-15T11:47:55.991903Z", "telemetry": {"lat": 28.7528401, "lon": 77.117933, "satellites": 8, "altitude_gps_m": 206.0800018310547, "groundspeed_mps": 1.1954078674316406}, "flight": {"mode": "STABILIZE", "armed": false}, "ekf": {"attitude": {"roll": -0.09689724445343018, "pitch": -0.19130602478981018, "yaw": -1.9493507146835327}, "local_position": {"x": -27.86899185180664, "y": 7.4992547035217285, "z": 1.579529881477356}, "status": {"flags": 831, "velocity_variance": 0.13411776721477509, "pos_horiz_variance": 0.01729811355471611, "pos_vert_variance": 0.00572772603482008}}, "errors": ["PreArm: Hardware safety switch"]}
{"timestamp": "2026-01-15T11:47:57.014931Z", "telemetry": {"lat": 28.7528503, "lon": 77.1179372, "satellites": 8, "altitude_gps_m": 206.1599884033203, "groundspeed_mps": 1.0608875751495361}, "flight": {"mode": "STABILIZE", "armed": false}, "ekf": {"attitude": {"roll": -0.07079842686653137, "pitch": -0.1661527305841446, "yaw": -2.038428783416748}, "local_position": {"x": -26.568876266479492, "y": 7.309133529663086, "z": 1.492854118347168}, "status": {"flags": 831, "velocity_variance": 0.2385702133178711, "pos_horiz_variance": 0.039573460817337036, "pos_vert_variance": 0.014231500215828419}}, "errors": ["PreArm: Hardware safety switch"]}
{"timestamp": "2026-01-15T11:47:58.043165Z", "telemetry": {"lat": 28.7528588, "lon": 77.1179367, "satellites": 8, "altitude_gps_m": 206.27999877929688, "groundspeed_mps": 1.0309486389160156}, "flight": {"mode": "STABILIZE", "armed": false}, "ekf": {"attitude": {"roll": -0.08770973980426788, "pitch": -0.19105619192123413, "yaw": -2.039276123046875}, "local_position": {"x": -25.53057098388672, "y": 7.3580451011657715, "z": 1.3739882707595825}, "status": {"flags": 831, "velocity_variance": 0.06208282336592674, "pos_horiz_variance": 0.0348527655005455, "pos_vert_variance": 0.05885371193289757}}, "errors": ["PreArm: Hardware safety switch"]}
{"timestamp": "2026-01-15T11:47:59.038466Z", "telemetry": {"lat": 28.7528707, "lon": 77.1179371, "satellites": 8, "altitude_gps_m": 206.45999145507812, "groundspeed_mps": 1.084183931350708}, "flight": {"mode": "STABILIZE", "armed": false}, "ekf": {"attitude": {"roll": -0.05054927244782448, "pitch": -0.21188120543956757, "yaw": -2.0945587158203125}, "local_position": {"x": -24.664770126342773, "y": 7.47562837600708, "z": 1.227879524230957}, "status": {"flags": 831, "velocity_variance": 0.1019895151257515, "pos_horiz_variance": 0.03352905437350273, "pos_vert_variance": 0.037217698991298676}}, "errors": ["PreArm: Hardware safety switch"]}
{"timestamp": "2026-01-15T11:48:00.032050Z", "telemetry": {"lat": 28.7528825, "lon": 77.1179386, "satellites": 8, "altitude_gps_m": 206.5399932861328, "groundspeed_mps": 1.1646652221679688}, "flight": {"mode": "STABILIZE", "armed": false}, "ekf": {"attitude": {"roll": -0.047569792717695236, "pitch": -0.15570689737796783, "yaw": -2.125357151031494}, "local_position": {"x": -23.070924758911133, "y": 7.652828216552734, "z": 1.1162528991699219}, "status": {"flags": 831, "velocity_variance": 0.07730124890804291, "pos_horiz_variance": 0.03645632043480873, "pos_vert_variance": 0.0341939739882946}}, "errors": ["PreArm: Hardware safety switch"]}
{"timestamp": "2026-01-15T11:48:01.011277Z", "telemetry": {"lat": 28.7528939, "lon": 77.1179384, "satellites": 9, "altitude_gps_m": 206.72000122070312, "groundspeed_mps": 1.2351611852645874}, "flight": {"mode": "STABILIZE", "armed": false}, "ekf": {"attitude": {"roll": -0.05432462319731712, "pitch": -0.14906156063079834, "yaw": -2.1501476764678955}, "local_position": {"x": -21.71424674987793, "y": 7.750955581665039, "z": 0.937647819519043}, "status": {"flags": 831, "velocity_variance": 0.044775497168302536, "pos_horiz_variance": 0.02794150449335575, "pos_vert_variance": 0.028364280238747597}}, "errors": ["PreArm: Hardware safety switch"]}
{"timestamp": "2026-01-15T11:48:02.008587Z", "telemetry": {"lat": 28.7529043, "lon": 77.1179383, "satellites": 9, "altitude_gps_m": 206.83999633789062, "groundspeed_mps": 0.32749518752098083}, "flight": {"mode": "STABILIZE", "armed": false}, "ekf": {"attitude": {"roll": -0.07596798241138458, "pitch": -0.17421668767929077, "yaw": -2.018659830093384}, "local_position": {"x": -20.821897506713867, "y": 7.797727584838867, "z": 0.8170983195304871}, "status": {"flags": 831, "velocity_variance": 0.1227995827794075, "pos_horiz_variance": 0.026890940964221954, "pos_vert_variance": 0.035059604793787}}, "errors": ["PreArm: Hardware safety switch"]}
{"timestamp": "2026-01-15T11:48:03.008696Z", "telemetry": {"lat": 28.7529057, "lon": 77.11794, "satellites": 8, "altitude_gps_m": 206.87998962402344, "groundspeed_mps": 0.2498529702425003}, "flight": {"mode": "STABILIZE", "armed": false}, "ekf": {"attitude": {"roll": -0.16554486751556396, "pitch": -0.14701983332633972, "yaw": -1.8886502981185913}, "local_position": {"x": -20.752077102661133, "y": 7.9333176612854, "z": 0.7718857526779175}, "status": {"flags": 831, "velocity_variance": 0.08431147783994675, "pos_horiz_variance": 0.02927744947373867, "pos_vert_variance": 0.027605893090367317}}, "errors": ["PreArm: Hardware safety switch"]}
{"timestamp": "2026-01-15T11:48:04.005736Z", "telemetry": {"lat": 28.7529055, "lon": 77.1179409, "satellites": 9, "altitude_gps_m": 206.9499969482422, "groundspeed_mps": 0.14501923322677612}, "flight": {"mode": "STABILIZE", "armed": false}, "ekf": {"attitude": {"roll": -0.11840182542800903, "pitch": -0.10264700651168823, "yaw": -1.958295226097107}, "local_position": {"x": -20.72953224182129, "y": 8.004762649536133, "z": 0.7082586288452148}, "status": {"flags": 831, "velocity_variance": 0.07988128811120987, "pos_horiz_variance": 0.02916336990892887, "pos_vert_variance": 0.015988698229193687}}, "errors": ["PreArm: Hardware safety switch"]}
{"timestamp": "2026-01-15T11:48:05.002479Z", "telemetry": {"lat": 28.7529057, "lon": 77.117941, "satellites": 9, "altitude_gps_m": 207.0, "groundspeed_mps": 0.09687048941850662}, "flight": {"mode": "STABILIZE", "armed": false}, "ekf": {"attitude": {"roll": -0.0986672043800354, "pitch": -0.11685636639595032, "yaw": -2.0057897567749023}, "local_position": {"x": -20.6389217376709, "y": 8.112810134887695, "z": 0.6657755374908447}, "status": {"flags": 831, "velocity_variance": 0.0463828444480896, "pos_horiz_variance": 0.019105974584817886, "pos_vert_variance": 0.0011366653488948941}}, "errors": ["PreArm: Hardware safety switch"]}
{"timestamp": "2026-01-15T11:48:06.034297Z", "telemetry": {"lat": 28.7529068, "lon": 77.117941, "satellites": 9, "altitude_gps_m": 207.00999450683594, "groundspeed_mps": 0.05463586747646332}, "flight": {"mode": "STABILIZE", "armed": false}, "ekf": {"attitude": {"roll": -0.13113833963871002, "pitch": -0.10306081920862198, "yaw": -2.0309383869171143}, "local_position": {"x": -20.606765747070312, "y": 8.216338157653809, "z": 0.6406959891319275}, "status": {"flags": 831, "velocity_variance": 0.023725152015686035, "pos_horiz_variance": 0.011018834076821804, "pos_vert_variance": 0.028269123286008835}}, "errors": ["PreArm: Hardware safety switch"]}
{"timestamp": "2026-01-15T11:48:07.015831Z", "telemetry": {"lat": 28.7529099, "lon": 77.1179394, "satellites": 9, "altitude_gps_m": 206.92999267578125, "groundspeed_mps": 1.0620242357254028}, "flight": {"mode": "STABILIZE", "armed": false}, "ekf": {"attitude": {"roll": -0.11649365723133087, "pitch": -0.14545267820358276, "yaw": -2.1090493202209473}, "local_position": {"x": -20.060266494750977, "y": 8.036775588989258, "z": 0.7238007187843323}, "status": {"flags": 831, "velocity_variance": 0.07526245713233948, "pos_horiz_variance": 0.016705108806490898, "pos_vert_variance": 0.05740412697196007}}, "errors": ["PreArm: Hardware safety switch"]}
{"timestamp": "2026-01-15T11:48:08.013692Z", "telemetry": {"lat": 28.7529207, "lon": 77.1179363, "satellites": 9, "altitude_gps_m": 206.76998901367188, "groundspeed_mps": 1.3166600465774536}, "flight": {"mode": "STABILIZE", "armed": false}, "ekf": {"attitude": {"roll": -0.06069410219788551, "pitch": -0.09362264722585678, "yaw": -1.944555401802063}, "local_position": {"x": -18.77820587158203, "y": 7.811813831329346, "z": 0.8834447860717773}, "status": {"flags": 831, "velocity_variance": 0.048992931842803955, "pos_horiz_variance": 0.016352077946066856, "pos_vert_variance": 0.057411570101976395}}, "errors": ["PreArm: Hardware safety switch"]}
{"timestamp": "2026-01-15T11:48:08.998140Z", "telemetry": {"lat": 28.7529316, "lon": 77.1179363, "satellites": 9, "altitude_gps_m": 206.70999145507812, "groundspeed_mps": 1.4543958902359009}, "flight": {"mode": "STABILIZE", "armed": false}, "ekf": {"attitude": {"roll": -0.11416661739349365, "pitch": -0.053522538393735886, "yaw": -2.024712085723877}, "local_position": {"x": -17.4776611328125, "y": 7.800576210021973, "z": 0.9473312497138977}, "status": {"flags": 831, "velocity_variance": 0.08485927432775497, "pos_horiz_variance": 0.007722512353211641, "pos_vert_variance": 0.05764232948422432}}, "errors": ["PreArm: Hardware safety switch"]}
{"timestamp": "2026-01-15T11:48:09.995779Z", "telemetry": {"lat": 28.7529431, "lon": 77.1179348, "satellites": 9, "altitude_gps_m": 206.5800018310547, "groundspeed_mps": 1.418381690979004}, "flight": {"mode": "STABILIZE", "armed": false}, "ekf": {"attitude": {"roll": -0.1571739763021469, "pitch": -0.08078493177890778, "yaw": -2.0816662311553955}, "local_position": {"x": -16.161144256591797, "y": 7.733870983123779, "z": 1.0767730474472046}, "status": {"flags": 831, "velocity_variance": 0.06499404460191727, "pos_horiz_variance": 0.01179807260632515, "pos_vert_variance": 0.04758184403181076}}, "errors": ["PreArm: Hardware safety switch"]}
{"timestamp": "2026-01-15T11:48:10.998023Z", "telemetry": {"lat": 28.7529552, "lon": 77.1179332, "satellites": 9, "altitude_gps_m": 206.45999145507812, "groundspeed_mps": 1.3365223407745361}, "flight": {"mode": "STABILIZE", "armed": false}, "ekf": {"attitude": {"roll": -0.06168708577752113, "pitch": -0.07816891372203827, "yaw": -2.006319761276245}, "local_position": {"x": -14.843076705932617, "y": 7.553709983825684, "z": 1.1978386640548706}, "status": {"flags": 831, "velocity_variance": 0.08950058370828629, "pos_horiz_variance": 0.011016973294317722, "pos_vert_variance": 0.03621694818139076}}, "errors": ["PreArm: Hardware safety switch"]}
{"timestamp": "2026-01-15T11:48:12.011093Z", "telemetry": {"lat": 28.7529672, "lon": 77.1179318, "satellites": 9, "altitude_gps_m": 206.36000061035156, "groundspeed_mps": 1.193609595298767}, "flight": {"mode": "STABILIZE", "armed": false}, "ekf": {"attitude": {"roll": -0.12348359823226929, "pitch": -0.12029313296079636, "yaw": -2.222299575805664}, "local_position": {"x": -13.559507369995117, "y": 7.272854804992676, "z": 1.300333023071289}, "status": {"flags": 831, "velocity_variance": 0.0533306822180748, "pos_horiz_variance": 0.010396544821560383, "pos_vert_variance": 0.019568491727113724}}, "errors": ["PreArm: Hardware safety switch"]}
{"timestamp": "2026-01-15T11:48:12.980903Z", "telemetry": {"lat": 28.7529783, "lon": 77.1179265, "satellites": 9, "altitude_gps_m": 206.26998901367188, "groundspeed_mps": 1.118540644645691}, "flight": {"mode": "STABILIZE", "armed": false}, "ekf": {"attitude": {"roll": -0.0571880079805851, "pitch": -0.1284240335226059, "yaw": -2.5714097023010254}, "local_position": {"x": -12.418218612670898, "y": 6.570559024810791, "z": 1.3886879682540894}, "status": {"flags": 831, "velocity_variance": 0.11752846091985703, "pos_horiz_variance": 0.013980155810713768, "pos_vert_variance": 0.03769758343696594}}, "errors": ["PreArm: Hardware safety switch"]}
{"timestamp": "2026-01-15T11:48:13.993580Z", "telemetry": {"lat": 28.7529877, "lon": 77.11792, "satellites": 9, "altitude_gps_m": 206.239990234375, "groundspeed_mps": 1.1383427381515503}, "flight": {"mode": "STABILIZE", "armed": false}, "ekf": {"attitude": {"roll": -0.1341940313577652, "pitch": -0.07364236563444138, "yaw": -2.52933669090271}, "local_position": {"x": -11.409337997436523, "y": 5.88862419128418, "z": 1.4082406759262085}, "status": {"flags": 831, "velocity_variance": 0.1267043799161911, "pos_horiz_variance": 0.02301873080432415, "pos_vert_variance": 0.02422354370355606}}, "errors": ["PreArm: Hardware safety switch"]}
{"timestamp": "2026-01-15T11:48:15.027290Z", "telemetry": {"lat": 28.7529945, "lon": 77.1179143, "satellites": 9, "altitude_gps_m": 206.1699981689453, "groundspeed_mps": 1.2346686124801636}, "flight": {"mode": "STABILIZE", "armed": false}, "ekf": {"attitude": {"roll": -0.17711912095546722, "pitch": -0.07880827784538269, "yaw": -2.346597909927368}, "local_position": {"x": -10.704841613769531, "y": 5.503665924072266, "z": 1.4404568672180176}, "status": {"flags": 831, "velocity_variance": 0.022143274545669556, "pos_horiz_variance": 0.018968047574162483, "pos_vert_variance": 0.00564921647310257}}, "errors": ["PreArm: Hardware safety switch"]}
{"timestamp": "2026-01-15T11:48:15.995276Z", "telemetry": {"lat": 28.7530064, "lon": 77.1179074, "satellites": 9, "altitude_gps_m": 206.0699920654297, "groundspeed_mps": 1.3149181604385376}, "flight": {"mode": "STABILIZE", "armed": false}, "ekf": {"attitude": {"roll": -0.10439927875995636, "pitch": -0.09408076107501984, "yaw": -2.324307918548584}, "local_position": {"x": -9.257719993591309, "y": 4.825544834136963, "z": 1.5869501829147339}, "status": {"flags": 831, "velocity_variance": 0.0233012642711401, "pos_horiz_variance": 0.018632404506206512, "pos_vert_variance": 0.002715297508984804}}, "errors": ["PreArm: Hardware safety switch"]}
{"timestamp": "2026-01-15T11:48:17.029167Z", "telemetry": {"lat": 28.7530167, "lon": 77.1179005, "satellites": 9, "altitude_gps_m": 205.989990234375, "groundspeed_mps": 1.216611385345459}, "flight": {"mode": "STABILIZE", "armed": false}, "ekf": {"attitude": {"roll": -0.08285757899284363, "pitch": -0.12924101948738098, "yaw": -2.3376457691192627}, "local_position": {"x": -8.091854095458984, "y": 4.238799095153809, "z": 1.666878581047058}, "status": {"flags": 831, "velocity_variance": 0.04775938019156456, "pos_horiz_variance": 0.016611825674772263, "pos_vert_variance": 0.003821041202172637}}, "errors": ["PreArm: Hardware safety switch"]}
{"timestamp": "2026-01-15T11:48:18.028155Z", "telemetry": {"lat": 28.7530276, "lon": 77.1178965, "satellites": 9, "altitude_gps_m": 206.0699920654297, "groundspeed_mps": 1.2337708473205566}, "flight": {"mode": "STABILIZE", "armed": false}, "ekf": {"attitude": {"roll": -0.06585881114006042, "pitch": -0.12259403616189957, "yaw": -2.331623077392578}, "local_position": {"x": -6.9196271896362305, "y": 3.733346462249756, "z": 1.5855976343154907}, "status": {"flags": 831, "velocity_variance": 0.06390160322189331, "pos_horiz_variance": 0.02227451652288437, "pos_vert_variance": 0.00034298718674108386}}, "errors": ["PreArm: Hardware safety switch"]}
{"timestamp": "2026-01-15T11:48:19.028067Z", "telemetry": {"lat": 28.7530374, "lon": 77.1178928, "satellites": 9, "altitude_gps_m": 206.13999938964844, "groundspeed_mps": 1.1617493629455566}, "flight": {"mode": "STABILIZE", "armed": false}, "ekf": {"attitude": {"roll": -0.07949638366699219, "pitch": -0.13849590718746185, "yaw": -2.3576602935791016}, "local_position": {"x": -6.071906566619873, "y": 3.387709617614746, "z": 1.537157416343689}, "status": {"flags": 831, "velocity_variance": 0.06831057369709015, "pos_horiz_variance": 0.02309988997876644, "pos_vert_variance": 0.014059231616556644}}, "errors": ["PreArm: Hardware safety switch"]}
{"timestamp": "2026-01-15T11:48:20.020531Z", "telemetry": {"lat": 28.7530467, "lon": 77.1178872, "satellites": 9, "altitude_gps_m": 206.14999389648438, "groundspeed_mps": 1.0597126483917236}, "flight": {"mode": "STABILIZE", "armed": false}, "ekf": {"attitude": {"roll": -0.12882979214191437, "pitch": -0.1760566681623459, "yaw": -2.364020347595215}, "local_position": {"x": -4.784172534942627, "y": 2.7519588470458984, "z": 1.5047197341918945}, "status": {"flags": 831, "velocity_variance": 0.05474478006362915, "pos_horiz_variance": 0.021872924640774727, "pos_vert_variance": 0.015481166541576385}}, "errors": ["PreArm: Hardware safety switch", "PreArm: Hardware safety switch"]}
{"timestamp": "2026-01-15T11:48:21.011210Z", "telemetry": {"lat": 28.7530562, "lon": 77.1178816, "satellites": 9, "altitude_gps_m": 206.0399932861328, "groundspeed_mps": 1.1047240495681763}, "flight": {"mode": "STABILIZE", "armed": false}, "ekf": {"attitude": {"roll": -0.12761622667312622, "pitch": -0.14947617053985596, "yaw": -2.3463826179504395}, "local_position": {"x": -3.7690110206604004, "y": 2.236859083175659, "z": 1.616567611694336}, "status": {"flags": 831, "velocity_variance": 0.08850061148405075, "pos_horiz_variance": 0.017601139843463898, "pos_vert_variance": 0.019043652340769768}}, "errors": ["PreArm: Hardware safety switch", "PreArm: Hardware safety switch"]}
{"timestamp": "2026-01-15T11:48:21.999232Z", "telemetry": {"lat": 28.7530653, "lon": 77.1178749, "satellites": 9, "altitude_gps_m": 206.01998901367188, "groundspeed_mps": 0.968367338180542}, "flight": {"mode": "STABILIZE", "armed": false}, "ekf": {"attitude": {"roll": -0.1589207649230957, "pitch": -0.12545524537563324, "yaw": -2.5922417640686035}, "local_position": {"x": -2.7699227333068848, "y": 1.649882435798645, "z": 1.637224793434143}, "status": {"flags": 831, "velocity_variance": 0.05758713558316231, "pos_horiz_variance": 0.017761079594492912, "pos_vert_variance": 0.015158314257860184}}, "errors": ["PreArm: Hardware safety switch", "PreArm: Hardware safety switch"]}
{"timestamp": "2026-01-15T11:48:23.014547Z", "telemetry": {"lat": 28.7530714, "lon": 77.1178725, "satellites": 9, "altitude_gps_m": 206.0800018310547, "groundspeed_mps": 0.9045335650444031}, "flight": {"mode": "STABILIZE", "armed": false}, "ekf": {"attitude": {"roll": -0.15689411759376526, "pitch": -0.12284951657056808, "yaw": -2.41800594329834}, "local_position": {"x": -2.0651111602783203, "y": 1.4384267330169678, "z": 1.6269359588623047}, "status": {"flags": 831, "velocity_variance": 0.05892892926931381, "pos_horiz_variance": 0.014304992742836475, "pos_vert_variance": 0.0013689768966287374}}, "errors": ["PreArm: Hardware safety switch", "PreArm: Hardware safety switch"]}
{"timestamp": "2026-01-15T11:48:23.998913Z", "telemetry": {"lat": 28.7530796, "lon": 77.11787, "satellites": 9, "altitude_gps_m": 206.239990234375, "groundspeed_mps": 0.8915210366249084}, "flight": {"mode": "STABILIZE", "armed": false}, "ekf": {"attitude": {"roll": -0.16706132888793945, "pitch": -0.1137300431728363, "yaw": -2.2930142879486084}, "local_position": {"x": -1.2585299015045166, "y": 1.2370083332061768, "z": 1.4611713886260986}, "status": {"flags": 831, "velocity_variance": 0.06571823358535767, "pos_horiz_variance": 0.022367287427186966, "pos_vert_variance": 0.03260064125061035}}, "errors": ["PreArm: Hardware safety switch", "PreArm: Hardware safety switch"]}
{"timestamp": "2026-01-15T11:48:25.010579Z", "telemetry": {"lat": 28.7530868, "lon": 77.1178669, "satellites": 9, "altitude_gps_m": 206.4499969482422, "groundspeed_mps": 0.3575293719768524}, "flight": {"mode": "STABILIZE", "armed": false}, "ekf": {"attitude": {"roll": -0.2205624282360077, "pitch": -0.22124797105789185, "yaw": -2.1287989616394043}, "local_position": {"x": -0.6522483825683594, "y": 0.977331280708313, "z": 1.2426574230194092}, "status": {"flags": 831, "velocity_variance": 0.025074772536754608, "pos_horiz_variance": 0.02386031113564968, "pos_vert_variance": 0.020121613517403603}}, "errors": ["PreArm: Hardware safety switch", "PreArm: Hardware safety switch"]}
{"timestamp": "2026-01-15T11:48:25.993080Z", "telemetry": {"lat": 28.7530902, "lon": 77.1178642, "satellites": 9, "altitude_gps_m": 206.47999572753906, "groundspeed_mps": 0.10487890988588333}, "flight": {"mode": "STABILIZE", "armed": false}, "ekf": {"attitude": {"roll": -0.15302914381027222, "pitch": -0.1273312121629715, "yaw": -2.222424268722534}, "local_position": {"x": -0.2313099056482315, "y": 0.8145239949226379, "z": 1.170512080192566}, "status": {"flags": 831, "velocity_variance": 0.06268797069787979, "pos_horiz_variance": 0.027418196201324463, "pos_vert_variance": 0.018289145082235336}}, "errors": ["PreArm: Hardware safety switch", "PreArm: Hardware safety switch"]}
{"timestamp": "2026-01-15T11:48:27.002439Z", "telemetry": {"lat": 28.7530916, "lon": 77.1178629, "satellites": 9, "altitude_gps_m": 206.5699920654297, "groundspeed_mps": 0.06061409041285515}, "flight": {"mode": "STABILIZE", "armed": false}, "ekf": {"attitude": {"roll": -0.1991538107395172, "pitch": -0.17987391352653503, "yaw": -2.0303101539611816}, "local_position": {"x": -0.1377648264169693, "y": 0.7579823732376099, "z": 1.088253140449524}, "status": {"flags": 831, "velocity_variance": 0.05230681225657463, "pos_horiz_variance": 0.025591902434825897, "pos_vert_variance": 0.028502391651272774}}, "errors": ["PreArm: Hardware safety switch", "PreArm: Hardware safety switch"]}
{"timestamp": "2026-01-15T11:48:28.014558Z", "telemetry": {"lat": 28.7530916, "lon": 77.1178635, "satellites": 9, "altitude_gps_m": 206.70999145507812, "groundspeed_mps": 0.036776382476091385}, "flight": {"mode": "STABILIZE", "armed": false}, "ekf": {"attitude": {"roll": -0.19213517010211945, "pitch": -0.15073765814304352, "yaw": -2.0174670219421387}, "local_position": {"x": -0.08076100796461105, "y": 0.7549460530281067, "z": 0.9678917527198792}, "status": {"flags": 831, "velocity_variance": 0.01717699132859707, "pos_horiz_variance": 0.016506318002939224, "pos_vert_variance": 0.0166255421936512}}, "errors": ["PreArm: Hardware safety switch", "PreArm: Hardware safety switch"]}
{"timestamp": "2026-01-15T11:48:28.987511Z", "telemetry": {"lat": 28.7530912, "lon": 77.1178643, "satellites": 9, "altitude_gps_m": 206.72999572753906, "groundspeed_mps": 0.13018816709518433}, "flight": {"mode": "STABILIZE", "armed": false}, "ekf": {"attitude": {"roll": -0.19025669991970062, "pitch": -0.19808687269687653, "yaw": -1.7944614887237549}, "local_position": {"x": -0.06261229515075684, "y": 0.7406328320503235, "z": 0.9218782186508179}, "status": {"flags": 831, "velocity_variance": 0.0652063637971878, "pos_horiz_variance": 0.009838970378041267, "pos_vert_variance": 0.0022584290709346533}}, "errors": ["PreArm: Hardware safety switch", "PreArm: Hardware safety switch"]}
{"timestamp": "2026-01-15T11:48:29.998505Z", "telemetry": {"lat": 28.7530922, "lon": 77.1178641, "satellites": 9, "altitude_gps_m": 206.72000122070312, "groundspeed_mps": 0.1911274790763855}, "flight": {"mode": "STABILIZE", "armed": false}, "ekf": {"attitude": {"roll": -0.18264120817184448, "pitch": -0.15666338801383972, "yaw": -2.5020294189453125}, "local_position": {"x": 0.0213717482984066, "y": 0.629265308380127, "z": 0.9408861398696899}, "status": {"flags": 831, "velocity_variance": 0.051799703389406204, "pos_horiz_variance": 0.013304208405315876, "pos_vert_variance": 0.010063382796943188}}, "errors": ["PreArm: Hardware safety switch", "PreArm: Hardware safety switch"]}
{"timestamp": "2026-01-15T11:48:31.004063Z", "telemetry": {"lat": 28.7530927, "lon": 77.1178627, "satellites": 9, "altitude_gps_m": 206.72000122070312, "groundspeed_mps": 0.23400826752185822}, "flight": {"mode": "STABILIZE", "armed": false}, "ekf": {"attitude": {"roll": -0.15259525179862976, "pitch": -0.0968020036816597, "yaw": -2.4317586421966553}, "local_position": {"x": 0.07670055329799652, "y": 0.5575442314147949, "z": 0.9251111745834351}, "status": {"flags": 831, "velocity_variance": 0.047027576714754105, "pos_horiz_variance": 0.018318817019462585, "pos_vert_variance": 0.01744854263961315}}, "errors": ["PreArm: Hardware safety switch", "PreArm: Hardware safety switch"]}
{"timestamp": "2026-01-15T11:48:32.009055Z", "telemetry": {"lat": 28.7530923, "lon": 77.1178648, "satellites": 9, "altitude_gps_m": 206.76998901367188, "groundspeed_mps": 0.4438138008117676}, "flight": {"mode": "STABILIZE", "armed": false}, "ekf": {"attitude": {"roll": -0.29264402389526367, "pitch": -0.13579639792442322, "yaw": -2.7449135780334473}, "local_position": {"x": -0.020829785615205765, "y": 0.7539095878601074, "z": 0.8960465788841248}, "status": {"flags": 831, "velocity_variance": 0.04739595204591751, "pos_horiz_variance": 0.01334363128989935, "pos_vert_variance": 0.0027178667951375246}}, "errors": ["PreArm: Hardware safety switch", "PreArm: Hardware safety switch"]}
{"timestamp": "2026-01-15T11:48:32.982491Z", "telemetry": {"lat": 28.7530896, "lon": 77.1178635, "satellites": 9, "altitude_gps_m": 206.8199920654297, "groundspeed_mps": 0.13886909186840057}, "flight": {"mode": "STABILIZE", "armed": false}, "ekf": {"attitude": {"roll": -0.006589990109205246, "pitch": -0.27822569012641907, "yaw": 2.7721996307373047}, "local_position": {"x": -0.3182242810726166, "y": 0.6562560200691223, "z": 0.8351205587387085}, "status": {"flags": 831, "velocity_variance": 0.0338740237057209, "pos_horiz_variance": 0.011452051810920238, "pos_vert_variance": 0.0023921479005366564}}, "errors": ["PreArm: Hardware safety switch", "PreArm: Hardware safety switch"]}
{"timestamp": "2026-01-15T11:48:33.987083Z", "telemetry": {"lat": 28.7530881, "lon": 77.1178624, "satellites": 9, "altitude_gps_m": 206.7899932861328, "groundspeed_mps": 0.07172922044992447}, "flight": {"mode": "STABILIZE", "armed": false}, "ekf": {"attitude": {"roll": -0.04501594230532646, "pitch": -0.2599031925201416, "yaw": 2.8499579429626465}, "local_position": {"x": -0.42475733160972595, "y": 0.6656041145324707, "z": 0.8594567775726318}, "status": {"flags": 831, "velocity_variance": 0.056959643959999084, "pos_horiz_variance": 0.008042888715863228, "pos_vert_variance": 0.0037397444248199463}}, "errors": ["PreArm: Hardware safety switch", "PreArm: Hardware safety switch"]}
{"timestamp": "2026-01-15T11:48:34.994774Z", "telemetry": {"lat": 28.7530875, "lon": 77.1178619, "satellites": 9, "altitude_gps_m": 206.7899932861328, "groundspeed_mps": 0.24964186549186707}, "flight": {"mode": "STABILIZE", "armed": false}, "ekf": {"attitude": {"roll": 0.10523150116205215, "pitch": -0.30344682931900024, "yaw": 2.5647711753845215}, "local_position": {"x": -0.5095457434654236, "y": 0.6644687056541443, "z": 0.8607282042503357}, "status": {"flags": 831, "velocity_variance": 0.05251670628786087, "pos_horiz_variance": 0.010838053189218044, "pos_vert_variance": 0.002253611572086811}}, "errors": ["PreArm: Hardware safety switch", "PreArm: Hardware safety switch"]}
{"timestamp": "2026-01-15T11:48:36.028677Z", "telemetry": {"lat": 28.753087, "lon": 77.1178626, "satellites": 9, "altitude_gps_m": 206.86000061035156, "groundspeed_mps": 0.2634267807006836}, "flight": {"mode": "STABILIZE", "armed": false}, "ekf": {"attitude": {"roll": 0.0986999124288559, "pitch": -0.3545055091381073, "yaw": 2.2929534912109375}, "local_position": {"x": -0.5884699821472168, "y": 0.754429280757904, "z": 0.8129710555076599}, "status": {"flags": 831, "velocity_variance": 0.061579685658216476, "pos_horiz_variance": 0.015336100943386555, "pos_vert_variance": 0.009040436707437038}}, "errors": ["PreArm: Hardware safety switch", "PreArm: Hardware safety switch"]}
{"timestamp": "2026-01-15T11:48:37.031534Z", "telemetry": {"lat": 28.7530872, "lon": 77.1178641, "satellites": 9, "altitude_gps_m": 206.92999267578125, "groundspeed_mps": 0.5481787323951721}, "flight": {"mode": "STABILIZE", "armed": false}, "ekf": {"attitude": {"roll": 0.08354328572750092, "pitch": -0.32249915599823, "yaw": 1.9098660945892334}, "local_position": {"x": -0.5868145227432251, "y": 0.9645295739173889, "z": 0.7252662777900696}, "status": {"flags": 831, "velocity_variance": 0.0810927301645279, "pos_horiz_variance": 0.01626228354871273, "pos_vert_variance": 0.0045369211584329605}}, "errors": ["PreArm: Hardware safety switch", "PreArm: Hardware safety switch"]}
{"timestamp": "2026-01-15T11:48:38.004486Z", "telemetry": {"lat": 28.753085, "lon": 77.1178664, "satellites": 9, "altitude_gps_m": 206.88999938964844, "groundspeed_mps": 0.3170379400253296}, "flight": {"mode": "STABILIZE", "armed": false}, "ekf": {"attitude": {"roll": 0.09997087717056274, "pitch": -0.36866524815559387, "yaw": 1.122639775276184}, "local_position": {"x": -0.7012906074523926, "y": 1.2166469097137451, "z": 0.7670101523399353}, "status": {"flags": 831, "velocity_variance": 0.05736778303980827, "pos_horiz_variance": 0.018574051558971405, "pos_vert_variance": 0.009132633917033672}}, "errors": ["PreArm: Hardware safety switch", "PreArm: Hardware safety switch"]}
{"timestamp": "2026-01-15T11:48:39.010375Z", "telemetry": {"lat": 28.7530889, "lon": 77.1178673, "satellites": 9, "altitude_gps_m": 206.87998962402344, "groundspeed_mps": 0.17283180356025696}, "flight": {"mode": "STABILIZE", "armed": false}, "ekf": {"attitude": {"roll": 0.09729616343975067, "pitch": -0.46991923451423645, "yaw": 0.9742381572723389}, "local_position": {"x": -0.579121470451355, "y": 1.2105382680892944, "z": 0.7793585658073425}, "status": {"flags": 831, "velocity_variance": 0.07682435214519501, "pos_horiz_variance": 0.04354683682322502, "pos_vert_variance": 0.012506905943155289}}, "errors": ["PreArm: Hardware safety switch", "PreArm: Hardware safety switch"]}
{"timestamp": "2026-01-15T11:48:40.011241Z", "telemetry": {"lat": 28.7530896, "lon": 77.1178667, "satellites": 9, "altitude_gps_m": 206.8699951171875, "groundspeed_mps": 0.21305064857006073}, "flight": {"mode": "STABILIZE", "armed": false}, "ekf": {"attitude": {"roll": 0.08053916692733765, "pitch": -0.4418264627456665, "yaw": 1.0066213607788086}, "local_position": {"x": -0.451889306306839, "y": 1.2100151777267456, "z": 0.7856915593147278}, "status": {"flags": 831, "velocity_variance": 0.0735953077673912, "pos_horiz_variance": 0.04478012025356293, "pos_vert_variance": 0.006438312586396933}}, "errors": ["PreArm: Hardware safety switch", "PreArm: Hardware safety switch"]}
{"timestamp": "2026-01-15T11:48:41.013070Z", "telemetry": {"lat": 28.7530907, "lon": 77.1178661, "satellites": 9, "altitude_gps_m": 206.8199920654297, "groundspeed_mps": 0.20869654417037964}, "flight": {"mode": "STABILIZE", "armed": false}, "ekf": {"attitude": {"roll": 0.11679799854755402, "pitch": -0.4571109116077423, "yaw": 0.9903329014778137}, "local_position": {"x": -0.29534947872161865, "y": 1.2127243280410767, "z": 0.836410403251648}, "status": {"flags": 831, "velocity_variance": 0.10012839734554291, "pos_horiz_variance": 0.0467400848865509, "pos_vert_variance": 0.017489096149802208}}, "errors": ["PreArm: Hardware safety switch", "PreArm: Hardware safety switch"]}
{"timestamp": "2026-01-15T11:48:42.014976Z", "telemetry": {"lat": 28.7530912, "lon": 77.1178649, "satellites": 9, "altitude_gps_m": 206.72999572753906, "groundspeed_mps": 0.16323864459991455}, "flight": {"mode": "STABILIZE", "armed": false}, "ekf": {"attitude": {"roll": 0.09831111133098602, "pitch": -0.43689200282096863, "yaw": 1.021277666091919}, "local_position": {"x": -0.15904901921749115, "y": 1.1676579713821411, "z": 0.9069771766662598}, "status": {"flags": 831, "velocity_variance": 0.0833878442645073, "pos_horiz_variance": 0.04963571950793266, "pos_vert_variance": 0.019945412874221802}}, "errors": ["PreArm: Hardware safety switch", "PreArm: Hardware safety switch"]}
{"timestamp": "2026-01-15T11:48:43.020556Z", "telemetry": {"lat": 28.7530915, "lon": 77.1178639, "satellites": 9, "altitude_gps_m": 206.61000061035156, "groundspeed_mps": 0.16350343823432922}, "flight": {"mode": "STABILIZE", "armed": false}, "ekf": {"attitude": {"roll": 0.08869794756174088, "pitch": -0.45001986622810364, "yaw": 1.157738447189331}, "local_position": {"x": -0.06943073123693466, "y": 1.0523446798324585, "z": 1.0171267986297607}, "status": {"flags": 831, "velocity_variance": 0.06409719586372375, "pos_horiz_variance": 0.045735619962215424, "pos_vert_variance": 0.0226416178047657}}, "errors": ["PreArm: Hardware safety switch", "PreArm: Hardware safety switch"]}
{"timestamp": "2026-01-15T11:48:43.987805Z", "telemetry": {"lat": 28.7530922, "lon": 77.1178629, "satellites": 9, "altitude_gps_m": 206.50999450683594, "groundspeed_mps": 0.10459065437316895}, "flight": {"mode": "STABILIZE", "armed": false}, "ekf": {"attitude": {"roll": 0.05115653574466705, "pitch": -0.4384346604347229, "yaw": 1.126579761505127}, "local_position": {"x": 0.040316060185432434, "y": 0.9361064434051514, "z": 1.1523007154464722}, "status": {"flags": 831, "velocity_variance": 0.07355928421020508, "pos_horiz_variance": 0.042010363191366196, "pos_vert_variance": 0.03740504011511803}}, "errors": ["PreArm: Hardware safety switch", "PreArm: Hardware safety switch"]}
